$GPRMC,153013,A,2920.864000,N,11954.167000,E,3.00,0.00,20161023,,,D*7D
$PTUBA,167.94,,17,GPS,,8.00,F,F*15
$GPRMC,153015,A,2920.863000,N,11954.167000,E,3.00,0.00,20161023,,,D*7C
$PTUBA,168.68,,17,GPS,,12.00,F,F*22
$GPRMC,153016,A,2920.863000,N,11954.168000,E,2.00,0.00,20161023,,,D*71
$PTUBA,168.99,,17,GPS,,6.00,F,F*19
$GPRMC,153017,A,2920.862000,N,11954.169000,E,2.00,0.00,20161023,,,D*70
$PTUBA,169.29,,17,GPS,,6.00,F,F*13
$GPRMC,153018,A,2920.861000,N,11954.170000,E,4.00,0.00,20161023,,,D*72
$PTUBA,169.57,,16,GPS,,6.00,F,F*1B
$GPRMC,153019,A,2920.860000,N,11954.172000,E,4.00,0.00,20161023,,,D*70
$PTUBA,169.84,,18,GPS,,6.00,F,F*1B
$GPRMC,153020,A,2920.860000,N,11954.173000,E,3.00,0.00,20161023,,,D*7C
$PTUBA,170.11,,18,GPS,,6.00,F,F*1F
$GPRMC,153021,A,2920.859000,N,11954.173000,E,3.00,0.00,20161023,,,D*77
$PTUBA,170.14,,17,GPS,,6.00,F,F*15
$GPRMC,153022,A,2920.859000,N,11954.172000,E,1.00,0.00,20161023,,,D*77
$PTUBA,170.16,,16,GPS,,6.00,F,F*16
$GPRMC,153024,A,2920.858000,N,11954.173000,E,1.00,0.00,20161023,,,D*71
$PTUBA,170.38,,14,GPS,,6.00,F,F*18
$GPRMC,153027,A,2920.857000,N,11954.174000,E,4.00,0.00,20161023,,,D*7F
$PTUBA,170.66,,14,GPS,,8.00,F,F*1D
$GPRMC,153028,A,2920.857000,N,11954.175000,E,4.00,0.00,20161023,,,D*71
$PTUBA,170.77,,13,GPS,,12.00,F,F*21
$GPRMC,153031,A,2920.855000,N,11954.175000,E,1.00,0.00,20161023,,,D*7E
$PTUBA,171.09,,16,GPS,,8.00,F,F*17
$GPRMC,153032,A,2920.854000,N,11954.174000,E,1.00,0.00,20161023,,,D*7D
$PTUBA,171.19,,16,GPS,,8.00,F,F*16
$GPRMC,153033,A,2920.853000,N,11954.172000,E,5.00,214.91,20161023,,,D*76
$PTUBA,171.29,,16,GPS,,6.00,F,F*1B
$GPRMC,153034,A,2920.852000,N,11954.170000,E,5.00,236.56,20161023,,,D*79
$PTUBA,171.40,,18,GPS,,8.00,F,F*14
$GPRMC,153035,A,2920.852000,N,11954.168000,E,5.00,259.12,20161023,,,D*78
$PTUBA,171.52,,18,GPS,,8.00,F,F*17
$GPRMC,153036,A,2920.853000,N,11954.167000,E,7.00,298.42,20161023,,,D*7F
$PTUBA,171.63,,18,GPS,,4.00,F,F*19
$GPRMC,153037,A,2920.854000,N,11954.165000,E,7.00,306.97,20161023,,,D*75
$PTUBA,171.74,,16,GPS,,6.00,F,F*13
$GPRMC,153038,A,2920.856000,N,11954.164000,E,10.00,331.81,20161023,,,D*4C
$PTUBA,171.83,,15,GPS,,12.00,F,F*2D
$GPRMC,153039,A,2920.858000,N,11954.163000,E,10.00,334.32,20161023,,,D*49
$PTUBA,171.90,,14,GPS,,12.00,F,F*2E
$GPRMC,153040,A,2920.861000,N,11954.161000,E,12.00,336.25,20161023,,,D*49
$PTUBA,171.94,,15,GPS,,8.00,F,F*10
$GPRMC,153041,A,2920.865000,N,11954.160000,E,12.00,339.10,20161023,,,D*44
$PTUBA,171.96,,16,GPS,,8.00,F,F*11
$GPRMC,153042,A,2920.869000,N,11954.159000,E,14.00,341.79,20161023,,,D*47
$PTUBA,171.98,,16,GPS,,8.00,F,F*1F
$GPRMC,153043,A,2920.873000,N,11954.158000,E,14.00,339.67,20161023,,,D*4C
$PTUBA,172.01,,15,GPS,,8.00,F,F*1F
$GPRMC,153044,A,2920.876000,N,11954.156000,E,14.00,336.72,20161023,,,D*4B
$PTUBA,172.43,,16,GPS,,8.00,F,F*1A
$GPRMC,153045,A,2920.879000,N,11954.154000,E,15.00,336.36,20161023,,,D*46
$PTUBA,172.45,,16,GPS,,8.00,F,F*1C
$GPRMC,153046,A,2920.882000,N,11954.153000,E,15.00,338.54,20161023,,,D*4C
$PTUBA,172.05,,17,GPS,,8.00,F,F*19
$GPRMC,153047,A,2920.886000,N,11954.151000,E,16.00,339.54,20161023,,,D*49
$PTUBA,170.99,,16,GPS,,8.00,F,F*1F
$GPRMC,153048,A,2920.890000,N,11954.149000,E,16.00,338.33,20161023,,,D*48
$PTUBA,170.08,,15,GPS,,8.00,F,F*14
$GPRMC,153049,A,2920.893000,N,11954.147000,E,18.00,340.75,20161023,,,D*47
$PTUBA,169.22,,15,GPS,,8.00,F,F*14
$GPRMC,153050,A,2920.897000,N,11954.145000,E,18.00,337.93,20161023,,,D*41
$PTUBA,168.44,,14,GPS,,8.00,F,F*14
$GPRMC,153051,A,2920.901000,N,11954.142000,E,20.00,330.78,20161023,,,D*40
$PTUBA,168.38,,14,GPS,,6.00,F,F*11
$GPRMC,153052,A,2920.905000,N,11954.139000,E,20.00,321.64,20161023,,,D*46
$PTUBA,167.50,,15,GPS,,6.00,F,F*11
$GPRMC,153053,A,2920.908000,N,11954.135000,E,20.00,309.53,20161023,,,D*48
$PTUBA,166.55,,14,GPS,,6.00,F,F*14
$GPRMC,153054,A,2920.911000,N,11954.132000,E,17.00,310.24,20161023,,,D*4C
$PTUBA,166.44,,14,GPS,,8.00,F,F*1A
$GPRMC,153055,A,2920.913000,N,11954.129000,E,17.00,314.48,20161023,,,D*4B
$PTUBA,166.28,,16,GPS,,8.00,F,F*12
$GPRMC,153056,A,2920.916000,N,11954.127000,E,15.00,321.49,20161023,,,D*46
$PTUBA,166.13,,16,GPS,,12.00,F,F*21
$GPRMC,153057,A,2920.919000,N,11954.125000,E,15.00,312.81,20161023,,,D*4E
$PTUBA,165.97,,15,GPS,,12.00,F,F*2D
$GPRMC,153058,A,2920.922000,N,11954.123000,E,15.00,324.06,20161023,,,D*45
$PTUBA,165.81,,14,GPS,,12.00,F,F*2B
$GPRMC,153059,A,2920.926000,N,11954.120000,E,15.00,330.08,20161023,,,D*48
$PTUBA,164.42,,17,GPS,,12.00,F,F*26
$GPRMC,153100,A,2920.929000,N,11954.118000,E,15.00,328.47,20161023,,,D*43
$PTUBA,163.12,,17,GPS,,8.00,F,F*1F
$GPRMC,153101,A,2920.933000,N,11954.115000,E,17.00,323.79,20161023,,,D*40
$PTUBA,162.45,,17,GPS,,12.00,F,F*27
$GPRMC,153102,A,2920.936000,N,11954.112000,E,17.00,322.79,20161023,,,D*40
$PTUBA,161.66,,17,GPS,,12.00,F,F*25
$GPRMC,153103,A,2920.941000,N,11954.109000,E,17.00,328.54,20161023,,,D*4E
$PTUBA,160.90,,16,GPS,,12.00,F,F*2C
$GPRMC,153104,A,2920.944000,N,11954.106000,E,17.00,327.50,20161023,,,D*48
$PTUBA,160.00,,17,GPS,,12.00,F,F*24
$GPRMC,153105,A,2920.945000,N,11954.102000,E,17.00,312.56,20161023,,,D*4C
$PTUBA,158.92,,17,GPS,,16.00,F,F*20
$GPRMC,153106,A,2920.948000,N,11954.098000,E,18.00,314.91,20161023,,,D*42
$PTUBA,157.85,,16,GPS,,12.00,F,F*2C
$GPRMC,153107,A,2920.951000,N,11954.093000,E,18.00,310.51,20161023,,,D*48
$PTUBA,156.01,,17,GPS,,12.00,F,F*20
$GPRMC,153108,A,2920.954000,N,11954.089000,E,21.00,304.72,20161023,,,D*47
$PTUBA,155.35,,17,GPS,,16.00,F,F*20
$GPRMC,153109,A,2920.956000,N,11954.084000,E,21.00,306.53,20161023,,,D*48
$PTUBA,154.65,,17,GPS,,12.00,F,F*20
$GPRMC,153110,A,2920.957000,N,11954.081000,E,20.00,299.80,20161023,,,D*4C
$PTUBA,154.09,,15,GPS,,12.00,F,F*28
$GPRMC,153111,A,2920.958000,N,11954.077000,E,20.00,300.45,20161023,,,D*43
$PTUBA,154.07,,16,GPS,,12.00,F,F*25
$GPRMC,153112,A,2920.960000,N,11954.074000,E,20.00,303.79,20161023,,,D*44
$PTUBA,153.97,,16,GPS,,12.00,F,F*2B
$GPRMC,153113,A,2920.962000,N,11954.071000,E,15.00,302.71,20161023,,,D*4D
$PTUBA,152.60,,16,GPS,,12.00,F,F*22
$GPRMC,153114,A,2920.964000,N,11954.067000,E,15.00,302.68,20161023,,,D*43
$PTUBA,151.43,,16,GPS,,12.00,F,F*20
$GPRMC,153115,A,2920.965000,N,11954.063000,E,15.00,297.34,20161023,,,D*43
$PTUBA,151.29,,16,GPS,,12.00,F,F*2C
$GPRMC,153116,A,2920.967000,N,11954.060000,E,15.00,295.56,20161023,,,D*47
$PTUBA,151.13,,15,GPS,,12.00,F,F*26
$GPRMC,153117,A,2920.968000,N,11954.057000,E,15.00,290.09,20161023,,,D*42
$PTUBA,150.97,,15,GPS,,12.00,F,F*2B
$GPRMC,153118,A,2920.968000,N,11954.053000,E,15.00,277.07,20161023,,,D*4E
$PTUBA,150.81,,15,GPS,,12.00,F,F*2C
$GPRMC,153119,A,2920.970000,N,11954.050000,E,13.00,297.67,20161023,,,D*4B
$PTUBA,150.69,,15,GPS,,8.00,F,F*11
$GPRMC,153120,A,2920.972000,N,11954.047000,E,13.00,307.72,20161023,,,D*49
$PTUBA,150.63,,15,GPS,,16.00,F,F*24
$GPRMC,153121,A,2920.973000,N,11954.043000,E,12.00,286.08,20161023,,,D*49
$PTUBA,150.56,,15,GPS,,8.00,F,F*1D
$GPRMC,153122,A,2920.974000,N,11954.040000,E,12.00,290.58,20161023,,,D*4C
$PTUBA,150.53,,15,GPS,,8.00,F,F*18
$GPRMC,153123,A,2920.975000,N,11954.036000,E,12.00,293.10,20161023,,,D*42
$PTUBA,150.50,,14,GPS,,8.00,F,F*1A
$GPRMC,153124,A,2920.976000,N,11954.032000,E,10.00,293.39,20161023,,,D*4B
$PTUBA,150.56,,15,GPS,,8.00,F,F*1D
$GPRMC,153125,A,2920.978000,N,11954.029000,E,10.00,296.04,20161023,,,D*45
$PTUBA,150.64,,15,GPS,,8.00,F,F*1C
$GPRMC,153126,A,2920.979000,N,11954.026000,E,15.00,299.60,20161023,,,D*40
$PTUBA,150.73,,15,GPS,,8.00,F,F*1A
$GPRMC,153127,A,2920.981000,N,11954.022000,E,15.00,302.22,20161023,,,D*47
$PTUBA,151.61,,15,GPS,,8.00,F,F*18
$GPRMC,153128,A,2920.983000,N,11954.019000,E,16.00,311.48,20161023,,,D*4F
$PTUBA,151.62,,14,GPS,,8.00,F,F*1A
$GPRMC,153129,A,2920.985000,N,11954.013000,E,16.00,292.25,20161023,,,D*43
$PTUBA,151.61,,15,GPS,,8.00,F,F*18
$GPRMC,153130,A,2920.987000,N,11954.007000,E,16.00,287.83,20161023,,,D*44
$PTUBA,151.56,,16,GPS,,8.00,F,F*1F
$GPRMC,153131,A,2920.988000,N,11954.001000,E,20.00,283.84,20161023,,,D*4A
$PTUBA,152.11,,14,GPS,,12.00,F,F*26
$GPRMC,153132,A,2920.990000,N,11953.995000,E,20.00,286.74,20161023,,,D*49
$PTUBA,153.12,,14,GPS,,16.00,F,F*20
$GPRMC,153133,A,2920.991000,N,11953.989000,E,23.00,284.33,20161023,,,D*46
$PTUBA,153.45,,15,GPS,,16.00,F,F*23
$GPRMC,153134,A,2920.993000,N,11953.984000,E,23.00,291.44,20161023,,,D*4A
$PTUBA,153.40,,14,GPS,,12.00,F,F*23
$GPRMC,153135,A,2920.996000,N,11953.978000,E,25.00,301.66,20161023,,,D*43
$PTUBA,152.75,,16,GPS,,12.00,F,F*26
$GPRMC,153136,A,2921.000000,N,11953.972000,E,25.00,304.95,20161023,,,D*44
$PTUBA,151.92,,15,GPS,,12.00,F,F*2F
$GPRMC,153137,A,2921.005000,N,11953.966000,E,25.00,313.76,20161023,,,D*4E
$PTUBA,151.04,,15,GPS,,12.00,F,F*20
$GPRMC,153138,A,2921.009000,N,11953.961000,E,25.00,310.66,20161023,,,D*48
$PTUBA,149.75,,15,GPS,,8.00,F,F*14
$GPRMC,153139,A,2921.014000,N,11953.957000,E,25.00,324.26,20161023,,,D*43
$PTUBA,148.59,,16,GPS,,8.00,F,F*18
$GPRMC,153140,A,2921.020000,N,11953.953000,E,25.00,326.52,20161023,,,D*4F
$PTUBA,147.13,,16,GPS,,8.00,F,F*19
$GPRMC,153141,A,2921.024000,N,11953.948000,E,25.00,318.45,20161023,,,D*4B
$PTUBA,145.94,,16,GPS,,8.00,F,F*14
$GPRMC,153142,A,2921.028000,N,11953.943000,E,27.00,309.79,20161023,,,D*42
$PTUBA,145.10,,16,GPS,,8.00,F,F*18
$GPRMC,153143,A,2921.031000,N,11953.937000,E,27.00,297.72,20161023,,,D*45
$PTUBA,143.89,,15,GPS,,8.00,F,F*1D
$GPRMC,153144,A,2921.031000,N,11953.932000,E,25.00,273.53,20161023,,,D*4C
$PTUBA,143.00,,12,GPS,,8.00,F,F*1B
$GPRMC,153145,A,2921.029000,N,11953.927000,E,25.00,248.56,20161023,,,D*4D
$PTUBA,142.38,,13,GPS,,8.00,F,F*10
$GPRMC,153146,A,2921.028000,N,11953.923000,E,21.00,247.15,20161023,,,D*47
$PTUBA,141.77,,13,GPS,,16.00,F,F*27
$GPRMC,153147,A,2921.024000,N,11953.918000,E,21.00,232.24,20161023,,,D*42
$PTUBA,140.91,,13,GPS,,12.00,F,F*2A
$GPRMC,153148,A,2921.020000,N,11953.912000,E,26.00,229.25,20161023,,,D*4F
$PTUBA,139.90,,12,GPS,,12.00,F,F*24
$GPRMC,153149,A,2921.015000,N,11953.906000,E,26.00,230.56,20161023,,,D*41
$PTUBA,138.55,,12,GPS,,16.00,F,F*28
$GPRMC,153150,A,2921.012000,N,11953.898000,E,26.00,244.98,20161023,,,D*49
$PTUBA,137.10,,13,GPS,,16.00,F,F*27
$GPRMC,153151,A,2921.008000,N,11953.889000,E,26.00,244.57,20161023,,,D*40
$PTUBA,136.06,,13,GPS,,16.00,F,F*21
$GPRMC,153152,A,2921.004000,N,11953.879000,E,26.00,247.06,20161023,,,D*47
$PTUBA,135.75,,13,GPS,,16.00,F,F*26
$GPRMC,153153,A,2921.001000,N,11953.869000,E,33.00,249.50,20161023,,,D*4B
$PTUBA,135.30,,14,GPS,,12.00,F,F*24
$GPRMC,153154,A,2920.998000,N,11953.860000,E,33.00,250.72,20161023,,,D*45
$PTUBA,134.48,,13,GPS,,12.00,F,F*2D
$GPRMC,153155,A,2920.997000,N,11953.852000,E,41.00,248.35,20161023,,,D*45
$PTUBA,133.10,,15,GPS,,12.00,F,F*21
$GPRMC,153156,A,2920.991000,N,11953.847000,E,41.00,217.00,20161023,,,D*48
$PTUBA,131.64,,15,GPS,,12.00,F,F*20
$GPRMC,153157,A,2920.986000,N,11953.842000,E,29.00,234.11,20161023,,,D*45
$PTUBA,130.06,,16,GPS,,12.00,F,F*26
$GPRMC,153158,A,2920.978000,N,11953.839000,E,29.00,201.01,20161023,,,D*40
$PTUBA,128.25,,16,GPS,,12.00,F,F*2E
$GPRMC,153159,A,2920.970000,N,11953.838000,E,31.00,177.39,20161023,,,D*48
$PTUBA,127.10,,15,GPS,,8.00,F,F*1F
$GPRMC,153200,A,2920.962000,N,11953.839000,E,31.00,173.79,20161023,,,D*45
$PTUBA,126.96,,15,GPS,,8.00,F,F*10
$GPRMC,153201,A,2920.953000,N,11953.840000,E,31.00,171.24,20161023,,,D*42
$PTUBA,126.68,,16,GPS,,12.00,F,F*29
$GPRMC,153202,A,2920.945000,N,11953.842000,E,34.00,177.18,20161023,,,D*48
$PTUBA,126.21,,16,GPS,,12.00,F,F*24
$GPRMC,153203,A,2920.937000,N,11953.845000,E,34.00,164.51,20161023,,,D*44
$PTUBA,125.80,,16,GPS,,12.00,F,F*2C
$GPRMC,153204,A,2920.928000,N,11953.848000,E,36.00,165.03,20161023,,,D*44
$PTUBA,125.69,,16,GPS,,8.00,F,F*10
$GPRMC,153205,A,2920.920000,N,11953.851000,E,36.00,165.44,20161023,,,D*46
$PTUBA,125.63,,14,GPS,,8.00,F,F*18
$GPRMC,153206,A,2920.911000,N,11953.853000,E,38.00,167.96,20161023,,,D*46
$PTUBA,125.57,,15,GPS,,8.00,F,F*1E
$GPRMC,153207,A,2920.902000,N,11953.854000,E,38.00,171.65,20161023,,,D*49
$PTUBA,124.79,,16,GPS,,8.00,F,F*10
$GPRMC,153208,A,2920.893000,N,11953.854000,E,39.00,184.16,20161023,,,D*40
$PTUBA,123.56,,15,GPS,,8.00,F,F*19
$GPRMC,153209,A,2920.885000,N,11953.853000,E,39.00,182.53,20161023,,,D*46
$PTUBA,121.85,,15,GPS,,8.00,F,F*15
$GPRMC,153210,A,2920.876000,N,11953.853000,E,39.00,179.76,20161023,,,D*41
$PTUBA,119.84,,15,GPS,,8.00,F,F*1F
$GPRMC,153211,A,2920.866000,N,11953.855000,E,40.00,176.92,20161023,,,D*4C
$PTUBA,117.82,,15,GPS,,8.00,F,F*17
$GPRMC,153212,A,2920.858000,N,11953.856000,E,40.00,172.33,20161023,,,D*4E
$PTUBA,116.12,,15,GPS,,8.00,F,F*1F
$GPRMC,153213,A,2920.850000,N,11953.857000,E,40.00,174.17,20161023,,,D*46
$PTUBA,114.67,,15,GPS,,8.00,F,F*1F
$GPRMC,153214,A,2920.842000,N,11953.857000,E,40.00,177.63,20161023,,,D*42
$PTUBA,113.32,,15,GPS,,12.00,F,F*23
$GPRMC,153215,A,2920.833000,N,11953.856000,E,35.00,181.04,20161023,,,D*4E
$PTUBA,112.12,,14,GPS,,16.00,F,F*25
$GPRMC,153216,A,2920.824000,N,11953.855000,E,35.00,184.17,20161023,,,D*4F
$PTUBA,111.09,,14,GPS,,12.00,F,F*28
$GPRMC,153217,A,2920.814000,N,11953.854000,E,36.00,185.10,20161023,,,D*49
$PTUBA,110.26,,14,GPS,,12.00,F,F*24
$GPRMC,153218,A,2920.806000,N,11953.852000,E,36.00,189.09,20161023,,,D*47
$PTUBA,109.39,,14,GPS,,12.00,F,F*22
$GPRMC,153219,A,2920.797000,N,11953.851000,E,36.00,185.20,20161023,,,D*45
$PTUBA,108.24,,15,GPS,,16.00,F,F*2A
$GPRMC,153220,A,2920.788000,N,11953.850000,E,38.00,184.47,20161023,,,D*4E
$PTUBA,106.91,,16,GPS,,12.00,F,F*2D
$GPRMC,153221,A,2920.779000,N,11953.849000,E,38.00,183.35,20161023,,,D*4B
$PTUBA,105.64,,16,GPS,,12.00,F,F*24
$GPRMC,153222,A,2920.771000,N,11953.849000,E,39.00,180.72,20161023,,,D*41
$PTUBA,104.61,,15,GPS,,8.00,F,F*18
$GPRMC,153223,A,2920.763000,N,11953.849000,E,39.00,177.40,20161023,,,D*4A
$PTUBA,103.92,,15,GPS,,8.00,F,F*13
$GPRMC,153224,A,2920.755000,N,11953.850000,E,37.00,176.82,20161023,,,D*41
$PTUBA,103.29,,16,GPS,,6.00,F,F*1E
$GPRMC,153225,A,2920.747000,N,11953.850000,E,37.00,178.28,20161023,,,D*4D
$PTUBA,102.65,,15,GPS,,6.00,F,F*14
$GPRMC,153226,A,2920.740000,N,11953.850000,E,37.00,179.21,20161023,,,D*41
$PTUBA,101.96,,16,GPS,,6.00,F,F*18
$GPRMC,153227,A,2920.732000,N,11953.851000,E,37.00,177.38,20161023,,,D*42
$PTUBA,100.86,,15,GPS,,8.00,F,F*15
$GPRMC,153228,A,2920.724000,N,11953.852000,E,36.00,176.05,20161023,,,D*47
$PTUBA,99.27,,14,GPS,,8.00,F,F*2E
$GPRMC,153229,A,2920.718000,N,11953.853000,E,36.00,176.69,20161023,,,D*42
$PTUBA,97.93,,14,GPS,,8.00,F,F*2F
$GPRMC,153230,A,2920.712000,N,11953.853000,E,36.00,179.38,20161023,,,D*4B
$PTUBA,97.04,,14,GPS,,8.00,F,F*21
$GPRMC,153231,A,2920.706000,N,11953.854000,E,31.00,178.87,20161023,,,D*4A
$PTUBA,96.63,,14,GPS,,8.00,F,F*21
$GPRMC,153232,A,2920.698000,N,11953.854000,E,31.00,179.82,20161023,,,D*4B
$PTUBA,96.51,,14,GPS,,8.00,F,F*20
$GPRMC,153233,A,2920.690000,N,11953.854000,E,31.00,180.83,20161023,,,D*45
$PTUBA,96.41,,15,GPS,,6.00,F,F*2E
$GPRMC,153234,A,2920.683000,N,11953.854000,E,31.00,182.07,20161023,,,D*4E
$PTUBA,96.11,,15,GPS,,8.00,F,F*25
$GPRMC,153235,A,2920.676000,N,11953.853000,E,31.00,182.48,20161023,,,D*49
$PTUBA,95.68,,15,GPS,,6.00,F,F*26
$GPRMC,153236,A,2920.670000,N,11953.853000,E,31.00,182.08,20161023,,,D*48
$PTUBA,95.18,,14,GPS,,8.00,F,F*2E
$GPRMC,153237,A,2920.663000,N,11953.853000,E,29.00,180.89,20161023,,,D*49
$PTUBA,94.54,,14,GPS,,8.00,F,F*27
$GPRMC,153238,A,2920.657000,N,11953.853000,E,29.00,179.95,20161023,,,D*4A
$PTUBA,93.69,,15,GPS,,16.00,F,F*10
$GPRMC,153239,A,2920.650000,N,11953.853000,E,29.00,178.50,20161023,,,D*44
$PTUBA,92.90,,15,GPS,,8.00,F,F*28
$GPRMC,153240,A,2920.643000,N,11953.854000,E,28.00,177.73,20161023,,,D*40
$PTUBA,92.63,,14,GPS,,8.00,F,F*25
$GPRMC,153241,A,2920.636000,N,11953.855000,E,28.00,176.79,20161023,,,D*49
$PTUBA,92.73,,15,GPS,,12.00,F,F*1E
$GPRMC,153242,A,2920.629000,N,11953.856000,E,27.00,175.42,20161023,,,D*43
$PTUBA,92.91,,16,GPS,,6.00,F,F*24
$GPRMC,153243,A,2920.622000,N,11953.857000,E,27.00,171.57,20161023,,,D*48
$PTUBA,93.03,,15,GPS,,6.00,F,F*2D
$GPRMC,153244,A,2920.615000,N,11953.860000,E,28.00,157.66,20161023,,,D*46
$PTUBA,93.29,,15,GPS,,6.00,F,F*25
$GPRMC,153245,A,2920.609000,N,11953.863000,E,28.00,156.85,20161023,,,D*45
$PTUBA,93.83,,15,GPS,,6.00,F,F*25
$GPRMC,153246,A,2920.602000,N,11953.865000,E,28.00,155.75,20161023,,,D*47
$PTUBA,94.45,,15,GPS,,8.00,F,F*26
$GPRMC,153247,A,2920.596000,N,11953.868000,E,28.00,158.37,20161023,,,D*4E
$PTUBA,94.58,,15,GPS,,16.00,F,F*15
$GPRMC,153248,A,2920.592000,N,11953.872000,E,27.00,143.82,20161023,,,D*45
$PTUBA,95.02,,15,GPS,,16.00,F,F*1B
$GPRMC,153249,A,2920.586000,N,11953.875000,E,27.00,157.81,20161023,,,D*40
$PTUBA,95.88,,15,GPS,,16.00,F,F*19
$GPRMC,153250,A,2920.580000,N,11953.876000,E,27.00,171.12,20161023,,,D*43
$PTUBA,96.68,,16,GPS,,16.00,F,F*17
$GPRMC,153251,A,2920.574000,N,11953.877000,E,26.00,173.86,20161023,,,D*46
$PTUBA,97.28,,16,GPS,,12.00,F,F*16
$GPRMC,153252,A,2920.568000,N,11953.877000,E,26.00,175.71,20161023,,,D*46
$PTUBA,97.63,,16,GPS,,6.00,F,F*2C
$GPRMC,153253,A,2920.562000,N,11953.878000,E,25.00,177.10,20161023,,,D*44
$PTUBA,98.13,,17,GPS,,8.00,F,F*2B
$GPRMC,153254,A,2920.556000,N,11953.878000,E,25.00,179.16,20161023,,,D*4C
$PTUBA,98.40,,16,GPS,,6.00,F,F*22
$GPRMC,153255,A,2920.551000,N,11953.879000,E,26.00,179.96,20161023,,,D*40
$PTUBA,98.16,,15,GPS,,6.00,F,F*22
$GPRMC,153256,A,2920.546000,N,11953.879000,E,26.00,181.40,20161023,,,D*49
$PTUBA,97.77,,15,GPS,,6.00,F,F*2A
$GPRMC,153257,A,2920.540000,N,11953.879000,E,25.00,185.15,20161023,,,D*49
$PTUBA,97.13,,15,GPS,,8.00,F,F*26
$GPRMC,153258,A,2920.534000,N,11953.878000,E,25.00,184.20,20161023,,,D*43
$PTUBA,96.37,,15,GPS,,8.00,F,F*21
$GPRMC,153259,A,2920.527000,N,11953.877000,E,25.00,185.74,20161023,,,D*4F
$PTUBA,95.50,,15,GPS,,8.00,F,F*23
$GPRMC,153300,A,2920.520000,N,11953.876000,E,24.00,185.21,20161023,,,D*45
$PTUBA,94.85,,15,GPS,,12.00,F,F*11
$GPRMC,153301,A,2920.513000,N,11953.875000,E,24.00,193.20,20161023,,,D*41
$PTUBA,94.14,,15,GPS,,8.00,F,F*22
$GPRMC,153302,A,2920.505000,N,11953.873000,E,27.00,193.75,20161023,,,D*40
$PTUBA,93.65,,16,GPS,,8.00,F,F*20
$GPRMC,153303,A,2920.498000,N,11953.871000,E,27.00,192.99,20161023,,,D*45
$PTUBA,93.06,,16,GPS,,6.00,F,F*2B
$GPRMC,153304,A,2920.491000,N,11953.869000,E,29.00,192.61,20161023,,,D*4B
$PTUBA,92.36,,16,GPS,,6.00,F,F*29
$GPRMC,153305,A,2920.483000,N,11953.867000,E,29.00,192.23,20161023,,,D*41
$PTUBA,91.59,,16,GPS,,6.00,F,F*23
$GPRMC,153306,A,2920.477000,N,11953.865000,E,31.00,191.12,20161023,,,D*43
$PTUBA,90.78,,17,GPS,,8.00,F,F*2E
$GPRMC,153307,A,2920.470000,N,11953.864000,E,31.00,190.67,20161023,,,D*47
$PTUBA,89.75,,17,GPS,,6.00,F,F*25
$GPRMC,153308,A,2920.462000,N,11953.862000,E,31.00,190.22,20161023,,,D*4C
$PTUBA,88.71,,17,GPS,,6.00,F,F*20
$GPRMC,153309,A,2920.454000,N,11953.860000,E,35.00,190.85,20161023,,,D*43
$PTUBA,87.63,,17,GPS,,6.00,F,F*2C
$GPRMC,153310,A,2920.447000,N,11953.858000,E,35.00,189.83,20161023,,,D*4C
$PTUBA,86.69,,16,GPS,,6.00,F,F*26
$GPRMC,153311,A,2920.439000,N,11953.857000,E,36.00,187.09,20161023,,,D*44
$PTUBA,85.94,,16,GPS,,8.00,F,F*29
$GPRMC,153312,A,2920.432000,N,11953.858000,E,36.00,170.67,20161023,,,D*43
$PTUBA,85.37,,16,GPS,,8.00,F,F*20
$GPRMC,153313,A,2920.426000,N,11953.859000,E,30.00,168.76,20161023,,,D*49
$PTUBA,84.82,,16,GPS,,8.00,F,F*2F
$GPRMC,153314,A,2920.421000,N,11953.860000,E,30.00,168.37,20161023,,,D*46
$PTUBA,84.35,,16,GPS,,6.00,F,F*2D
$GPRMC,153315,A,2920.416000,N,11953.861000,E,23.00,169.07,20161023,,,D*42
$PTUBA,83.97,,17,GPS,,6.00,F,F*23
$GPRMC,153316,A,2920.411000,N,11953.862000,E,23.00,168.49,20161023,,,D*4E
$PTUBA,83.76,,17,GPS,,6.00,F,F*2C
$GPRMC,153317,A,2920.408000,N,11953.863000,E,23.00,169.66,20161023,,,D*4A
$PTUBA,83.75,,17,GPS,,6.00,F,F*2F
$GPRMC,153318,A,2920.405000,N,11953.863000,E,18.00,171.06,20161023,,,D*4F
$PTUBA,83.73,,17,GPS,,6.00,F,F*29
$GPRMC,153319,A,2920.402000,N,11953.864000,E,18.00,169.38,20161023,,,D*4A
$PTUBA,83.40,,17,GPS,,6.00,F,F*29
$GPRMC,153320,A,2920.401000,N,11953.864000,E,14.00,165.95,20161023,,,D*44
$PTUBA,83.34,,17,GPS,,6.00,F,F*2A
$GPRMC,153335,A,2920.397000,N,11953.865000,E,3.00,170.94,20161023,,,D*7A
$PTUBA,83.72,,15,GPS,,4.00,F,F*28
$GPRMC,153336,A,2920.394000,N,11953.865000,E,3.00,171.98,20161023,,,D*77
$PTUBA,83.87,,15,GPS,,6.00,F,F*20
$GPRMC,153337,A,2920.392000,N,11953.866000,E,3.00,173.10,20161023,,,D*71
$PTUBA,83.99,,15,GPS,,6.00,F,F*2F
$GPRMC,153338,A,2920.390000,N,11953.866000,E,9.00,174.04,20161023,,,D*74
$PTUBA,84.11,,14,GPS,,6.00,F,F*29
$GPRMC,153339,A,2920.388000,N,11953.867000,E,9.00,176.98,20161023,,,D*7A
$PTUBA,84.22,,14,GPS,,6.00,F,F*29
$GPRMC,153340,A,2920.385000,N,11953.865000,E,12.00,213.25,20161023,,,D*47
$PTUBA,84.32,,14,GPS,,4.00,F,F*2A
$GPRMC,153341,A,2920.383000,N,11953.862000,E,12.00,231.53,20161023,,,D*46
$PTUBA,85.00,,14,GPS,,4.00,F,F*2A
$GPRMC,153342,A,2920.380000,N,11953.858000,E,15.00,234.32,20161023,,,D*4A
$PTUBA,85.17,,14,GPS,,6.00,F,F*2E
$GPRMC,153343,A,2920.378000,N,11953.854000,E,15.00,235.26,20161023,,,D*44
$PTUBA,85.11,,14,GPS,,6.00,F,F*28
$GPRMC,153344,A,2920.376000,N,11953.850000,E,15.00,245.11,20161023,,,D*4A
$PTUBA,85.07,,14,GPS,,6.00,F,F*2F
$GPRMC,153345,A,2920.374000,N,11953.845000,E,15.00,241.37,20161023,,,D*4D
$PTUBA,85.10,,14,GPS,,12.00,F,F*1C
$GPRMC,153346,A,2920.372000,N,11953.841000,E,17.00,240.09,20161023,,,D*42
$PTUBA,85.12,,15,GPS,,8.00,F,F*24
$GPRMC,153347,A,2920.369000,N,11953.836000,E,17.00,240.11,20161023,,,D*40
$PTUBA,84.77,,15,GPS,,12.00,F,F*1D
$GPRMC,153348,A,2920.367000,N,11953.831000,E,17.00,240.16,20161023,,,D*41
$PTUBA,84.29,,16,GPS,,6.00,F,F*20
$GPRMC,153349,A,2920.364000,N,11953.827000,E,21.00,240.96,20161023,,,D*49
$PTUBA,83.97,,15,GPS,,6.00,F,F*21
$GPRMC,153350,A,2920.361000,N,11953.821000,E,21.00,240.04,20161023,,,D*49
$PTUBA,83.47,,15,GPS,,12.00,F,F*19
$GPRMC,153351,A,2920.359000,N,11953.816000,E,22.00,243.48,20161023,,,D*4F
$PTUBA,82.93,,15,GPS,,16.00,F,F*15
$GPRMC,153352,A,2920.356000,N,11953.810000,E,22.00,237.96,20161023,,,D*45
$PTUBA,82.65,,15,GPS,,16.00,F,F*1C
$GPRMC,153353,A,2920.353000,N,11953.805000,E,24.00,239.84,20161023,,,D*4E
$PTUBA,82.40,,15,GPS,,16.00,F,F*1B
$GPRMC,153354,A,2920.349000,N,11953.800000,E,24.00,225.27,20161023,,,D*43
$PTUBA,82.23,,15,GPS,,16.00,F,F*1E
$GPRMC,153355,A,2920.345000,N,11953.794000,E,23.00,224.80,20161023,,,D*47
$PTUBA,82.41,,15,GPS,,16.00,F,F*1A
$GPRMC,153356,A,2920.341000,N,11953.789000,E,23.00,222.83,20161023,,,D*49
$PTUBA,82.82,,16,GPS,,16.00,F,F*16
$GPRMC,153357,A,2920.337000,N,11953.784000,E,23.00,229.36,20161023,,,D*41
$PTUBA,83.06,,16,GPS,,12.00,F,F*1F
$GPRMC,153358,A,2920.333000,N,11953.780000,E,26.00,228.39,20161023,,,D*45
$PTUBA,83.35,,15,GPS,,16.00,F,F*18
$GPRMC,153359,A,2920.331000,N,11953.776000,E,26.00,233.76,20161023,,,D*4E
$PTUBA,84.10,,15,GPS,,24.00,F,F*19
$GPRMC,153400,A,2920.329000,N,11953.772000,E,25.00,234.23,20161023,,,D*4C
$PTUBA,84.79,,14,GPS,,24.00,F,F*17
$GPRMC,153401,A,2920.327000,N,11953.768000,E,25.00,239.59,20161023,,,D*48
$PTUBA,85.52,,14,GPS,,24.00,F,F*1F
$GPRMC,153402,A,2920.325000,N,11953.765000,E,21.00,234.27,20161023,,,D*44
$PTUBA,86.08,,14,GPS,,12.00,F,F*16
$GPRMC,153403,A,2920.323000,N,11953.762000,E,21.00,233.05,20161023,,,D*43
$PTUBA,86.57,,14,GPS,,16.00,F,F*18
$GPRMC,153404,A,2920.321000,N,11953.758000,E,18.00,251.81,20161023,,,D*4D
$PTUBA,86.68,,15,GPS,,12.00,F,F*11
$GPRMC,153405,A,2920.322000,N,11953.753000,E,18.00,289.86,20161023,,,D*46
$PTUBA,86.72,,15,GPS,,12.00,F,F*1A
$GPRMC,153406,A,2920.325000,N,11953.751000,E,17.00,317.25,20161023,,,D*40
$PTUBA,86.19,,15,GPS,,12.00,F,F*17
$GPRMC,153407,A,2920.329000,N,11953.747000,E,17.00,322.54,20161023,,,D*4A
$PTUBA,86.01,,15,GPS,,12.00,F,F*1E
$GPRMC,153408,A,2920.334000,N,11953.744000,E,17.00,334.84,20161023,,,D*40
$PTUBA,86.17,,15,GPS,,12.00,F,F*19
$GPRMC,153409,A,2920.339000,N,11953.741000,E,25.00,336.46,20161023,,,D*44
$PTUBA,86.59,,15,GPS,,12.00,F,F*13
$GPRMC,153410,A,2920.344000,N,11953.739000,E,25.00,339.86,20161023,,,D*4A
$PTUBA,86.43,,15,GPS,,12.00,F,F*18
$GPRMC,153411,A,2920.349000,N,11953.736000,E,28.00,340.41,20161023,,,D*41
$PTUBA,85.58,,15,GPS,,8.00,F,F*2A
$GPRMC,153412,A,2920.355000,N,11953.733000,E,28.00,341.09,20161023,,,D*47
$PTUBA,84.62,,15,GPS,,8.00,F,F*22
$GPRMC,153413,A,2920.361000,N,11953.730000,E,27.00,338.42,20161023,,,D*4C
$PTUBA,83.76,,15,GPS,,8.00,F,F*20
$GPRMC,153414,A,2920.367000,N,11953.724000,E,27.00,322.76,20161023,,,D*44
$PTUBA,82.80,,16,GPS,,8.00,F,F*2B
$GPRMC,153415,A,2920.373000,N,11953.719000,E,30.00,324.66,20161023,,,D*4F
$PTUBA,82.19,,16,GPS,,8.00,F,F*2B
$GPRMC,153416,A,2920.379000,N,11953.714000,E,30.00,327.11,20161023,,,D*48
$PTUBA,81.76,,15,GPS,,8.00,F,F*22
$GPRMC,153417,A,2920.386000,N,11953.710000,E,30.00,331.00,20161023,,,D*4A
$PTUBA,81.51,,16,GPS,,8.00,F,F*24
$GPRMC,153418,A,2920.393000,N,11953.706000,E,33.00,334.23,20161023,,,D*41
$PTUBA,81.47,,16,GPS,,8.00,F,F*23
$GPRMC,153419,A,2920.400000,N,11953.703000,E,33.00,334.89,20161023,,,D*48
$PTUBA,81.43,,15,GPS,,6.00,F,F*2A
$GPRMC,153420,A,2920.407000,N,11953.700000,E,35.00,335.52,20161023,,,D*47
$PTUBA,81.05,,16,GPS,,6.00,F,F*2B
$GPRMC,153421,A,2920.414000,N,11953.697000,E,35.00,335.83,20161023,,,D*47
$PTUBA,81.06,,16,GPS,,6.00,F,F*28
$GPRMC,153422,A,2920.422000,N,11953.693000,E,33.00,336.50,20161023,,,D*4E
$PTUBA,81.06,,16,GPS,,6.00,F,F*28
$GPRMC,153423,A,2920.429000,N,11953.690000,E,33.00,334.93,20161023,,,D*4A
$PTUBA,81.48,,15,GPS,,8.00,F,F*2F
$GPRMC,153424,A,2920.436000,N,11953.687000,E,31.00,334.33,20161023,,,D*4D
$PTUBA,81.97,,15,GPS,,6.00,F,F*23
$GPRMC,153425,A,2920.442000,N,11953.684000,E,31.00,333.75,20161023,,,D*49
$PTUBA,82.26,,15,GPS,,6.00,F,F*2A
$GPRMC,153426,A,2920.448000,N,11953.681000,E,31.00,332.68,20161023,,,D*48
$PTUBA,82.56,,15,GPS,,6.00,F,F*2D
$GPRMC,153427,A,2920.453000,N,11953.677000,E,28.00,333.43,20161023,,,D*4A
$PTUBA,82.52,,15,GPS,,6.00,F,F*29
$GPRMC,153428,A,2920.458000,N,11953.674000,E,28.00,334.41,20161023,,,D*48
$PTUBA,82.28,,16,GPS,,8.00,F,F*29
$GPRMC,153429,A,2920.463000,N,11953.672000,E,26.00,333.97,20161023,,,D*45
$PTUBA,81.70,,15,GPS,,8.00,F,F*24
$GPRMC,153430,A,2920.468000,N,11953.669000,E,26.00,332.34,20161023,,,D*44
$PTUBA,81.09,,15,GPS,,8.00,F,F*2A
$GPRMC,153431,A,2920.472000,N,11953.666000,E,23.00,332.02,20161023,,,D*41
$PTUBA,80.44,,14,GPS,,8.00,F,F*23
$GPRMC,153432,A,2920.477000,N,11953.665000,E,23.00,343.93,20161023,,,D*4A
$PTUBA,79.68,,14,GPS,,6.00,F,F*25
$GPRMC,153433,A,2920.482000,N,11953.665000,E,22.00,14.12,20161023,,,D*78
$PTUBA,79.33,,14,GPS,,6.00,F,F*2B
$GPRMC,153434,A,2920.487000,N,11953.668000,E,22.00,33.89,20161023,,,D*70
$PTUBA,79.14,,14,GPS,,12.00,F,F*1B
$GPRMC,153435,A,2920.492000,N,11953.672000,E,22.00,34.63,20161023,,,D*7D
$PTUBA,79.01,,15,GPS,,6.00,F,F*2B
$GPRMC,153436,A,2920.498000,N,11953.677000,E,25.00,35.13,20161023,,,D*70
$PTUBA,78.92,,15,GPS,,6.00,F,F*20
$GPRMC,153437,A,2920.503000,N,11953.681000,E,25.00,34.41,20161023,,,D*7D
$PTUBA,78.78,,15,GPS,,6.00,F,F*24
$GPRMC,153438,A,2920.509000,N,11953.685000,E,26.00,32.59,20161023,,,D*70
$PTUBA,78.68,,16,GPS,,6.00,F,F*26
$GPRMC,153439,A,2920.513000,N,11953.688000,E,26.00,30.75,20161023,,,D*7B
$PTUBA,78.69,,16,GPS,,8.00,F,F*29
$GPRMC,153440,A,2920.518000,N,11953.691000,E,27.00,29.75,20161023,,,D*7F
$PTUBA,78.91,,16,GPS,,8.00,F,F*2E
$GPRMC,153441,A,2920.523000,N,11953.695000,E,27.00,32.02,20161023,,,D*78
$PTUBA,79.30,,16,GPS,,6.00,F,F*2A
$GPRMC,153442,A,2920.527000,N,11953.698000,E,25.00,34.37,20161023,,,D*70
$PTUBA,79.87,,16,GPS,,6.00,F,F*26
$GPRMC,153443,A,2920.531000,N,11953.701000,E,25.00,34.03,20161023,,,D*70
$PTUBA,80.46,,15,GPS,,6.00,F,F*2E
$GPRMC,153444,A,2920.535000,N,11953.703000,E,22.00,32.92,20161023,,,D*78
$PTUBA,81.11,,15,GPS,,6.00,F,F*2D
$GPRMC,153445,A,2920.539000,N,11953.706000,E,22.00,34.00,20161023,,,D*7D
$PTUBA,81.84,,15,GPS,,6.00,F,F*21
$GPRMC,153446,A,2920.543000,N,11953.709000,E,22.00,33.22,20161023,,,D*7B
$PTUBA,82.61,,14,GPS,,6.00,F,F*28
$GPRMC,153447,A,2920.547000,N,11953.711000,E,20.00,31.61,20161023,,,D*70
$PTUBA,83.38,,14,GPS,,6.00,F,F*25
$GPRMC,153448,A,2920.551000,N,11953.713000,E,20.00,32.26,20161023,,,D*7A
$PTUBA,84.03,,14,GPS,,6.00,F,F*2A
$GPRMC,153449,A,2920.555000,N,11953.716000,E,17.00,34.21,20161023,,,D*7F
$PTUBA,84.74,,14,GPS,,6.00,F,F*2A
$GPRMC,153450,A,2920.559000,N,11953.718000,E,17.00,35.42,20161023,,,D*71
$PTUBA,84.82,,13,GPS,,6.00,F,F*24
$GPRMC,153451,A,2920.563000,N,11953.721000,E,15.00,34.91,20161023,,,D*7E
$PTUBA,85.75,,14,GPS,,6.00,F,F*2A
$GPRMC,153452,A,2920.566000,N,11953.724000,E,15.00,33.59,20161023,,,D*7E
$PTUBA,86.57,,15,GPS,,6.00,F,F*28
$GPRMC,153453,A,2920.570000,N,11953.726000,E,17.00,32.82,20161023,,,D*7F
$PTUBA,86.87,,15,GPS,,24.00,F,F*15
$GPRMC,153454,A,2920.573000,N,11953.728000,E,17.00,33.70,20161023,,,D*79
$PTUBA,86.90,,15,GPS,,8.00,F,F*2D
$GPRMC,153455,A,2920.577000,N,11953.729000,E,17.00,8.02,20161023,,,D*40
$PTUBA,86.90,,15,GPS,,12.00,F,F*16
$GPRMC,153456,A,2920.581000,N,11953.728000,E,18.00,350.68,20161023,,,D*46
$PTUBA,86.95,,15,GPS,,8.00,F,F*28
$GPRMC,153457,A,2920.586000,N,11953.727000,E,18.00,350.55,20161023,,,D*41
$PTUBA,87.89,,15,GPS,,12.00,F,F*1F
$GPRMC,153458,A,2920.589000,N,11953.726000,E,17.00,351.30,20161023,,,D*4D
$PTUBA,87.97,,15,GPS,,12.00,F,F*10
$GPRMC,153459,A,2920.591000,N,11953.726000,E,17.00,350.89,20161023,,,D*46
$PTUBA,88.06,,15,GPS,,8.00,F,F*2C
$GPRMC,153500,A,2920.594000,N,11953.726000,E,16.00,353.29,20161023,,,D*46
$PTUBA,88.15,,14,GPS,,12.00,F,F*14
$GPRMC,153501,A,2920.596000,N,11953.727000,E,16.00,2.43,20161023,,,D*4F
$PTUBA,88.26,,14,GPS,,12.00,F,F*14
$GPRMC,153502,A,2920.598000,N,11953.728000,E,9.00,15.25,20161023,,,D*45
$PTUBA,88.39,,14,GPS,,8.00,F,F*21
$GPRMC,153503,A,2920.601000,N,11953.729000,E,9.00,9.54,20161023,,,D*7D
$PTUBA,88.53,,14,GPS,,8.00,F,F*2D
$GPRMC,153504,A,2920.605000,N,11953.730000,E,9.00,7.34,20161023,,,D*7E
$PTUBA,90.22,,13,GPS,,8.00,F,F*25
$GPRMC,153505,A,2920.608000,N,11953.731000,E,12.00,9.46,20161023,,,D*42
$PTUBA,90.30,,14,GPS,,12.00,F,F*1A
$GPRMC,153506,A,2920.612000,N,11953.732000,E,12.00,11.24,20161023,,,D*74
$PTUBA,90.71,,15,GPS,,16.00,F,F*1A
$GPRMC,153507,A,2920.616000,N,11953.734000,E,18.00,5.84,20161023,,,D*42
$PTUBA,90.61,,15,GPS,,12.00,F,F*1F
$GPRMC,153508,A,2920.621000,N,11953.735000,E,18.00,4.39,20161023,,,D*4F
$PTUBA,89.96,,14,GPS,,12.00,F,F*1E
$GPRMC,153509,A,2920.626000,N,11953.736000,E,18.00,5.03,20161023,,,D*42
$PTUBA,89.38,,13,GPS,,12.00,F,F*1D
$GPRMC,153510,A,2920.632000,N,11953.737000,E,18.00,3.61,20161023,,,D*4C
$PTUBA,89.03,,15,GPS,,12.00,F,F*13
$GPRMC,153511,A,2920.636000,N,11953.737000,E,18.00,1.83,20161023,,,D*47
$PTUBA,89.05,,14,GPS,,8.00,F,F*2F
$GPRMC,153512,A,2920.640000,N,11953.737000,E,18.00,2.79,20161023,,,D*43
$PTUBA,89.49,,14,GPS,,8.00,F,F*27
$GPRMC,153513,A,2920.643000,N,11953.738000,E,18.00,6.17,20161023,,,D*42
$PTUBA,89.53,,14,GPS,,8.00,F,F*2C
$GPRMC,153521,A,2920.646000,N,11953.745000,E,4.00,91.90,20161023,,,D*40
$PTUBA,90.08,,16,GPS,,6.00,F,F*26
$GPRMC,153522,A,2920.646000,N,11953.747000,E,7.00,93.41,20161023,,,D*4C
$PTUBA,90.07,,15,GPS,,6.00,F,F*2A
$GPRMC,153523,A,2920.646000,N,11953.749000,E,7.00,93.08,20161023,,,D*4E
$PTUBA,90.06,,14,GPS,,6.00,F,F*2A
$GPRMC,153527,A,2920.645000,N,11953.755000,E,3.00,103.58,20161023,,,D*7D
$PTUBA,90.09,,16,GPS,,8.00,F,F*29
$GPRMC,153528,A,2920.645000,N,11953.760000,E,3.00,103.02,20161023,,,D*7B
$PTUBA,90.14,,15,GPS,,8.00,F,F*26
$GPRMC,153529,A,2920.644000,N,11953.765000,E,12.00,99.54,20161023,,,D*7F
$PTUBA,90.95,,14,GPS,,8.00,F,F*2E
$GPRMC,153530,A,2920.643000,N,11953.771000,E,12.00,98.70,20161023,,,D*72
$PTUBA,91.47,,14,GPS,,12.00,F,F*1B
$GPRMC,153531,A,2920.643000,N,11953.776000,E,20.00,98.18,20161023,,,D*7B
$PTUBA,91.42,,14,GPS,,16.00,F,F*1A
$GPRMC,153532,A,2920.642000,N,11953.781000,E,20.00,97.26,20161023,,,D*73
$PTUBA,90.62,,16,GPS,,16.00,F,F*1B
$GPRMC,153533,A,2920.641000,N,11953.785000,E,20.00,98.22,20161023,,,D*7E
$PTUBA,89.21,,16,GPS,,16.00,F,F*14
$GPRMC,153534,A,2920.641000,N,11953.789000,E,21.00,98.61,20161023,,,D*73
$PTUBA,87.40,,16,GPS,,8.00,F,F*22
$GPRMC,153535,A,2920.640000,N,11953.794000,E,21.00,98.08,20161023,,,D*70
$PTUBA,85.96,,16,GPS,,12.00,F,F*10
$GPRMC,153536,A,2920.639000,N,11953.799000,E,20.00,97.85,20161023,,,D*7B
$PTUBA,84.91,,16,GPS,,12.00,F,F*16
$GPRMC,153537,A,2920.638000,N,11953.804000,E,20.00,95.00,20161023,,,D*7F
$PTUBA,84.22,,15,GPS,,8.00,F,F*26
$GPRMC,153538,A,2920.639000,N,11953.809000,E,20.00,76.70,20161023,,,D*76
$PTUBA,84.19,,13,GPS,,6.00,F,F*26
$GPRMC,153539,A,2920.642000,N,11953.812000,E,20.00,44.47,20161023,,,D*74
$PTUBA,84.18,,13,GPS,,6.00,F,F*27
$GPRMC,153540,A,2920.645000,N,11953.814000,E,17.00,22.19,20161023,,,D*74
$PTUBA,84.16,,13,GPS,,6.00,F,F*29
$GPRMC,153541,A,2920.649000,N,11953.815000,E,17.00,18.56,20161023,,,D*7A
$PTUBA,84.14,,14,GPS,,8.00,F,F*22
$GPRMC,153542,A,2920.653000,N,11953.816000,E,14.00,3.40,20161023,,,D*4F
$PTUBA,84.01,,14,GPS,,8.00,F,F*26
$GPRMC,153543,A,2920.657000,N,11953.816000,E,14.00,1.03,20161023,,,D*4F
$PTUBA,83.95,,14,GPS,,8.00,F,F*2C
$GPRMC,153544,A,2920.662000,N,11953.816000,E,14.00,359.29,20161023,,,D*48
$PTUBA,83.74,,14,GPS,,6.00,F,F*2D
$GPRMC,153545,A,2920.667000,N,11953.816000,E,21.00,357.52,20161023,,,D*48
$PTUBA,83.59,,14,GPS,,6.00,F,F*22
$GPRMC,153546,A,2920.673000,N,11953.815000,E,21.00,356.86,20161023,,,D*45
$PTUBA,83.68,,14,GPS,,8.00,F,F*2E
$GPRMC,153547,A,2920.677000,N,11953.815000,E,22.00,356.19,20161023,,,D*45
$PTUBA,84.05,,14,GPS,,6.00,F,F*2C
$GPRMC,153548,A,2920.682000,N,11953.815000,E,22.00,357.25,20161023,,,D*4E
$PTUBA,84.22,,14,GPS,,6.00,F,F*29
$GPRMC,153549,A,2920.687000,N,11953.815000,E,18.00,358.36,20161023,,,D*4E
$PTUBA,84.28,,14,GPS,,6.00,F,F*23
$GPRMC,153550,A,2920.691000,N,11953.815000,E,18.00,0.35,20161023,,,D*4C
$PTUBA,84.30,,15,GPS,,6.00,F,F*2B
$GPRMC,153551,A,2920.695000,N,11953.815000,E,18.00,2.62,20161023,,,D*49
$PTUBA,84.27,,15,GPS,,6.00,F,F*2D
$GPRMC,153552,A,2920.700000,N,11953.815000,E,18.00,359.61,20161023,,,D*49
$PTUBA,84.39,,15,GPS,,6.00,F,F*22
$GPRMC,153553,A,2920.705000,N,11953.813000,E,18.00,340.87,20161023,,,D*4B
$PTUBA,84.61,,15,GPS,,8.00,F,F*21
$GPRMC,153554,A,2920.711000,N,11953.811000,E,22.00,340.75,20161023,,,D*4F
$PTUBA,84.89,,15,GPS,,8.00,F,F*27
$GPRMC,153555,A,2920.717000,N,11953.808000,E,22.00,340.18,20161023,,,D*4B
$PTUBA,85.05,,16,GPS,,8.00,F,F*21
$GPRMC,153556,A,2920.722000,N,11953.806000,E,25.00,339.46,20161023,,,D*42
$PTUBA,85.44,,15,GPS,,6.00,F,F*29
$GPRMC,153557,A,2920.727000,N,11953.803000,E,25.00,339.35,20161023,,,D*47
$PTUBA,85.85,,15,GPS,,6.00,F,F*24
$GPRMC,153558,A,2920.732000,N,11953.801000,E,24.00,338.84,20161023,,,D*44
$PTUBA,86.04,,15,GPS,,6.00,F,F*2E
$GPRMC,153559,A,2920.736000,N,11953.798000,E,24.00,337.18,20161023,,,D*44
$PTUBA,86.47,,14,GPS,,6.00,F,F*28
$GPRMC,153600,A,2920.740000,N,11953.795000,E,22.00,334.42,20161023,,,D*4D
$PTUBA,87.02,,14,GPS,,6.00,F,F*28
$GPRMC,153601,A,2920.744000,N,11953.793000,E,22.00,332.42,20161023,,,D*48
$PTUBA,87.47,,14,GPS,,12.00,F,F*1C
$GPRMC,153602,A,2920.747000,N,11953.790000,E,17.00,330.30,20161023,,,D*4A
$PTUBA,87.81,,15,GPS,,6.00,F,F*22
$GPRMC,153603,A,2920.751000,N,11953.788000,E,17.00,326.47,20161023,,,D*42
$PTUBA,88.20,,14,GPS,,8.00,F,F*29
$GPRMC,153604,A,2920.754000,N,11953.784000,E,17.00,332.04,20161023,,,D*4E
$PTUBA,88.82,,14,GPS,,6.00,F,F*2F
$GPRMC,153605,A,2920.758000,N,11953.783000,E,18.00,332.24,20161023,,,D*49
$PTUBA,89.28,,14,GPS,,6.00,F,F*2E
$GPRMC,153606,A,2920.762000,N,11953.780000,E,18.00,332.24,20161023,,,D*40
$PTUBA,89.77,,14,GPS,,6.00,F,F*24
$GPRMC,153607,A,2920.766000,N,11953.779000,E,18.00,345.11,20161023,,,D*45
$PTUBA,90.29,,14,GPS,,6.00,F,F*27
$GPRMC,153608,A,2920.769000,N,11953.779000,E,18.00,19.09,20161023,,,D*76
$PTUBA,90.33,,14,GPS,,6.00,F,F*2C
$GPRMC,153609,A,2920.771000,N,11953.781000,E,16.00,48.12,20161023,,,D*79
$PTUBA,90.37,,15,GPS,,6.00,F,F*29
$GPRMC,153610,A,2920.774000,N,11953.784000,E,16.00,50.34,20161023,,,D*7C
$PTUBA,90.41,,15,GPS,,6.00,F,F*28
$GPRMC,153611,A,2920.775000,N,11953.785000,E,14.00,51.04,20161023,,,D*7D
$PTUBA,90.44,,16,GPS,,6.00,F,F*2E
$GPRMC,153612,A,2920.778000,N,11953.785000,E,14.00,27.03,20161023,,,D*75
$PTUBA,90.50,,15,GPS,,6.00,F,F*28
$GPRMC,153613,A,2920.781000,N,11953.785000,E,14.00,6.67,20161023,,,D*43
$PTUBA,90.60,,15,GPS,,12.00,F,F*1E
$GPRMC,153614,A,2920.784000,N,11953.785000,E,15.00,2.87,20161023,,,D*4A
$PTUBA,91.69,,15,GPS,,6.00,F,F*23
$GPRMC,153615,A,2920.790000,N,11953.785000,E,15.00,1.11,20161023,,,D*42
$PTUBA,91.81,,15,GPS,,6.00,F,F*25
$GPRMC,153616,A,2920.796000,N,11953.785000,E,20.00,1.88,20161023,,,D*41
$PTUBA,91.09,,15,GPS,,6.00,F,F*25
$GPRMC,153617,A,2920.801000,N,11953.787000,E,20.00,3.22,20161023,,,D*41
$PTUBA,90.00,,14,GPS,,6.00,F,F*2C
$GPRMC,153618,A,2920.805000,N,11953.787000,E,20.00,6.19,20161023,,,D*47
$PTUBA,89.89,,14,GPS,,6.00,F,F*25
$GPRMC,153619,A,2920.809000,N,11953.788000,E,20.00,7.39,20161023,,,D*46
$PTUBA,89.81,,14,GPS,,12.00,F,F*18
$GPRMC,153620,A,2920.812000,N,11953.788000,E,15.00,10.93,20161023,,,D*76
$PTUBA,89.75,,14,GPS,,6.00,F,F*26
$GPRMC,153620,A,2920.813000,N,11953.789000,E,15.00,13.02,20161023,,,D*7D
$PTUBA,89.71,,14,GPS,,6.00,F,F*22
$GPRMC,153621,A,2920.815000,N,11953.789000,E,15.00,11.32,20161023,,,D*7B
$PTUBA,89.71,,15,GPS,,6.00,F,F*23
$GPRMC,153622,A,2920.817000,N,11953.790000,E,7.00,13.29,20161023,,,D*49
$PTUBA,89.75,,15,GPS,,6.00,F,F*27
$GPRMC,153623,A,2920.819000,N,11953.790000,E,7.00,15.18,20161023,,,D*42
$PTUBA,89.83,,14,GPS,,8.00,F,F*21
$GPRMC,153624,A,2920.822000,N,11953.791000,E,9.00,16.38,20161023,,,D*43
$PTUBA,89.95,,14,GPS,,6.00,F,F*28
$GPRMC,153625,A,2920.825000,N,11953.791000,E,9.00,15.94,20161023,,,D*40
$PTUBA,91.58,,14,GPS,,6.00,F,F*20
$GPRMC,153626,A,2920.829000,N,11953.792000,E,13.00,13.98,20161023,,,D*7D
$PTUBA,93.04,,14,GPS,,6.00,F,F*2B
$GPRMC,153627,A,2920.834000,N,11953.791000,E,13.00,1.40,20161023,,,D*45
$PTUBA,94.28,,14,GPS,,6.00,F,F*22
$GPRMC,153628,A,2920.839000,N,11953.792000,E,20.00,1.00,20161023,,,D*40
$PTUBA,95.04,,15,GPS,,6.00,F,F*2C
$GPRMC,153629,A,2920.844000,N,11953.792000,E,20.00,359.47,20161023,,,D*46
$PTUBA,95.54,,15,GPS,,6.00,F,F*29
$GPRMC,153630,A,2920.850000,N,11953.792000,E,21.00,358.82,20161023,,,D*42
$PTUBA,95.77,,16,GPS,,16.00,F,F*1A
$GPRMC,153631,A,2920.854000,N,11953.792000,E,21.00,358.99,20161023,,,D*4D
$PTUBA,95.76,,16,GPS,,6.00,F,F*2A
$GPRMC,153632,A,2920.858000,N,11953.791000,E,21.00,356.26,20161023,,,D*4B
$PTUBA,95.57,,15,GPS,,6.00,F,F*2A
$GPRMC,153633,A,2920.864000,N,11953.791000,E,17.00,352.35,20161023,,,D*46
$PTUBA,95.25,,14,GPS,,6.00,F,F*2E
$GPRMC,153634,A,2920.869000,N,11953.790000,E,17.00,348.47,20161023,,,D*43
$PTUBA,95.08,,15,GPS,,6.00,F,F*20
$GPRMC,153635,A,2920.875000,N,11953.788000,E,24.00,346.26,20161023,,,D*4F
$PTUBA,94.98,,15,GPS,,6.00,F,F*28
$GPRMC,153636,A,2920.881000,N,11953.785000,E,24.00,345.14,20161023,,,D*48
$PTUBA,94.81,,16,GPS,,6.00,F,F*23
$GPRMC,153637,A,2920.886000,N,11953.784000,E,27.00,344.02,20161023,,,D*4A
$PTUBA,94.71,,17,GPS,,6.00,F,F*2D
$GPRMC,153638,A,2920.892000,N,11953.782000,E,27.00,342.48,20161023,,,D*4E
$PTUBA,94.53,,16,GPS,,6.00,F,F*2C
$GPRMC,153639,A,2920.897000,N,11953.780000,E,24.00,341.05,20161023,,,D*41
$PTUBA,94.12,,16,GPS,,6.00,F,F*29
$GPRMC,153640,A,2920.901000,N,11953.778000,E,24.00,338.01,20161023,,,D*4C
$PTUBA,93.54,,16,GPS,,6.00,F,F*2C
$GPRMC,153641,A,2920.906000,N,11953.775000,E,24.00,338.24,20161023,,,D*40
$PTUBA,92.93,,15,GPS,,6.00,F,F*25
$GPRMC,153642,A,2920.911000,N,11953.773000,E,21.00,337.80,20161023,,,D*47
$PTUBA,92.34,,15,GPS,,8.00,F,F*26
$GPRMC,153643,A,2920.916000,N,11953.770000,E,21.00,338.32,20161023,,,D*44
$PTUBA,91.95,,15,GPS,,6.00,F,F*20
$GPRMC,153644,A,2920.922000,N,11953.768000,E,24.00,338.00,20161023,,,D*49
$PTUBA,91.70,,15,GPS,,6.00,F,F*2B
$GPRMC,153645,A,2920.927000,N,11953.765000,E,24.00,338.22,20161023,,,D*40
$PTUBA,91.46,,16,GPS,,6.00,F,F*2D
$GPRMC,153646,A,2920.932000,N,11953.763000,E,25.00,338.42,20161023,,,D*46
$PTUBA,91.28,,15,GPS,,6.00,F,F*26
$GPRMC,153647,A,2920.936000,N,11953.762000,E,25.00,339.93,20161023,,,D*4F
$PTUBA,90.96,,14,GPS,,6.00,F,F*23
$GPRMC,153648,A,2920.940000,N,11953.761000,E,21.00,343.10,20161023,,,D*40
$PTUBA,90.76,,15,GPS,,6.00,F,F*2C
$GPRMC,153649,A,2920.944000,N,11953.761000,E,21.00,1.23,20161023,,,D*40
$PTUBA,90.51,,15,GPS,,6.00,F,F*29
$GPRMC,153650,A,2920.948000,N,11953.762000,E,17.00,21.70,20161023,,,D*76
$PTUBA,90.37,,15,GPS,,6.00,F,F*29
$GPRMC,153651,A,2920.953000,N,11953.765000,E,17.00,23.07,20161023,,,D*78
$PTUBA,90.24,,16,GPS,,4.00,F,F*2A
$GPRMC,153652,A,2920.959000,N,11953.768000,E,17.00,22.22,20161023,,,D*7A
$PTUBA,90.13,,15,GPS,,6.00,F,F*2F
$GPRMC,153653,A,2920.965000,N,11953.770000,E,23.00,19.30,20161023,,,D*71
$PTUBA,90.03,,15,GPS,,6.00,F,F*2E
$GPRMC,153654,A,2920.971000,N,11953.771000,E,23.00,15.77,20161023,,,D*7D
$PTUBA,90.04,,15,GPS,,6.00,F,F*29
$GPRMC,153655,A,2920.977000,N,11953.773000,E,26.00,13.70,20161023,,,D*7C
$PTUBA,90.06,,16,GPS,,6.00,F,F*28
$GPRMC,153656,A,2920.983000,N,11953.773000,E,26.00,0.88,20161023,,,D*41
$PTUBA,90.11,,16,GPS,,8.00,F,F*20
$GPRMC,153657,A,2920.989000,N,11953.772000,E,26.00,359.77,20161023,,,D*44
$PTUBA,90.25,,16,GPS,,6.00,F,F*29
$GPRMC,153658,A,2920.995000,N,11953.772000,E,26.00,358.41,20161023,,,D*42
$PTUBA,90.30,,16,GPS,,6.00,F,F*2D
$GPRMC,153659,A,2920.999000,N,11953.772000,E,27.00,0.19,20161023,,,D*4D
$PTUBA,90.37,,16,GPS,,6.00,F,F*2A
$GPRMC,153700,A,2921.003000,N,11953.773000,E,27.00,18.37,20161023,,,D*7F
$PTUBA,90.39,,14,GPS,,6.00,F,F*26
$GPRMC,153701,A,2921.006000,N,11953.774000,E,27.00,21.29,20161023,,,D*79
$PTUBA,90.41,,15,GPS,,8.00,F,F*26
$GPRMC,153702,A,2921.008000,N,11953.776000,E,16.00,34.21,20161023,,,D*78
$PTUBA,90.44,,15,GPS,,8.00,F,F*23
$GPRMC,153703,A,2921.009000,N,11953.776000,E,16.00,36.45,20161023,,,D*78
$PTUBA,90.46,,15,GPS,,8.00,F,F*21
$GPRMC,153706,A,2921.011000,N,11953.778000,E,4.00,17.23,20161023,,,D*4A
$PTUBA,90.64,,15,GPS,,8.00,F,F*21
$GPRMC,153707,A,2921.013000,N,11953.779000,E,4.00,19.51,20161023,,,D*43
$PTUBA,90.70,,15,GPS,,8.00,F,F*24
$GPRMC,153708,A,2921.016000,N,11953.781000,E,11.00,22.67,20161023,,,D*77
$PTUBA,90.77,,15,GPS,,8.00,F,F*23
$GPRMC,153709,A,2921.019000,N,11953.784000,E,11.00,40.50,20161023,,,D*7C
$PTUBA,91.35,,15,GPS,,12.00,F,F*1F
$GPRMC,153710,A,2921.023000,N,11953.787000,E,11.00,41.58,20161023,,,D*77
$PTUBA,91.76,,15,GPS,,12.00,F,F*18
$GPRMC,153711,A,2921.026000,N,11953.791000,E,16.00,45.58,20161023,,,D*77
$PTUBA,91.84,,14,GPS,,12.00,F,F*14
$GPRMC,153712,A,2921.028000,N,11953.795000,E,16.00,63.78,20161023,,,D*78
$PTUBA,91.64,,14,GPS,,6.00,F,F*2F
$GPRMC,153713,A,2921.030000,N,11953.799000,E,20.00,65.24,20161023,,,D*76
$PTUBA,91.43,,14,GPS,,12.00,F,F*1F
$GPRMC,153714,A,2921.032000,N,11953.804000,E,20.00,69.19,20161023,,,D*7A
$PTUBA,91.12,,14,GPS,,8.00,F,F*20
$GPRMC,153715,A,2921.033000,N,11953.810000,E,20.00,72.19,20161023,,,D*75
$PTUBA,90.69,,14,GPS,,8.00,F,F*2D
$GPRMC,153716,A,2921.034000,N,11953.816000,E,20.00,85.43,20161023,,,D*70
$PTUBA,90.13,,14,GPS,,8.00,F,F*20
$GPRMC,153717,A,2921.033000,N,11953.823000,E,25.00,91.06,20161023,,,D*71
$PTUBA,89.89,,14,GPS,,8.00,F,F*2B
$GPRMC,153718,A,2921.033000,N,11953.831000,E,25.00,90.34,20161023,,,D*7D
$PTUBA,89.68,,14,GPS,,16.00,F,F*1B
$GPRMC,153719,A,2921.033000,N,11953.839000,E,25.00,88.27,20161023,,,D*7F
$PTUBA,89.40,,13,GPS,,16.00,F,F*16
$GPRMC,153720,A,2921.033000,N,11953.847000,E,28.00,87.79,20161023,,,D*75
$PTUBA,89.27,,13,GPS,,8.00,F,F*28
$GPRMC,153721,A,2921.034000,N,11953.855000,E,28.00,87.24,20161023,,,D*78
$PTUBA,89.49,,12,GPS,,8.00,F,F*21
$GPRMC,153722,A,2921.036000,N,11953.861000,E,29.00,73.48,20161023,,,D*7E
$PTUBA,89.96,,12,GPS,,8.00,F,F*23
$GPRMC,153723,A,2921.037000,N,11953.866000,E,29.00,69.47,20161023,,,D*7D
$PTUBA,90.03,,13,GPS,,8.00,F,F*26
$GPRMC,153724,A,2921.040000,N,11953.869000,E,17.00,43.46,20161023,,,D*71
$PTUBA,90.11,,14,GPS,,12.00,F,F*19
$GPRMC,153725,A,2921.042000,N,11953.870000,E,17.00,6.97,20161023,,,D*47
$PTUBA,90.18,,13,GPS,,12.00,F,F*17
$GPRMC,153726,A,2921.047000,N,11953.870000,E,11.00,6.49,20161023,,,D*44
$PTUBA,90.27,,12,GPS,,8.00,F,F*21
$GPRMC,153727,A,2921.049000,N,11953.870000,E,11.00,4.63,20161023,,,D*41
$PTUBA,90.36,,12,GPS,,8.00,F,F*21
$GPRMC,153728,A,2921.054000,N,11953.869000,E,11.00,345.62,20161023,,,D*4D
$PTUBA,90.44,,13,GPS,,8.00,F,F*25
$GPRMC,153729,A,2921.056000,N,11953.866000,E,11.00,306.80,20161023,,,D*4A
$PTUBA,90.51,,13,GPS,,8.00,F,F*21
$GPRMC,153730,A,2921.057000,N,11953.864000,E,11.00,292.13,20161023,,,D*47
$PTUBA,90.58,,13,GPS,,6.00,F,F*26
$GPRMC,153731,A,2921.058000,N,11953.862000,E,11.00,290.94,20161023,,,D*42
$PTUBA,90.65,,14,GPS,,8.00,F,F*21
