$GPRMC,134739,A,2921.840000,N,11945.424000,E,11.00,76.96,20161023,,,D*7B
$PTUBA,75.02,,14,GPS,,12.00,F,F*10
$GPRMC,134740,A,2921.840000,N,11945.426000,E,11.00,76.96,20161023,,,D*77
$PTUBA,62.74,,15,GPS,,12.00,F,F*16
$GPRMC,134741,A,2921.842000,N,11945.426000,E,11.00,76.96,20161023,,,D*74
$PTUBA,58.88,,16,GPS,,12.00,F,F*1F
$GPRMC,134742,A,2921.844000,N,11945.427000,E,11.00,32.68,20161023,,,D*71
$PTUBA,55.78,,17,GPS,,8.00,F,F*27
$GPRMC,134743,A,2921.847000,N,11945.428000,E,5.00,29.06,20161023,,,D*4B
$PTUBA,51.89,,17,GPS,,8.00,F,F*2D
$GPRMC,134744,A,2921.850000,N,11945.431000,E,5.00,10.29,20161023,,,D*45
$PTUBA,50.36,,18,GPS,,8.00,F,F*27
$GPRMC,134745,A,2921.856000,N,11945.431000,E,16.00,349.37,20161023,,,D*40
$PTUBA,48.57,,18,GPS,,8.00,F,F*29
$GPRMC,134746,A,2921.860000,N,11945.430000,E,16.00,331.21,20161023,,,D*4F
$PTUBA,45.16,,18,GPS,,8.00,F,F*21
$GPRMC,134747,A,2921.866000,N,11945.430000,E,18.00,331.97,20161023,,,D*4B
$PTUBA,38.48,,18,GPS,,8.00,F,F*20
$GPRMC,134748,A,2921.871000,N,11945.426000,E,18.00,332.54,20161023,,,D*49
$PTUBA,37.56,,17,GPS,,8.00,F,F*2F
$GPRMC,134749,A,2921.880000,N,11945.421000,E,18.00,334.89,20161023,,,D*47
$PTUBA,36.60,,17,GPS,,8.00,F,F*2B
$GPRMC,134750,A,2921.888000,N,11945.417000,E,30.00,335.62,20161023,,,D*4C
$PTUBA,37.29,,18,GPS,,12.00,F,F*13
$GPRMC,134751,A,2921.895000,N,11945.413000,E,30.00,321.31,20161023,,,D*46
$PTUBA,37.85,,18,GPS,,12.00,F,F*15
$GPRMC,134752,A,2921.902000,N,11945.406000,E,35.00,323.23,20161023,,,D*4A
$PTUBA,39.51,,18,GPS,,12.00,F,F*12
$GPRMC,134753,A,2921.908000,N,11945.404000,E,35.00,330.96,20161023,,,D*4F
$PTUBA,40.08,,19,GPS,,12.00,F,F*11
$GPRMC,134754,A,2921.916000,N,11945.401000,E,35.00,331.43,20161023,,,D*4B
$PTUBA,41.50,,20,GPS,,12.00,F,F*17
$GPRMC,134755,A,2921.924000,N,11945.399000,E,35.00,334.43,20161023,,,D*48
$PTUBA,43.28,,20,GPS,,12.00,F,F*1A
$GPRMC,134756,A,2921.935000,N,11945.398000,E,36.00,336.70,20161023,,,D*4B
$PTUBA,41.49,,20,GPS,,12.00,F,F*1F
$GPRMC,134757,A,2921.945000,N,11945.393000,E,36.00,335.35,20161023,,,D*44
$PTUBA,39.31,,19,GPS,,12.00,F,F*15
$GPRMC,134758,A,2921.950000,N,11945.387000,E,37.00,333.58,20161023,,,D*46
$PTUBA,38.42,,19,GPS,,12.00,F,F*10
$GPRMC,134759,A,2921.956000,N,11945.380000,E,37.00,332.94,20161023,,,D*47
$PTUBA,39.93,,18,GPS,,12.00,F,F*1C
$GPRMC,134800,A,2921.964000,N,11945.373000,E,37.00,332.52,20161023,,,D*43
$PTUBA,41.36,,19,GPS,,12.00,F,F*1D
$GPRMC,134801,A,2921.971000,N,11945.368000,E,35.00,332.28,20161023,,,D*43
$PTUBA,42.47,,20,GPS,,8.00,F,F*29
$GPRMC,134802,A,2921.977000,N,11945.364000,E,35.00,333.63,20161023,,,D*44
$PTUBA,42.87,,20,GPS,,8.00,F,F*25
$GPRMC,134803,A,2921.983000,N,11945.361000,E,31.00,337.56,20161023,,,D*4D
$PTUBA,43.03,,20,GPS,,8.00,F,F*28
$GPRMC,134804,A,2921.990000,N,11945.360000,E,31.00,2.95,20161023,,,D*43
$PTUBA,42.81,,20,GPS,,8.00,F,F*23
$GPRMC,134805,A,2921.997000,N,11945.363000,E,28.00,23.27,20161023,,,D*74
$PTUBA,42.32,,20,GPS,,6.00,F,F*25
$GPRMC,134806,A,2922.003000,N,11945.369000,E,28.00,41.12,20161023,,,D*78
$PTUBA,41.58,,19,GPS,,6.00,F,F*20
$GPRMC,134807,A,2922.008000,N,11945.374000,E,30.00,44.71,20161023,,,D*77
$PTUBA,41.10,,20,GPS,,6.00,F,F*26
$GPRMC,134808,A,2922.010000,N,11945.383000,E,30.00,74.43,20161023,,,D*7B
$PTUBA,40.82,,20,GPS,,6.00,F,F*2C
$GPRMC,134809,A,2922.012000,N,11945.393000,E,30.00,75.29,20161023,,,D*74
$PTUBA,40.78,,19,GPS,,6.00,F,F*23
$GPRMC,134810,A,2922.014000,N,11945.405000,E,37.00,74.91,20161023,,,D*77
$PTUBA,40.74,,18,GPS,,6.00,F,F*2E
$GPRMC,134811,A,2922.016000,N,11945.417000,E,37.00,75.15,20161023,,,D*7A
$PTUBA,40.99,,18,GPS,,6.00,F,F*2D
$GPRMC,134812,A,2922.018000,N,11945.430000,E,47.00,75.80,20161023,,,D*79
$PTUBA,41.44,,17,GPS,,6.00,F,F*23
$GPRMC,134813,A,2922.021000,N,11945.443000,E,47.00,75.35,20161023,,,D*78
$PTUBA,41.54,,17,GPS,,8.00,F,F*2C
$GPRMC,134814,A,2922.023000,N,11945.456000,E,53.00,76.10,20161023,,,D*78
$PTUBA,41.40,,17,GPS,,8.00,F,F*29
$GPRMC,134815,A,2922.025000,N,11945.470000,E,53.00,76.73,20161023,,,D*7E
$PTUBA,41.15,,18,GPS,,8.00,F,F*26
$GPRMC,134816,A,2922.028000,N,11945.484000,E,54.00,76.02,20161023,,,D*7A
$PTUBA,40.69,,18,GPS,,8.00,F,F*2C
$GPRMC,134817,A,2922.032000,N,11945.498000,E,54.00,75.29,20161023,,,D*77
$PTUBA,40.26,,17,GPS,,8.00,F,F*28
$GPRMC,134818,A,2922.034000,N,11945.512000,E,54.00,75.12,20161023,,,D*75
$PTUBA,39.95,,18,GPS,,8.00,F,F*21
$GPRMC,134819,A,2922.038000,N,11945.526000,E,53.00,76.00,20161023,,,D*78
$PTUBA,39.79,,19,GPS,,8.00,F,F*22
$GPRMC,134820,A,2922.041000,N,11945.540000,E,53.00,75.05,20161023,,,D*7A
$PTUBA,39.70,,19,GPS,,8.00,F,F*2B
$GPRMC,134821,A,2922.044000,N,11945.554000,E,54.00,74.55,20161023,,,D*78
$PTUBA,39.62,,20,GPS,,8.00,F,F*22
$GPRMC,134822,A,2922.048000,N,11945.567000,E,54.00,75.02,20161023,,,D*74
$PTUBA,39.59,,18,GPS,,8.00,F,F*21
$GPRMC,134823,A,2922.050000,N,11945.581000,E,54.00,75.87,20161023,,,D*79
$PTUBA,39.48,,18,GPS,,8.00,F,F*21
$GPRMC,134824,A,2922.053000,N,11945.595000,E,54.00,76.84,20161023,,,D*78
$PTUBA,39.28,,18,GPS,,8.00,F,F*27
$GPRMC,134825,A,2922.056000,N,11945.609000,E,55.00,76.18,20161023,,,D*7E
$PTUBA,39.05,,18,GPS,,6.00,F,F*26
$GPRMC,134826,A,2922.059000,N,11945.624000,E,55.00,75.64,20161023,,,D*75
$PTUBA,38.79,,18,GPS,,6.00,F,F*2C
$GPRMC,134827,A,2922.063000,N,11945.639000,E,55.00,74.70,20161023,,,D*75
$PTUBA,38.61,,18,GPS,,12.00,F,F*10
$GPRMC,134828,A,2922.066000,N,11945.653000,E,56.00,75.39,20161023,,,D*7C
$PTUBA,38.42,,19,GPS,,12.00,F,F*10
$GPRMC,134829,A,2922.070000,N,11945.668000,E,56.00,75.54,20161023,,,D*79
$PTUBA,38.19,,20,GPS,,8.00,F,F*2F
$GPRMC,134830,A,2922.073000,N,11945.683000,E,57.00,76.33,20161023,,,D*74
$PTUBA,37.94,,19,GPS,,8.00,F,F*2F
$GPRMC,134831,A,2922.076000,N,11945.698000,E,57.00,76.86,20161023,,,D*74
$PTUBA,37.71,,19,GPS,,8.00,F,F*24
$GPRMC,134832,A,2922.078000,N,11945.712000,E,57.00,77.51,20161023,,,D*71
$PTUBA,37.63,,20,GPS,,8.00,F,F*2D
$GPRMC,134833,A,2922.081000,N,11945.726000,E,57.00,77.97,20161023,,,D*7B
$PTUBA,37.65,,20,GPS,,8.00,F,F*2B
$GPRMC,134834,A,2922.083000,N,11945.739000,E,54.00,78.64,20161023,,,D*70
$PTUBA,37.80,,20,GPS,,8.00,F,F*20
$GPRMC,134835,A,2922.085000,N,11945.752000,E,54.00,79.38,20161023,,,D*72
$PTUBA,38.07,,19,GPS,,8.00,F,F*2A
$GPRMC,134836,A,2922.087000,N,11945.765000,E,54.00,80.46,20161023,,,D*78
$PTUBA,38.35,,19,GPS,,8.00,F,F*2B
$GPRMC,134837,A,2922.088000,N,11945.778000,E,52.00,81.66,20161023,,,D*7F
$PTUBA,39.07,,19,GPS,,6.00,F,F*25
$GPRMC,134838,A,2922.090000,N,11945.790000,E,52.00,82.86,20161023,,,D*72
$PTUBA,39.86,,19,GPS,,6.00,F,F*2C
$GPRMC,134839,A,2922.091000,N,11945.802000,E,48.00,83.48,20161023,,,D*7E
$PTUBA,40.96,,19,GPS,,6.00,F,F*23
$GPRMC,134840,A,2922.093000,N,11945.815000,E,48.00,82.84,20161023,,,D*75
$PTUBA,41.95,,20,GPS,,6.00,F,F*2B
$GPRMC,134841,A,2922.094000,N,11945.829000,E,49.00,81.55,20161023,,,D*72
$PTUBA,42.32,,20,GPS,,8.00,F,F*2B
$GPRMC,134842,A,2922.096000,N,11945.843000,E,49.00,80.49,20161023,,,D*73
$PTUBA,42.11,,20,GPS,,8.00,F,F*2A
$GPRMC,134843,A,2922.098000,N,11945.857000,E,52.00,79.92,20161023,,,D*73
$PTUBA,41.45,,20,GPS,,8.00,F,F*28
$GPRMC,134844,A,2922.100000,N,11945.870000,E,52.00,80.36,20161023,,,D*79
$PTUBA,40.48,,20,GPS,,8.00,F,F*24
$GPRMC,134845,A,2922.102000,N,11945.883000,E,52.00,79.79,20161023,,,D*7B
$PTUBA,38.84,,20,GPS,,6.00,F,F*25
$GPRMC,134846,A,2922.104000,N,11945.895000,E,49.00,79.19,20161023,,,D*75
$PTUBA,37.56,,20,GPS,,6.00,F,F*25
$GPRMC,134847,A,2922.105000,N,11945.907000,E,49.00,78.38,20161023,,,D*7D
$PTUBA,36.72,,20,GPS,,6.00,F,F*22
$GPRMC,134848,A,2922.107000,N,11945.920000,E,43.00,78.28,20161023,,,D*7E
$PTUBA,36.21,,20,GPS,,6.00,F,F*24
$GPRMC,134849,A,2922.109000,N,11945.932000,E,43.00,77.64,20161023,,,D*75
$PTUBA,36.42,,20,GPS,,6.00,F,F*21
$GPRMC,134850,A,2922.112000,N,11945.945000,E,51.00,77.38,20161023,,,D*7D
$PTUBA,37.06,,20,GPS,,6.00,F,F*20
$GPRMC,134851,A,2922.115000,N,11945.961000,E,51.00,77.17,20161023,,,D*70
$PTUBA,37.84,,20,GPS,,6.00,F,F*2A
$GPRMC,134852,A,2922.119000,N,11945.978000,E,59.00,76.98,20161023,,,D*79
$PTUBA,38.20,,20,GPS,,6.00,F,F*2B
$GPRMC,134853,A,2922.122000,N,11945.994000,E,59.00,76.89,20161023,,,D*72
$PTUBA,38.49,,20,GPS,,6.00,F,F*24
$GPRMC,134854,A,2922.125000,N,11946.010000,E,59.00,76.84,20161023,,,D*79
$PTUBA,38.87,,20,GPS,,6.00,F,F*26
$GPRMC,134855,A,2922.129000,N,11946.026000,E,63.00,77.76,20161023,,,D*74
$PTUBA,39.35,,20,GPS,,6.00,F,F*2E
$GPRMC,134856,A,2922.132000,N,11946.042000,E,63.00,76.89,20161023,,,D*7E
$PTUBA,39.90,,20,GPS,,6.00,F,F*21
$GPRMC,134857,A,2922.136000,N,11946.059000,E,63.00,76.62,20161023,,,D*74
$PTUBA,40.60,,20,GPS,,6.00,F,F*20
$GPRMC,134858,A,2922.140000,N,11946.076000,E,63.00,76.83,20161023,,,D*78
$PTUBA,41.31,,20,GPS,,6.00,F,F*25
$GPRMC,134859,A,2922.143000,N,11946.092000,E,64.00,77.17,20161023,,,D*7B
$PTUBA,41.96,,20,GPS,,6.00,F,F*28
$GPRMC,134900,A,2922.147000,N,11946.109000,E,64.00,77.41,20161023,,,D*72
$PTUBA,42.45,,19,GPS,,6.00,F,F*2F
$GPRMC,134901,A,2922.151000,N,11946.126000,E,66.00,77.53,20161023,,,D*78
$PTUBA,42.95,,19,GPS,,6.00,F,F*22
$GPRMC,134902,A,2922.155000,N,11946.143000,E,66.00,77.13,20161023,,,D*78
$PTUBA,43.41,,19,GPS,,6.00,F,F*2A
$GPRMC,134903,A,2922.159000,N,11946.160000,E,66.00,76.44,20161023,,,D*77
$PTUBA,44.02,,19,GPS,,6.00,F,F*2A
$GPRMC,134904,A,2922.163000,N,11946.177000,E,66.00,76.31,20161023,,,D*7D
$PTUBA,44.82,,19,GPS,,6.00,F,F*22
$GPRMC,134905,A,2922.166000,N,11946.194000,E,66.00,76.49,20161023,,,D*7B
$PTUBA,45.65,,19,GPS,,4.00,F,F*28
$GPRMC,134906,A,2922.170000,N,11946.211000,E,66.00,76.36,20161023,,,D*79
$PTUBA,46.47,,19,GPS,,4.00,F,F*2B
$GPRMC,134907,A,2922.173000,N,11946.228000,E,66.00,77.19,20161023,,,D*7D
$PTUBA,47.20,,19,GPS,,4.00,F,F*2B
$GPRMC,134908,A,2922.177000,N,11946.245000,E,65.00,77.25,20161023,,,D*71
$PTUBA,47.85,,19,GPS,,4.00,F,F*24
$GPRMC,134909,A,2922.180000,N,11946.262000,E,65.00,76.43,20161023,,,D*7C
$PTUBA,48.39,,19,GPS,,4.00,F,F*2C
$GPRMC,134910,A,2922.184000,N,11946.279000,E,65.00,76.70,20161023,,,D*7A
$PTUBA,48.92,,19,GPS,,6.00,F,F*2F
$GPRMC,134911,A,2922.187000,N,11946.296000,E,65.00,76.50,20161023,,,D*7B
$PTUBA,49.38,,19,GPS,,6.00,F,F*2E
$GPRMC,134912,A,2922.191000,N,11946.313000,E,66.00,76.56,20161023,,,D*76
$PTUBA,49.84,,19,GPS,,6.00,F,F*29
$GPRMC,134913,A,2922.195000,N,11946.331000,E,66.00,76.82,20161023,,,D*7A
$PTUBA,50.29,,19,GPS,,6.00,F,F*26
$GPRMC,134914,A,2922.198000,N,11946.348000,E,66.00,76.87,20161023,,,D*7B
$PTUBA,50.70,,19,GPS,,4.00,F,F*28
$GPRMC,134915,A,2922.202000,N,11946.365000,E,68.00,76.64,20161023,,,D*76
$PTUBA,50.99,,19,GPS,,4.00,F,F*2F
$GPRMC,134916,A,2922.204000,N,11946.382000,E,68.00,76.66,20161023,,,D*78
$PTUBA,51.27,,19,GPS,,4.00,F,F*2B
$GPRMC,134917,A,2922.207000,N,11946.398000,E,65.00,76.89,20161023,,,D*7D
$PTUBA,51.52,,19,GPS,,4.00,F,F*29
$GPRMC,134918,A,2922.210000,N,11946.414000,E,65.00,77.44,20161023,,,D*77
$PTUBA,51.75,,19,GPS,,4.00,F,F*2C
$GPRMC,134919,A,2922.214000,N,11946.429000,E,62.00,77.40,20161023,,,D*7F
$PTUBA,51.93,,19,GPS,,4.00,F,F*24
$GPRMC,134920,A,2922.217000,N,11946.444000,E,62.00,77.21,20161023,,,D*7A
$PTUBA,52.21,,19,GPS,,4.00,F,F*2E
$GPRMC,134921,A,2922.220000,N,11946.460000,E,61.00,77.12,20161023,,,D*7A
$PTUBA,52.53,,19,GPS,,4.00,F,F*2B
$GPRMC,134922,A,2922.223000,N,11946.475000,E,61.00,77.08,20161023,,,D*75
$PTUBA,52.82,,19,GPS,,4.00,F,F*27
$GPRMC,134923,A,2922.226000,N,11946.491000,E,61.00,77.32,20161023,,,D*72
$PTUBA,53.08,,19,GPS,,4.00,F,F*24
$GPRMC,134924,A,2922.229000,N,11946.506000,E,61.00,77.18,20161023,,,D*7D
$PTUBA,53.37,,19,GPS,,4.00,F,F*28
$GPRMC,134925,A,2922.232000,N,11946.522000,E,61.00,76.96,20161023,,,D*77
$PTUBA,53.73,,19,GPS,,4.00,F,F*28
$GPRMC,134926,A,2922.236000,N,11946.537000,E,61.00,76.71,20161023,,,D*7D
$PTUBA,54.14,,19,GPS,,4.00,F,F*2E
$GPRMC,134927,A,2922.239000,N,11946.552000,E,61.00,76.73,20161023,,,D*72
$PTUBA,54.53,,19,GPS,,4.00,F,F*2D
$GPRMC,134928,A,2922.242000,N,11946.568000,E,60.00,76.70,20161023,,,D*7A
$PTUBA,54.89,,19,GPS,,4.00,F,F*2A
$GPRMC,134929,A,2922.245000,N,11946.583000,E,60.00,76.71,20161023,,,D*78
$PTUBA,55.36,,19,GPS,,4.00,F,F*2F
$GPRMC,134930,A,2922.248000,N,11946.598000,E,60.00,76.82,20161023,,,D*7B
$PTUBA,55.86,,19,GPS,,4.00,F,F*24
$GPRMC,134931,A,2922.251000,N,11946.613000,E,60.00,76.56,20161023,,,D*7B
$PTUBA,56.29,,19,GPS,,4.00,F,F*22
$GPRMC,134932,A,2922.254000,N,11946.628000,E,60.00,76.79,20161023,,,D*78
$PTUBA,56.61,,19,GPS,,4.00,F,F*2E
$GPRMC,134933,A,2922.258000,N,11946.644000,E,60.00,76.85,20161023,,,D*7C
$PTUBA,56.88,,19,GPS,,4.00,F,F*29
$GPRMC,134934,A,2922.261000,N,11946.659000,E,60.00,76.87,20161023,,,D*7F
$PTUBA,57.05,,19,GPS,,4.00,F,F*2D
$GPRMC,134935,A,2922.264000,N,11946.674000,E,59.00,76.85,20161023,,,D*7C
$PTUBA,57.21,,18,GPS,,4.00,F,F*2A
$GPRMC,134936,A,2922.267000,N,11946.689000,E,59.00,76.88,20161023,,,D*73
$PTUBA,57.37,,19,GPS,,4.00,F,F*2C
$GPRMC,134937,A,2922.270000,N,11946.704000,E,59.00,76.84,20161023,,,D*7C
$PTUBA,57.50,,19,GPS,,4.00,F,F*2D
$GPRMC,134938,A,2922.273000,N,11946.719000,E,59.00,77.12,20161023,,,D*72
$PTUBA,57.65,,19,GPS,,4.00,F,F*2B
$GPRMC,134939,A,2922.276000,N,11946.734000,E,57.00,76.88,20161023,,,D*75
$PTUBA,57.76,,19,GPS,,4.00,F,F*29
$GPRMC,134940,A,2922.279000,N,11946.749000,E,57.00,76.54,20161023,,,D*7F
$PTUBA,57.86,,19,GPS,,4.00,F,F*26
$GPRMC,134941,A,2922.283000,N,11946.762000,E,57.00,75.78,20161023,,,D*7F
$PTUBA,57.91,,19,GPS,,4.00,F,F*20
$GPRMC,134942,A,2922.286000,N,11946.777000,E,57.00,75.38,20161023,,,D*79
$PTUBA,57.92,,19,GPS,,4.00,F,F*23
$GPRMC,134943,A,2922.290000,N,11946.793000,E,57.00,75.73,20161023,,,D*7A
$PTUBA,57.85,,19,GPS,,4.00,F,F*25
$GPRMC,134944,A,2922.293000,N,11946.808000,E,57.00,76.20,20161023,,,D*76
$PTUBA,57.71,,19,GPS,,4.00,F,F*2E
$GPRMC,134945,A,2922.296000,N,11946.823000,E,57.00,77.04,20161023,,,D*7C
$PTUBA,57.55,,19,GPS,,4.00,F,F*28
$GPRMC,134946,A,2922.298000,N,11946.838000,E,57.00,76.47,20161023,,,D*7D
$PTUBA,57.39,,19,GPS,,4.00,F,F*22
$GPRMC,134947,A,2922.301000,N,11946.852000,E,57.00,76.07,20161023,,,D*75
$PTUBA,57.44,,19,GPS,,4.00,F,F*28
$GPRMC,134948,A,2922.304000,N,11946.867000,E,59.00,76.17,20161023,,,D*76
$PTUBA,57.53,,19,GPS,,4.00,F,F*2E
$GPRMC,134949,A,2922.308000,N,11946.882000,E,59.00,77.00,20161023,,,D*77
$PTUBA,57.72,,20,GPS,,6.00,F,F*25
$GPRMC,134950,A,2922.311000,N,11946.897000,E,57.00,77.51,20161023,,,D*79
$PTUBA,57.93,,19,GPS,,6.00,F,F*20
$GPRMC,134951,A,2922.314000,N,11946.913000,E,57.00,77.05,20161023,,,D*71
$PTUBA,57.91,,19,GPS,,6.00,F,F*22
$GPRMC,134952,A,2922.317000,N,11946.929000,E,62.00,76.61,20161023,,,D*7D
$PTUBA,57.81,,19,GPS,,6.00,F,F*23
$GPRMC,134953,A,2922.320000,N,11946.946000,E,62.00,76.54,20161023,,,D*77
$PTUBA,57.48,,19,GPS,,6.00,F,F*26
$GPRMC,134954,A,2922.324000,N,11946.962000,E,62.00,76.79,20161023,,,D*7D
$PTUBA,57.10,,19,GPS,,6.00,F,F*2B
$GPRMC,134955,A,2922.327000,N,11946.977000,E,63.00,76.50,20161023,,,D*71
$PTUBA,56.66,,19,GPS,,6.00,F,F*2B
$GPRMC,134956,A,2922.330000,N,11946.992000,E,63.00,76.70,20161023,,,D*7D
$PTUBA,56.56,,19,GPS,,6.00,F,F*28
$GPRMC,134957,A,2922.333000,N,11947.007000,E,60.00,76.80,20161023,,,D*77
$PTUBA,56.61,,19,GPS,,6.00,F,F*2C
$GPRMC,134958,A,2922.336000,N,11947.021000,E,60.00,76.59,20161023,,,D*7D
$PTUBA,56.66,,19,GPS,,6.00,F,F*2B
$GPRMC,134959,A,2922.339000,N,11947.035000,E,57.00,76.87,20161023,,,D*71
$PTUBA,56.71,,19,GPS,,6.00,F,F*2D
$GPRMC,135000,A,2922.342000,N,11947.050000,E,57.00,76.71,20161023,,,D*73
$PTUBA,56.79,,19,GPS,,6.00,F,F*25
$GPRMC,135001,A,2922.345000,N,11947.062000,E,55.00,76.43,20161023,,,D*77
$PTUBA,57.08,,19,GPS,,6.00,F,F*22
$GPRMC,135002,A,2922.348000,N,11947.076000,E,55.00,76.76,20161023,,,D*7A
$PTUBA,57.38,,19,GPS,,6.00,F,F*21
$GPRMC,135003,A,2922.350000,N,11947.090000,E,55.00,76.64,20161023,,,D*79
$PTUBA,57.53,,19,GPS,,6.00,F,F*2C
$GPRMC,135004,A,2922.353000,N,11947.103000,E,54.00,76.92,20161023,,,D*7E
$PTUBA,57.70,,19,GPS,,8.00,F,F*23
$GPRMC,135005,A,2922.356000,N,11947.116000,E,54.00,77.07,20161023,,,D*73
$PTUBA,57.80,,19,GPS,,8.00,F,F*2C
$GPRMC,135006,A,2922.358000,N,11947.129000,E,53.00,77.64,20161023,,,D*70
$PTUBA,57.94,,19,GPS,,8.00,F,F*29
$GPRMC,135007,A,2922.361000,N,11947.143000,E,53.00,77.59,20161023,,,D*79
$PTUBA,57.82,,19,GPS,,8.00,F,F*2E
$GPRMC,135008,A,2922.364000,N,11947.156000,E,52.00,77.56,20161023,,,D*79
$PTUBA,57.58,,18,GPS,,6.00,F,F*26
$GPRMC,135009,A,2922.366000,N,11947.170000,E,52.00,78.04,20161023,,,D*76
$PTUBA,57.23,,19,GPS,,6.00,F,F*2B
$GPRMC,135010,A,2922.369000,N,11947.183000,E,52.00,78.63,20161023,,,D*7C
$PTUBA,57.08,,19,GPS,,6.00,F,F*22
$GPRMC,135011,A,2922.371000,N,11947.196000,E,52.00,79.04,20161023,,,D*70
$PTUBA,57.12,,19,GPS,,6.00,F,F*29
$GPRMC,135012,A,2922.374000,N,11947.210000,E,52.00,79.53,20161023,,,D*79
$PTUBA,56.77,,19,GPS,,8.00,F,F*25
$GPRMC,135013,A,2922.376000,N,11947.224000,E,51.00,80.35,20161023,,,D*78
$PTUBA,55.76,,19,GPS,,8.00,F,F*27
$GPRMC,135014,A,2922.377000,N,11947.239000,E,51.00,81.24,20161023,,,D*73
$PTUBA,54.40,,19,GPS,,6.00,F,F*2D
$GPRMC,135015,A,2922.378000,N,11947.253000,E,51.00,81.82,20161023,,,D*7D
$PTUBA,52.78,,19,GPS,,6.00,F,F*20
$GPRMC,135016,A,2922.380000,N,11947.267000,E,51.00,82.52,20161023,,,D*70
$PTUBA,51.39,,19,GPS,,6.00,F,F*26
$GPRMC,135017,A,2922.381000,N,11947.280000,E,51.00,83.23,20161023,,,D*7E
$PTUBA,50.06,,19,GPS,,6.00,F,F*2B
$GPRMC,135018,A,2922.382000,N,11947.294000,E,51.00,83.88,20161023,,,D*76
$PTUBA,49.04,,19,GPS,,6.00,F,F*21
$GPRMC,135019,A,2922.383000,N,11947.308000,E,51.00,84.47,20161023,,,D*76
$PTUBA,48.17,,19,GPS,,6.00,F,F*22
$GPRMC,135020,A,2922.384000,N,11947.321000,E,51.00,84.89,20161023,,,D*72
$PTUBA,47.47,,19,GPS,,6.00,F,F*28
$GPRMC,135021,A,2922.385000,N,11947.335000,E,51.00,85.45,20161023,,,D*76
$PTUBA,46.91,,19,GPS,,6.00,F,F*22
$GPRMC,135022,A,2922.386000,N,11947.348000,E,51.00,85.71,20161023,,,D*7B
$PTUBA,46.47,,19,GPS,,8.00,F,F*27
$GPRMC,135023,A,2922.387000,N,11947.362000,E,51.00,84.93,20161023,,,D*7E
$PTUBA,46.03,,19,GPS,,12.00,F,F*1C
$GPRMC,135024,A,2922.388000,N,11947.374000,E,50.00,84.48,20161023,,,D*76
$PTUBA,45.61,,19,GPS,,12.00,F,F*1B
$GPRMC,135025,A,2922.389000,N,11947.385000,E,50.00,84.10,20161023,,,D*75
$PTUBA,45.23,,19,GPS,,6.00,F,F*28
$GPRMC,135026,A,2922.390000,N,11947.397000,E,49.00,83.01,20161023,,,D*72
$PTUBA,44.76,,19,GPS,,6.00,F,F*29
$GPRMC,135027,A,2922.391000,N,11947.407000,E,49.00,82.58,20161023,,,D*71
$PTUBA,44.31,,19,GPS,,4.00,F,F*28
$GPRMC,135028,A,2922.392000,N,11947.417000,E,41.00,83.17,20161023,,,D*7E
$PTUBA,44.00,,19,GPS,,4.00,F,F*2A
$GPRMC,135029,A,2922.393000,N,11947.425000,E,41.00,84.01,20161023,,,D*7F
$PTUBA,43.75,,19,GPS,,4.00,F,F*2F
$GPRMC,135030,A,2922.393000,N,11947.434000,E,33.00,84.47,20161023,,,D*70
$PTUBA,43.53,,19,GPS,,4.00,F,F*2B
$GPRMC,135031,A,2922.394000,N,11947.441000,E,33.00,85.02,20161023,,,D*74
$PTUBA,43.34,,19,GPS,,6.00,F,F*28
$GPRMC,135032,A,2922.394000,N,11947.448000,E,33.00,85.44,20161023,,,D*7C
$PTUBA,43.12,,19,GPS,,6.00,F,F*2C
$GPRMC,135033,A,2922.395000,N,11947.452000,E,29.00,85.84,20161023,,,D*70
$PTUBA,43.11,,18,GPS,,6.00,F,F*2E
$GPRMC,135034,A,2922.395000,N,11947.455000,E,29.00,84.89,20161023,,,D*7C
$PTUBA,43.10,,19,GPS,,8.00,F,F*20
$GPRMC,135035,A,2922.395000,N,11947.458000,E,15.00,84.16,20161023,,,D*79
$PTUBA,43.09,,19,GPS,,12.00,F,F*13
$GPRMC,135048,A,2922.396000,N,11947.468000,E,7.00,84.27,20161023,,,D*42
$PTUBA,43.28,,18,GPS,,6.00,F,F*24
$GPRMC,135049,A,2922.396000,N,11947.472000,E,7.00,83.35,20161023,,,D*4C
$PTUBA,43.51,,17,GPS,,6.00,F,F*25
$GPRMC,135050,A,2922.397000,N,11947.478000,E,20.00,82.60,20161023,,,D*7B
$PTUBA,43.58,,18,GPS,,8.00,F,F*2D
$GPRMC,135051,A,2922.397000,N,11947.485000,E,20.00,82.26,20161023,,,D*7A
$PTUBA,43.43,,18,GPS,,4.00,F,F*2B
$GPRMC,135052,A,2922.398000,N,11947.493000,E,20.00,81.49,20161023,,,D*7B
$PTUBA,43.20,,17,GPS,,6.00,F,F*23
$GPRMC,135053,A,2922.400000,N,11947.502000,E,25.00,81.76,20161023,,,D*7C
$PTUBA,42.87,,19,GPS,,6.00,F,F*21
$GPRMC,135054,A,2922.401000,N,11947.511000,E,25.00,81.86,20161023,,,D*77
$PTUBA,42.51,,19,GPS,,4.00,F,F*28
$GPRMC,135055,A,2922.402000,N,11947.520000,E,31.00,82.35,20161023,,,D*79
$PTUBA,42.43,,18,GPS,,6.00,F,F*28
$GPRMC,135056,A,2922.403000,N,11947.531000,E,31.00,83.06,20161023,,,D*7A
$PTUBA,42.32,,18,GPS,,6.00,F,F*2E
$GPRMC,135057,A,2922.405000,N,11947.543000,E,40.00,83.43,20161023,,,D*7F
$PTUBA,42.18,,18,GPS,,6.00,F,F*26
$GPRMC,135058,A,2922.406000,N,11947.556000,E,40.00,84.26,20161023,,,D*73
$PTUBA,42.01,,18,GPS,,6.00,F,F*2E
$GPRMC,135059,A,2922.407000,N,11947.569000,E,48.00,85.01,20161023,,,D*73
$PTUBA,41.85,,16,GPS,,4.00,F,F*2D
$GPRMC,135100,A,2922.407000,N,11947.581000,E,48.00,86.04,20161023,,,D*7E
$PTUBA,41.60,,16,GPS,,6.00,F,F*24
$GPRMC,135101,A,2922.407000,N,11947.590000,E,48.00,85.23,20161023,,,D*79
$PTUBA,41.43,,17,GPS,,6.00,F,F*24
$GPRMC,135102,A,2922.408000,N,11947.596000,E,46.00,84.30,20161023,,,D*7E
$PTUBA,41.41,,17,GPS,,6.00,F,F*26
$GPRMC,135103,A,2922.408000,N,11947.604000,E,46.00,81.35,20161023,,,D*77
$PTUBA,41.39,,19,GPS,,6.00,F,F*27
$GPRMC,135104,A,2922.410000,N,11947.613000,E,27.00,77.42,20161023,,,D*71
$PTUBA,41.25,,19,GPS,,6.00,F,F*2A
$GPRMC,135105,A,2922.413000,N,11947.623000,E,27.00,75.21,20161023,,,D*77
$PTUBA,40.93,,19,GPS,,6.00,F,F*26
$GPRMC,135106,A,2922.414000,N,11947.633000,E,37.00,75.21,20161023,,,D*73
$PTUBA,40.24,,19,GPS,,8.00,F,F*24
$GPRMC,135107,A,2922.417000,N,11947.643000,E,37.00,75.54,20161023,,,D*74
$PTUBA,39.57,,19,GPS,,8.00,F,F*2E
$GPRMC,135108,A,2922.419000,N,11947.655000,E,40.00,77.23,20161023,,,D*70
$PTUBA,39.18,,19,GPS,,8.00,F,F*25
$GPRMC,135109,A,2922.421000,N,11947.665000,E,40.00,79.97,20161023,,,D*78
$PTUBA,39.38,,18,GPS,,8.00,F,F*26
$GPRMC,135110,A,2922.422000,N,11947.678000,E,40.00,83.76,20161023,,,D*75
$PTUBA,39.48,,17,GPS,,8.00,F,F*2E
$GPRMC,135111,A,2922.423000,N,11947.690000,E,47.00,85.80,20161023,,,D*7B
$PTUBA,39.75,,17,GPS,,8.00,F,F*20
$GPRMC,135112,A,2922.423000,N,11947.702000,E,47.00,87.10,20161023,,,D*79
$PTUBA,39.83,,17,GPS,,8.00,F,F*29
$GPRMC,135113,A,2922.424000,N,11947.714000,E,48.00,87.47,20161023,,,D*75
$PTUBA,39.96,,18,GPS,,8.00,F,F*22
$GPRMC,135114,A,2922.424000,N,11947.725000,E,48.00,87.46,20161023,,,D*71
$PTUBA,39.82,,19,GPS,,8.00,F,F*26
$GPRMC,135115,A,2922.425000,N,11947.736000,E,44.00,88.04,20161023,,,D*76
$PTUBA,39.70,,18,GPS,,6.00,F,F*24
$GPRMC,135116,A,2922.425000,N,11947.747000,E,44.00,87.08,20161023,,,D*70
$PTUBA,39.41,,18,GPS,,6.00,F,F*26
$GPRMC,135117,A,2922.426000,N,11947.757000,E,40.00,86.08,20161023,,,D*76
$PTUBA,39.12,,18,GPS,,6.00,F,F*20
$GPRMC,135118,A,2922.426000,N,11947.766000,E,40.00,86.89,20161023,,,D*72
$PTUBA,38.82,,18,GPS,,6.00,F,F*28
$GPRMC,135119,A,2922.426000,N,11947.775000,E,36.00,85.92,20161023,,,D*79
$PTUBA,38.54,,17,GPS,,8.00,F,F*22
$GPRMC,135120,A,2922.426000,N,11947.783000,E,36.00,86.09,20161023,,,D*7B
$PTUBA,38.54,,17,GPS,,8.00,F,F*22
$GPRMC,135121,A,2922.427000,N,11947.791000,E,36.00,86.68,20161023,,,D*7F
$PTUBA,38.67,,16,GPS,,6.00,F,F*2D
$GPRMC,135122,A,2922.427000,N,11947.799000,E,33.00,86.47,20161023,,,D*7C
$PTUBA,38.97,,17,GPS,,8.00,F,F*2D
$GPRMC,135123,A,2922.427000,N,11947.808000,E,33.00,87.14,20161023,,,D*7D
$PTUBA,39.34,,17,GPS,,8.00,F,F*25
$GPRMC,135124,A,2922.427000,N,11947.816000,E,33.00,86.60,20161023,,,D*77
$PTUBA,39.72,,17,GPS,,8.00,F,F*27
$GPRMC,135125,A,2922.428000,N,11947.824000,E,33.00,84.46,20161023,,,D*7E
$PTUBA,40.12,,16,GPS,,8.00,F,F*2E
$GPRMC,135126,A,2922.429000,N,11947.835000,E,29.00,83.24,20161023,,,D*74
$PTUBA,40.48,,17,GPS,,8.00,F,F*20
$GPRMC,135127,A,2922.430000,N,11947.846000,E,29.00,84.60,20161023,,,D*7E
$PTUBA,40.64,,17,GPS,,8.00,F,F*2E
$GPRMC,135128,A,2922.431000,N,11947.859000,E,41.00,85.61,20161023,,,D*70
$PTUBA,40.59,,17,GPS,,8.00,F,F*20
$GPRMC,135129,A,2922.432000,N,11947.873000,E,41.00,86.14,20161023,,,D*7B
$PTUBA,40.54,,18,GPS,,6.00,F,F*2C
$GPRMC,135130,A,2922.433000,N,11947.886000,E,41.00,86.99,20161023,,,D*7D
$PTUBA,40.45,,18,GPS,,6.00,F,F*2C
$GPRMC,135131,A,2922.434000,N,11947.900000,E,52.00,85.80,20161023,,,D*7D
$PTUBA,40.27,,18,GPS,,6.00,F,F*28
$GPRMC,135132,A,2922.435000,N,11947.914000,E,52.00,85.04,20161023,,,D*76
$PTUBA,40.08,,19,GPS,,6.00,F,F*24
$GPRMC,135133,A,2922.436000,N,11947.928000,E,52.00,85.83,20161023,,,D*74
$PTUBA,39.91,,18,GPS,,4.00,F,F*29
$GPRMC,135134,A,2922.437000,N,11947.940000,E,52.00,86.36,20161023,,,D*71
$PTUBA,39.70,,18,GPS,,6.00,F,F*24
$GPRMC,135135,A,2922.438000,N,11947.954000,E,52.00,86.73,20161023,,,D*7B
$PTUBA,39.55,,18,GPS,,6.00,F,F*23
$GPRMC,135136,A,2922.438000,N,11947.969000,E,52.00,87.32,20161023,,,D*72
$PTUBA,39.38,,19,GPS,,6.00,F,F*29
$GPRMC,135137,A,2922.439000,N,11947.983000,E,53.00,86.98,20161023,,,D*76
$PTUBA,39.17,,19,GPS,,8.00,F,F*2A
$GPRMC,135138,A,2922.439000,N,11947.997000,E,53.00,86.00,20161023,,,D*7D
$PTUBA,38.89,,19,GPS,,8.00,F,F*2C
$GPRMC,135139,A,2922.439000,N,11948.011000,E,54.00,86.37,20161023,,,D*77
$PTUBA,38.74,,19,GPS,,8.00,F,F*2E
$GPRMC,135140,A,2922.440000,N,11948.025000,E,54.00,85.70,20161023,,,D*70
$PTUBA,38.63,,18,GPS,,8.00,F,F*29
$GPRMC,135141,A,2922.441000,N,11948.040000,E,54.00,85.37,20161023,,,D*70
$PTUBA,38.60,,18,GPS,,6.00,F,F*24
$GPRMC,135142,A,2922.442000,N,11948.055000,E,54.00,85.06,20161023,,,D*76
$PTUBA,38.70,,18,GPS,,6.00,F,F*25
$GPRMC,135143,A,2922.443000,N,11948.069000,E,54.00,85.59,20161023,,,D*73
$PTUBA,38.82,,19,GPS,,6.00,F,F*29
$GPRMC,135144,A,2922.444000,N,11948.084000,E,54.00,86.47,20161023,,,D*7C
$PTUBA,38.93,,19,GPS,,6.00,F,F*29
$GPRMC,135145,A,2922.446000,N,11948.099000,E,54.00,86.12,20161023,,,D*73
$PTUBA,39.12,,19,GPS,,6.00,F,F*21
$GPRMC,135146,A,2922.447000,N,11948.113000,E,54.00,85.75,20161023,,,D*70
$PTUBA,39.32,,19,GPS,,6.00,F,F*23
$GPRMC,135147,A,2922.448000,N,11948.128000,E,54.00,85.42,20161023,,,D*72
$PTUBA,39.47,,18,GPS,,6.00,F,F*20
$GPRMC,135148,A,2922.449000,N,11948.142000,E,54.00,86.02,20161023,,,D*77
$PTUBA,39.55,,17,GPS,,6.00,F,F*2C
$GPRMC,135149,A,2922.450000,N,11948.156000,E,54.00,86.90,20161023,,,D*70
$PTUBA,39.62,,17,GPS,,8.00,F,F*26
$GPRMC,135150,A,2922.451000,N,11948.170000,E,54.00,86.54,20161023,,,D*75
$PTUBA,39.62,,17,GPS,,8.00,F,F*26
$GPRMC,135151,A,2922.451000,N,11948.184000,E,54.00,87.19,20161023,,,D*77
$PTUBA,39.60,,18,GPS,,8.00,F,F*2B
$GPRMC,135152,A,2922.452000,N,11948.197000,E,54.00,87.56,20161023,,,D*7E
$PTUBA,39.51,,18,GPS,,8.00,F,F*29
$GPRMC,135153,A,2922.453000,N,11948.210000,E,51.00,88.36,20161023,,,D*7E
$PTUBA,39.40,,18,GPS,,6.00,F,F*27
$GPRMC,135154,A,2922.453000,N,11948.222000,E,51.00,89.64,20161023,,,D*7E
$PTUBA,39.31,,19,GPS,,6.00,F,F*20
$GPRMC,135155,A,2922.452000,N,11948.233000,E,48.00,91.25,20161023,,,D*7A
$PTUBA,39.24,,19,GPS,,6.00,F,F*24
$GPRMC,135156,A,2922.451000,N,11948.245000,E,48.00,93.01,20161023,,,D*7F
$PTUBA,39.02,,18,GPS,,6.00,F,F*21
$GPRMC,135157,A,2922.450000,N,11948.257000,E,46.00,94.99,20161023,,,D*74
$PTUBA,38.66,,18,GPS,,6.00,F,F*22
$GPRMC,135158,A,2922.448000,N,11948.269000,E,46.00,96.64,20161023,,,D*7F
$PTUBA,38.21,,18,GPS,,6.00,F,F*21
$GPRMC,135159,A,2922.447000,N,11948.282000,E,46.00,98.23,20161023,,,D*79
$PTUBA,37.90,,18,GPS,,6.00,F,F*24
$GPRMC,135200,A,2922.444000,N,11948.294000,E,46.00,99.58,20161023,,,D*7F
$PTUBA,37.79,,19,GPS,,6.00,F,F*22
$GPRMC,135201,A,2922.442000,N,11948.306000,E,46.00,100.25,20161023,,,D*49
$PTUBA,37.65,,19,GPS,,4.00,F,F*2D
$GPRMC,135202,A,2922.439000,N,11948.319000,E,46.00,100.64,20161023,,,D*4D
$PTUBA,37.60,,19,GPS,,4.00,F,F*28
$GPRMC,135203,A,2922.437000,N,11948.332000,E,46.00,99.74,20161023,,,D*7B
$PTUBA,37.53,,18,GPS,,8.00,F,F*25
$GPRMC,135204,A,2922.435000,N,11948.345000,E,49.00,98.90,20161023,,,D*7A
$PTUBA,37.45,,19,GPS,,6.00,F,F*2D
$GPRMC,135205,A,2922.432000,N,11948.357000,E,49.00,98.23,20161023,,,D*77
$PTUBA,37.47,,17,GPS,,6.00,F,F*21
$GPRMC,135206,A,2922.429000,N,11948.370000,E,51.00,97.12,20161023,,,D*7F
$PTUBA,37.59,,16,GPS,,6.00,F,F*2F
$GPRMC,135207,A,2922.428000,N,11948.383000,E,51.00,95.34,20161023,,,D*75
$PTUBA,37.79,,16,GPS,,6.00,F,F*2D
$GPRMC,135208,A,2922.427000,N,11948.397000,E,51.00,92.80,20161023,,,D*78
$PTUBA,38.03,,17,GPS,,8.00,F,F*20
$GPRMC,135209,A,2922.427000,N,11948.410000,E,51.00,90.20,20161023,,,D*79
$PTUBA,38.10,,17,GPS,,6.00,F,F*2C
$GPRMC,135210,A,2922.428000,N,11948.423000,E,51.00,87.42,20161023,,,D*7C
$PTUBA,38.20,,17,GPS,,6.00,F,F*2F
$GPRMC,135211,A,2922.429000,N,11948.437000,E,52.00,86.01,20161023,,,D*7C
$PTUBA,38.34,,16,GPS,,6.00,F,F*2B
$GPRMC,135212,A,2922.431000,N,11948.450000,E,52.00,84.61,20161023,,,D*73
$PTUBA,38.77,,16,GPS,,6.00,F,F*2C
$GPRMC,135213,A,2922.433000,N,11948.464000,E,53.00,83.17,20161023,,,D*70
$PTUBA,39.51,,17,GPS,,6.00,F,F*28
$GPRMC,135214,A,2922.434000,N,11948.478000,E,53.00,82.61,20161023,,,D*7D
$PTUBA,40.47,,17,GPS,,6.00,F,F*21
$GPRMC,135215,A,2922.437000,N,11948.492000,E,51.00,81.27,20161023,,,D*78
$PTUBA,41.56,,17,GPS,,6.00,F,F*20
$GPRMC,135216,A,2922.440000,N,11948.504000,E,51.00,80.88,20161023,,,D*71
$PTUBA,42.53,,18,GPS,,6.00,F,F*29
$GPRMC,135217,A,2922.443000,N,11948.517000,E,50.00,80.23,20161023,,,D*71
$PTUBA,43.31,,17,GPS,,6.00,F,F*23
$GPRMC,135218,A,2922.446000,N,11948.531000,E,50.00,80.96,20161023,,,D*71
$PTUBA,43.87,,17,GPS,,6.00,F,F*2E
$GPRMC,135219,A,2922.448000,N,11948.544000,E,51.00,81.31,20161023,,,D*71
$PTUBA,44.32,,18,GPS,,6.00,F,F*28
$GPRMC,135220,A,2922.451000,N,11948.558000,E,51.00,82.04,20161023,,,D*7B
$PTUBA,44.68,,18,GPS,,6.00,F,F*27
$GPRMC,135221,A,2922.452000,N,11948.571000,E,51.00,83.18,20161023,,,D*7E
$PTUBA,45.13,,18,GPS,,6.00,F,F*2A
$GPRMC,135222,A,2922.454000,N,11948.584000,E,50.00,85.51,20161023,,,D*7B
$PTUBA,45.64,,16,GPS,,6.00,F,F*24
$GPRMC,135223,A,2922.454000,N,11948.598000,E,50.00,87.49,20161023,,,D*7C
$PTUBA,46.20,,16,GPS,,6.00,F,F*27
$GPRMC,135224,A,2922.455000,N,11948.611000,E,51.00,88.40,20161023,,,D*7F
$PTUBA,46.66,,18,GPS,,12.00,F,F*1E
$GPRMC,135225,A,2922.455000,N,11948.626000,E,51.00,89.10,20161023,,,D*7E
$PTUBA,47.10,,17,GPS,,8.00,F,F*2A
$GPRMC,135226,A,2922.455000,N,11948.639000,E,51.00,90.64,20161023,,,D*78
$PTUBA,47.19,,18,GPS,,12.00,F,F*17
$GPRMC,135227,A,2922.454000,N,11948.653000,E,51.00,92.77,20161023,,,D*74
$PTUBA,46.66,,18,GPS,,8.00,F,F*25
$GPRMC,135228,A,2922.453000,N,11948.667000,E,51.00,95.61,20161023,,,D*7B
$PTUBA,45.98,,16,GPS,,8.00,F,F*29
$GPRMC,135229,A,2922.451000,N,11948.681000,E,51.00,97.00,20161023,,,D*75
$PTUBA,45.12,,17,GPS,,8.00,F,F*2A
$GPRMC,135230,A,2922.448000,N,11948.695000,E,51.00,98.25,20161023,,,D*78
$PTUBA,44.27,,17,GPS,,6.00,F,F*23
$GPRMC,135231,A,2922.446000,N,11948.708000,E,51.00,99.01,20161023,,,D*75
$PTUBA,43.67,,18,GPS,,6.00,F,F*2F
$GPRMC,135232,A,2922.442000,N,11948.721000,E,51.00,99.49,20161023,,,D*75
$PTUBA,43.40,,18,GPS,,6.00,F,F*2A
$GPRMC,135233,A,2922.439000,N,11948.734000,E,51.00,100.62,20161023,,,D*44
$PTUBA,43.35,,17,GPS,,6.00,F,F*27
$GPRMC,135234,A,2922.436000,N,11948.747000,E,51.00,101.87,20161023,,,D*42
$PTUBA,43.51,,17,GPS,,6.00,F,F*25
$GPRMC,135235,A,2922.433000,N,11948.760000,E,52.00,103.53,20161023,,,D*4B
$PTUBA,43.80,,18,GPS,,6.00,F,F*26
$GPRMC,135236,A,2922.429000,N,11948.771000,E,52.00,105.68,20161023,,,D*4D
$PTUBA,44.07,,19,GPS,,6.00,F,F*2F
$GPRMC,135237,A,2922.424000,N,11948.784000,E,51.00,108.28,20161023,,,D*41
$PTUBA,44.31,,19,GPS,,6.00,F,F*2A
$GPRMC,135238,A,2922.420000,N,11948.796000,E,51.00,110.49,20161023,,,D*47
$PTUBA,44.49,,19,GPS,,4.00,F,F*27
$GPRMC,135239,A,2922.414000,N,11948.808000,E,50.00,113.14,20161023,,,D*43
$PTUBA,44.66,,18,GPS,,4.00,F,F*2B
$GPRMC,135240,A,2922.409000,N,11948.820000,E,50.00,115.70,20161023,,,D*4F
$PTUBA,45.02,,18,GPS,,4.00,F,F*28
$GPRMC,135241,A,2922.402000,N,11948.831000,E,50.00,118.52,20161023,,,D*48
$PTUBA,45.49,,18,GPS,,8.00,F,F*2B
$GPRMC,135242,A,2922.396000,N,11948.842000,E,50.00,121.31,20161023,,,D*4A
$PTUBA,46.10,,18,GPS,,8.00,F,F*24
$GPRMC,135243,A,2922.388000,N,11948.852000,E,50.00,124.52,20161023,,,D*45
$PTUBA,46.55,,17,GPS,,8.00,F,F*2A
$GPRMC,135244,A,2922.381000,N,11948.862000,E,51.00,126.56,20161023,,,D*4F
$PTUBA,46.75,,17,GPS,,16.00,F,F*17
$GPRMC,135245,A,2922.373000,N,11948.872000,E,51.00,127.75,20161023,,,D*42
$PTUBA,46.83,,17,GPS,,16.00,F,F*1E
$GPRMC,135246,A,2922.365000,N,11948.882000,E,51.00,128.87,20161023,,,D*4B
$PTUBA,46.89,,18,GPS,,16.00,F,F*1B
$GPRMC,135247,A,2922.357000,N,11948.893000,E,51.00,129.64,20161023,,,D*47
$PTUBA,47.04,,17,GPS,,16.00,F,F*10
$GPRMC,135248,A,2922.349000,N,11948.903000,E,51.00,130.07,20161023,,,D*42
$PTUBA,47.33,,18,GPS,,12.00,F,F*1F
$GPRMC,135249,A,2922.341000,N,11948.912000,E,51.00,130.57,20161023,,,D*4E
$PTUBA,47.48,,18,GPS,,8.00,F,F*28
$GPRMC,135250,A,2922.333000,N,11948.922000,E,48.00,131.25,20161023,,,D*4C
$PTUBA,47.85,,18,GPS,,6.00,F,F*27
$GPRMC,135251,A,2922.326000,N,11948.931000,E,48.00,131.92,20161023,,,D*47
$PTUBA,48.40,,18,GPS,,6.00,F,F*21
$GPRMC,135252,A,2922.320000,N,11948.938000,E,48.00,132.30,20161023,,,D*40
$PTUBA,49.04,,18,GPS,,6.00,F,F*20
$GPRMC,135253,A,2922.314000,N,11948.944000,E,44.00,132.06,20161023,,,D*44
$PTUBA,49.69,,18,GPS,,6.00,F,F*2B
$GPRMC,135254,A,2922.310000,N,11948.949000,E,44.00,131.09,20161023,,,D*46
$PTUBA,50.16,,18,GPS,,6.00,F,F*2B
$GPRMC,135255,A,2922.306000,N,11948.954000,E,28.00,130.70,20161023,,,D*49
$PTUBA,50.55,,18,GPS,,6.00,F,F*2C
$GPRMC,135256,A,2922.301000,N,11948.959000,E,28.00,128.12,20161023,,,D*4D
$PTUBA,50.95,,17,GPS,,6.00,F,F*2F
$GPRMC,135257,A,2922.297000,N,11948.966000,E,27.00,125.04,20161023,,,D*4B
$PTUBA,51.26,,17,GPS,,4.00,F,F*24
$GPRMC,135258,A,2922.293000,N,11948.974000,E,27.00,121.54,20161023,,,D*42
$PTUBA,51.37,,18,GPS,,4.00,F,F*2B
$GPRMC,135259,A,2922.290000,N,11948.983000,E,35.00,108.49,20161023,,,D*4C
$PTUBA,51.42,,18,GPS,,4.00,F,F*29
$GPRMC,135300,A,2922.287000,N,11948.992000,E,35.00,107.74,20161023,,,D*46
$PTUBA,51.45,,18,GPS,,4.00,F,F*2E
$GPRMC,135301,A,2922.285000,N,11949.002000,E,37.00,105.07,20161023,,,D*40
$PTUBA,51.42,,18,GPS,,6.00,F,F*2B
$GPRMC,135302,A,2922.283000,N,11949.012000,E,37.00,101.36,20161023,,,D*42
$PTUBA,51.27,,17,GPS,,6.00,F,F*27
$GPRMC,135303,A,2922.281000,N,11949.022000,E,37.00,98.60,20161023,,,D*70
$PTUBA,51.19,,17,GPS,,6.00,F,F*2A
$GPRMC,135304,A,2922.281000,N,11949.033000,E,37.00,96.97,20161023,,,D*71
$PTUBA,51.33,,16,GPS,,6.00,F,F*23
$GPRMC,135305,A,2922.280000,N,11949.042000,E,37.00,97.31,20161023,,,D*7A
$PTUBA,51.46,,16,GPS,,4.00,F,F*23
$GPRMC,135306,A,2922.279000,N,11949.052000,E,38.00,96.85,20161023,,,D*7F
$PTUBA,51.46,,16,GPS,,6.00,F,F*21
$GPRMC,135307,A,2922.278000,N,11949.063000,E,38.00,96.22,20161023,,,D*70
$PTUBA,51.48,,17,GPS,,8.00,F,F*20
$GPRMC,135308,A,2922.277000,N,11949.074000,E,39.00,96.73,20161023,,,D*73
$PTUBA,51.54,,17,GPS,,8.00,F,F*2D
$GPRMC,135309,A,2922.276000,N,11949.086000,E,39.00,95.99,20161023,,,D*79
$PTUBA,51.65,,18,GPS,,8.00,F,F*20
$GPRMC,135310,A,2922.276000,N,11949.098000,E,42.00,94.91,20161023,,,D*7B
$PTUBA,51.86,,18,GPS,,8.00,F,F*2D
$GPRMC,135311,A,2922.275000,N,11949.110000,E,42.00,94.39,20161023,,,D*7A
$PTUBA,52.18,,19,GPS,,16.00,F,F*17
$GPRMC,135312,A,2922.274000,N,11949.122000,E,46.00,94.01,20161023,,,D*76
$PTUBA,52.57,,18,GPS,,16.00,F,F*1D
$GPRMC,135313,A,2922.273000,N,11949.134000,E,46.00,94.71,20161023,,,D*70
$PTUBA,52.99,,18,GPS,,16.00,F,F*1F
$GPRMC,135314,A,2922.273000,N,11949.144000,E,46.00,94.09,20161023,,,D*7F
$PTUBA,53.11,,18,GPS,,6.00,F,F*2F
$GPRMC,135315,A,2922.272000,N,11949.155000,E,43.00,93.27,20161023,,,D*71
$PTUBA,53.03,,17,GPS,,6.00,F,F*23
$GPRMC,135316,A,2922.272000,N,11949.167000,E,43.00,94.00,20161023,,,D*71
$PTUBA,52.67,,17,GPS,,6.00,F,F*20
$GPRMC,135317,A,2922.270000,N,11949.178000,E,43.00,96.83,20161023,,,D*75
$PTUBA,52.39,,18,GPS,,6.00,F,F*24
$GPRMC,135318,A,2922.269000,N,11949.191000,E,43.00,98.13,20161023,,,D*72
$PTUBA,52.38,,18,GPS,,6.00,F,F*25
$GPRMC,135319,A,2922.267000,N,11949.203000,E,44.00,99.11,20161023,,,D*71
$PTUBA,52.40,,17,GPS,,6.00,F,F*25
$GPRMC,135320,A,2922.265000,N,11949.215000,E,44.00,98.46,20161023,,,D*7D
$PTUBA,52.42,,17,GPS,,6.00,F,F*27
$GPRMC,135321,A,2922.264000,N,11949.227000,E,46.00,98.91,20161023,,,D*74
$PTUBA,52.62,,18,GPS,,6.00,F,F*2A
$GPRMC,135322,A,2922.262000,N,11949.239000,E,46.00,98.06,20161023,,,D*70
$PTUBA,52.77,,19,GPS,,6.00,F,F*2F
$GPRMC,135323,A,2922.261000,N,11949.251000,E,47.00,97.42,20161023,,,D*72
$PTUBA,53.00,,19,GPS,,6.00,F,F*2E
$GPRMC,135324,A,2922.259000,N,11949.264000,E,47.00,97.02,20161023,,,D*7C
$PTUBA,53.36,,19,GPS,,6.00,F,F*2B
$GPRMC,135325,A,2922.258000,N,11949.277000,E,47.00,96.55,20161023,,,D*7D
$PTUBA,53.87,,18,GPS,,6.00,F,F*20
$GPRMC,135326,A,2922.257000,N,11949.289000,E,48.00,95.66,20161023,,,D*7C
$PTUBA,54.13,,18,GPS,,6.00,F,F*2A
$GPRMC,135327,A,2922.256000,N,11949.300000,E,48.00,95.70,20161023,,,D*7B
$PTUBA,54.16,,18,GPS,,6.00,F,F*2F
$GPRMC,135328,A,2922.255000,N,11949.312000,E,47.00,96.09,20161023,,,D*76
$PTUBA,53.99,,17,GPS,,6.00,F,F*20
$GPRMC,135329,A,2922.254000,N,11949.324000,E,47.00,96.61,20161023,,,D*7D
$PTUBA,53.81,,16,GPS,,6.00,F,F*28
$GPRMC,135330,A,2922.253000,N,11949.335000,E,43.00,95.69,20161023,,,D*7D
$PTUBA,53.63,,17,GPS,,8.00,F,F*2B
$GPRMC,135331,A,2922.252000,N,11949.345000,E,43.00,95.26,20161023,,,D*71
$PTUBA,53.32,,17,GPS,,8.00,F,F*2F
$GPRMC,135332,A,2922.250000,N,11949.355000,E,39.00,94.76,20161023,,,D*78
$PTUBA,52.90,,17,GPS,,8.00,F,F*26
$GPRMC,135333,A,2922.249000,N,11949.364000,E,39.00,96.10,20161023,,,D*71
$PTUBA,52.55,,17,GPS,,6.00,F,F*21
$GPRMC,135334,A,2922.247000,N,11949.372000,E,39.00,109.98,20161023,,,D*48
$PTUBA,52.29,,17,GPS,,6.00,F,F*2A
$GPRMC,135335,A,2922.245000,N,11949.379000,E,34.00,113.46,20161023,,,D*45
$PTUBA,51.95,,18,GPS,,6.00,F,F*21
$GPRMC,135336,A,2922.240000,N,11949.385000,E,34.00,138.28,20161023,,,D*41
$PTUBA,51.74,,18,GPS,,6.00,F,F*2E
$GPRMC,135337,A,2922.233000,N,11949.388000,E,29.00,165.09,20161023,,,D*4E
$PTUBA,51.44,,18,GPS,,4.00,F,F*2F
$GPRMC,135338,A,2922.227000,N,11949.387000,E,29.00,189.10,20161023,,,D*41
$PTUBA,51.36,,18,GPS,,4.00,F,F*2A
$GPRMC,135339,A,2922.219000,N,11949.387000,E,30.00,188.93,20161023,,,D*4F
$PTUBA,51.35,,19,GPS,,4.00,F,F*28
$GPRMC,135340,A,2922.210000,N,11949.386000,E,30.00,186.40,20161023,,,D*49
$PTUBA,51.33,,19,GPS,,8.00,F,F*22
$GPRMC,135341,A,2922.201000,N,11949.385000,E,37.00,185.08,20161023,,,D*43
$PTUBA,51.93,,19,GPS,,6.00,F,F*26
$GPRMC,135342,A,2922.191000,N,11949.383000,E,37.00,185.78,20161023,,,D*4B
$PTUBA,52.86,,18,GPS,,6.00,F,F*20
$GPRMC,135343,A,2922.181000,N,11949.382000,E,41.00,186.98,20161023,,,D*46
$PTUBA,53.96,,17,GPS,,6.00,F,F*2F
$GPRMC,135344,A,2922.171000,N,11949.379000,E,41.00,188.77,20161023,,,D*45
$PTUBA,55.04,,17,GPS,,6.00,F,F*22
$GPRMC,135345,A,2922.161000,N,11949.377000,E,41.00,187.90,20161023,,,D*4D
$PTUBA,56.04,,17,GPS,,6.00,F,F*21
$GPRMC,135346,A,2922.150000,N,11949.375000,E,44.00,188.82,20161023,,,D*47
$PTUBA,57.00,,18,GPS,,6.00,F,F*2B
$GPRMC,135347,A,2922.139000,N,11949.372000,E,44.00,190.35,20161023,,,D*4B
$PTUBA,57.74,,19,GPS,,6.00,F,F*29
$GPRMC,135348,A,2922.127000,N,11949.369000,E,48.00,190.88,20161023,,,D*4B
$PTUBA,58.25,,18,GPS,,6.00,F,F*23
$GPRMC,135349,A,2922.115000,N,11949.366000,E,48.00,190.15,20161023,,,D*40
$PTUBA,58.48,,18,GPS,,6.00,F,F*28
$GPRMC,135350,A,2922.103000,N,11949.364000,E,51.00,189.15,20161023,,,D*4D
$PTUBA,58.54,,18,GPS,,6.00,F,F*25
$GPRMC,135351,A,2922.091000,N,11949.362000,E,51.00,189.97,20161023,,,D*4A
$PTUBA,58.47,,18,GPS,,6.00,F,F*27
$GPRMC,135352,A,2922.078000,N,11949.359000,E,53.00,189.27,20161023,,,D*4F
$PTUBA,58.23,,18,GPS,,6.00,F,F*25
$GPRMC,135353,A,2922.066000,N,11949.357000,E,53.00,189.53,20161023,,,D*4C
$PTUBA,57.88,,18,GPS,,8.00,F,F*25
$GPRMC,135354,A,2922.053000,N,11949.354000,E,53.00,190.21,20161023,,,D*43
$PTUBA,57.45,,18,GPS,,6.00,F,F*2A
$GPRMC,135355,A,2922.041000,N,11949.352000,E,54.00,189.81,20161023,,,D*42
$PTUBA,57.09,,18,GPS,,6.00,F,F*22
$GPRMC,135356,A,2922.028000,N,11949.349000,E,54.00,189.60,20161023,,,D*4B
$PTUBA,56.82,,18,GPS,,6.00,F,F*20
$GPRMC,135357,A,2922.015000,N,11949.346000,E,54.00,190.24,20161023,,,D*43
$PTUBA,56.69,,18,GPS,,6.00,F,F*25
$GPRMC,135358,A,2922.003000,N,11949.344000,E,54.00,191.60,20161023,,,D*48
$PTUBA,56.84,,18,GPS,,6.00,F,F*26
$GPRMC,135359,A,2921.991000,N,11949.341000,E,54.00,191.00,20161023,,,D*4B
$PTUBA,57.05,,18,GPS,,6.00,F,F*2E
$GPRMC,135400,A,2921.979000,N,11949.338000,E,54.00,189.19,20161023,,,D*49
$PTUBA,57.20,,18,GPS,,6.00,F,F*29
$GPRMC,135401,A,2921.965000,N,11949.336000,E,54.00,188.32,20161023,,,D*43
$PTUBA,57.17,,18,GPS,,6.00,F,F*2D
$GPRMC,135402,A,2921.953000,N,11949.334000,E,54.00,187.47,20161023,,,D*4A
$PTUBA,57.36,,18,GPS,,6.00,F,F*2E
$GPRMC,135403,A,2921.939000,N,11949.332000,E,56.00,188.65,20161023,,,D*4C
$PTUBA,57.41,,18,GPS,,8.00,F,F*20
$GPRMC,135404,A,2921.927000,N,11949.330000,E,56.00,189.80,20161023,,,D*4C
$PTUBA,57.76,,18,GPS,,6.00,F,F*2A
$GPRMC,135405,A,2921.914000,N,11949.327000,E,56.00,189.40,20161023,,,D*47
$PTUBA,58.04,,19,GPS,,6.00,F,F*21
$GPRMC,135406,A,2921.901000,N,11949.325000,E,57.00,188.77,20161023,,,D*46
$PTUBA,58.21,,18,GPS,,6.00,F,F*27
$GPRMC,135407,A,2921.888000,N,11949.323000,E,57.00,188.45,20161023,,,D*40
$PTUBA,58.16,,18,GPS,,6.00,F,F*23
$GPRMC,135408,A,2921.877000,N,11949.321000,E,55.00,189.23,20161023,,,D*4E
$PTUBA,58.19,,18,GPS,,6.00,F,F*2C
$GPRMC,135409,A,2921.865000,N,11949.318000,E,55.00,189.89,20161023,,,D*46
$PTUBA,58.25,,19,GPS,,6.00,F,F*22
$GPRMC,135410,A,2921.854000,N,11949.316000,E,52.00,189.11,20161023,,,D*44
$PTUBA,58.35,,18,GPS,,6.00,F,F*22
$GPRMC,135411,A,2921.843000,N,11949.314000,E,52.00,188.55,20161023,,,D*40
$PTUBA,58.35,,18,GPS,,6.00,F,F*22
$GPRMC,135412,A,2921.832000,N,11949.312000,E,48.00,188.81,20161023,,,D*41
$PTUBA,58.40,,18,GPS,,6.00,F,F*20
$GPRMC,135413,A,2921.822000,N,11949.310000,E,48.00,189.43,20161023,,,D*4C
$PTUBA,58.37,,19,GPS,,6.00,F,F*21
$GPRMC,135414,A,2921.812000,N,11949.308000,E,48.00,190.13,20161023,,,D*4C
$PTUBA,58.36,,18,GPS,,6.00,F,F*21
$GPRMC,135415,A,2921.803000,N,11949.306000,E,44.00,191.12,20161023,,,D*4F
$PTUBA,58.34,,18,GPS,,6.00,F,F*23
$GPRMC,135416,A,2921.794000,N,11949.304000,E,44.00,190.47,20161023,,,D*4E
$PTUBA,58.42,,19,GPS,,6.00,F,F*23
$GPRMC,135417,A,2921.785000,N,11949.303000,E,41.00,189.18,20161023,,,D*4F
$PTUBA,58.55,,19,GPS,,6.00,F,F*25
$GPRMC,135418,A,2921.777000,N,11949.301000,E,41.00,188.97,20161023,,,D*49
$PTUBA,58.79,,19,GPS,,6.00,F,F*2B
$GPRMC,135419,A,2921.769000,N,11949.300000,E,38.00,188.35,20161023,,,D*40
$PTUBA,59.15,,19,GPS,,4.00,F,F*22
$GPRMC,135420,A,2921.762000,N,11949.299000,E,38.00,187.49,20161023,,,D*44
$PTUBA,59.32,,18,GPS,,4.00,F,F*26
$GPRMC,135421,A,2921.755000,N,11949.298000,E,34.00,186.10,20161023,,,D*41
$PTUBA,59.65,,18,GPS,,4.00,F,F*24
$GPRMC,135422,A,2921.750000,N,11949.299000,E,34.00,170.38,20161023,,,D*45
$PTUBA,60.06,,19,GPS,,4.00,F,F*2A
$GPRMC,135423,A,2921.745000,N,11949.301000,E,26.00,153.62,20161023,,,D*4D
$PTUBA,60.62,,19,GPS,,6.00,F,F*2A
$GPRMC,135424,A,2921.742000,N,11949.304000,E,26.00,137.97,20161023,,,D*40
$PTUBA,61.03,,19,GPS,,6.00,F,F*2C
$GPRMC,135425,A,2921.739000,N,11949.309000,E,26.00,114.11,20161023,,,D*4F
$PTUBA,61.17,,19,GPS,,6.00,F,F*29
$GPRMC,135426,A,2921.738000,N,11949.315000,E,20.00,100.65,20161023,,,D*40
$PTUBA,61.01,,19,GPS,,6.00,F,F*2E
$GPRMC,135427,A,2921.736000,N,11949.322000,E,20.00,98.11,20161023,,,D*78
$PTUBA,60.74,,19,GPS,,4.00,F,F*2F
$GPRMC,135428,A,2921.736000,N,11949.330000,E,24.00,94.27,20161023,,,D*79
$PTUBA,60.49,,19,GPS,,4.00,F,F*21
$GPRMC,135429,A,2921.736000,N,11949.339000,E,24.00,91.73,20161023,,,D*75
$PTUBA,60.26,,19,GPS,,4.00,F,F*28
$GPRMC,135430,A,2921.736000,N,11949.348000,E,33.00,89.79,20161023,,,D*7E
$PTUBA,60.11,,19,GPS,,4.00,F,F*2C
$GPRMC,135431,A,2921.736000,N,11949.358000,E,33.00,89.24,20161023,,,D*76
$PTUBA,60.00,,18,GPS,,4.00,F,F*2D
$GPRMC,135432,A,2921.737000,N,11949.367000,E,36.00,89.91,20161023,,,D*73
$PTUBA,59.78,,19,GPS,,4.00,F,F*29
$GPRMC,135433,A,2921.737000,N,11949.377000,E,36.00,90.76,20161023,,,D*72
$PTUBA,59.44,,19,GPS,,6.00,F,F*24
$GPRMC,135434,A,2921.738000,N,11949.387000,E,36.00,89.36,20161023,,,D*79
$PTUBA,59.03,,19,GPS,,6.00,F,F*27
$GPRMC,135435,A,2921.738000,N,11949.398000,E,36.00,89.89,20161023,,,D*72
$PTUBA,58.52,,19,GPS,,6.00,F,F*22
$GPRMC,135436,A,2921.738000,N,11949.409000,E,36.00,90.33,20161023,,,D*77
$PTUBA,58.07,,18,GPS,,6.00,F,F*23
$GPRMC,135437,A,2921.738000,N,11949.420000,E,39.00,91.90,20161023,,,D*7A
$PTUBA,57.82,,18,GPS,,8.00,F,F*2F
$GPRMC,135438,A,2921.737000,N,11949.432000,E,39.00,93.37,20161023,,,D*76
$PTUBA,57.87,,18,GPS,,6.00,F,F*24
$GPRMC,135439,A,2921.736000,N,11949.443000,E,42.00,94.34,20161023,,,D*78
$PTUBA,58.35,,19,GPS,,6.00,F,F*23
$GPRMC,135440,A,2921.735000,N,11949.455000,E,42.00,95.02,20161023,,,D*76
$PTUBA,59.06,,19,GPS,,6.00,F,F*22
$GPRMC,135441,A,2921.734000,N,11949.466000,E,44.00,96.80,20161023,,,D*79
$PTUBA,59.63,,18,GPS,,12.00,F,F*15
$GPRMC,135442,A,2921.733000,N,11949.477000,E,44.00,96.01,20161023,,,D*74
$PTUBA,60.14,,19,GPS,,6.00,F,F*2B
$GPRMC,135443,A,2921.731000,N,11949.489000,E,42.00,95.71,20161023,,,D*74
$PTUBA,60.63,,19,GPS,,6.00,F,F*2B
$GPRMC,135444,A,2921.730000,N,11949.501000,E,42.00,95.22,20161023,,,D*75
$PTUBA,60.75,,19,GPS,,6.00,F,F*2C
$GPRMC,135445,A,2921.729000,N,11949.513000,E,42.00,94.36,20161023,,,D*7B
$PTUBA,60.57,,18,GPS,,6.00,F,F*2D
$GPRMC,135446,A,2921.728000,N,11949.525000,E,44.00,93.86,20161023,,,D*76
$PTUBA,60.10,,17,GPS,,8.00,F,F*2F
$GPRMC,135447,A,2921.728000,N,11949.536000,E,44.00,93.89,20161023,,,D*7A
$PTUBA,59.60,,18,GPS,,6.00,F,F*23
$GPRMC,135448,A,2921.727000,N,11949.548000,E,46.00,94.41,20161023,,,D*72
$PTUBA,59.13,,18,GPS,,6.00,F,F*27
$GPRMC,135449,A,2921.725000,N,11949.559000,E,46.00,95.33,20161023,,,D*75
$PTUBA,58.69,,18,GPS,,6.00,F,F*2B
$GPRMC,135450,A,2921.724000,N,11949.571000,E,47.00,96.91,20161023,,,D*7C
$PTUBA,58.33,,18,GPS,,12.00,F,F*11
$GPRMC,135451,A,2921.722000,N,11949.584000,E,47.00,98.44,20161023,,,D*77
$PTUBA,58.08,,19,GPS,,8.00,F,F*23
$GPRMC,135452,A,2921.720000,N,11949.596000,E,48.00,100.58,20161023,,,D*47
$PTUBA,57.99,,19,GPS,,8.00,F,F*24
$GPRMC,135453,A,2921.718000,N,11949.608000,E,48.00,101.15,20161023,,,D*41
$PTUBA,57.97,,19,GPS,,16.00,F,F*15
$GPRMC,135454,A,2921.716000,N,11949.619000,E,48.00,100.21,20161023,,,D*4E
$PTUBA,58.11,,19,GPS,,16.00,F,F*14
$GPRMC,135455,A,2921.715000,N,11949.631000,E,44.00,98.90,20161023,,,D*70
$PTUBA,58.53,,17,GPS,,8.00,F,F*23
$GPRMC,135456,A,2921.713000,N,11949.643000,E,44.00,96.90,20161023,,,D*7E
$PTUBA,59.03,,18,GPS,,8.00,F,F*28
$GPRMC,135457,A,2921.713000,N,11949.655000,E,44.00,94.19,20161023,,,D*7B
$PTUBA,59.59,,18,GPS,,6.00,F,F*29
$GPRMC,135458,A,2921.713000,N,11949.668000,E,44.00,90.66,20161023,,,D*76
$PTUBA,60.23,,19,GPS,,6.00,F,F*2F
$GPRMC,135459,A,2921.715000,N,11949.679000,E,46.00,76.70,20161023,,,D*7C
$PTUBA,61.07,,18,GPS,,6.00,F,F*29
$GPRMC,135500,A,2921.718000,N,11949.691000,E,46.00,75.37,20161023,,,D*7A
$PTUBA,61.90,,18,GPS,,6.00,F,F*27
$GPRMC,135501,A,2921.721000,N,11949.703000,E,47.00,74.87,20161023,,,D*70
$PTUBA,62.75,,18,GPS,,8.00,F,F*21
$GPRMC,135502,A,2921.723000,N,11949.715000,E,47.00,75.77,20161023,,,D*78
$PTUBA,63.59,,18,GPS,,16.00,F,F*11
$GPRMC,135503,A,2921.726000,N,11949.727000,E,47.00,75.12,20161023,,,D*7E
$PTUBA,64.34,,18,GPS,,6.00,F,F*2C
$GPRMC,135504,A,2921.729000,N,11949.739000,E,47.00,74.73,20161023,,,D*7F
$PTUBA,64.96,,17,GPS,,6.00,F,F*2B
$GPRMC,135505,A,2921.731000,N,11949.752000,E,47.00,74.61,20161023,,,D*79
$PTUBA,65.65,,17,GPS,,6.00,F,F*26
$GPRMC,135506,A,2921.734000,N,11949.764000,E,48.00,74.47,20161023,,,D*71
$PTUBA,66.13,,17,GPS,,16.00,F,F*15
$GPRMC,135507,A,2921.737000,N,11949.776000,E,48.00,75.16,20161023,,,D*75
$PTUBA,66.43,,18,GPS,,8.00,F,F*20
$GPRMC,135508,A,2921.740000,N,11949.787000,E,47.00,76.04,20161023,,,D*7B
$PTUBA,66.60,,18,GPS,,8.00,F,F*21
$GPRMC,135509,A,2921.742000,N,11949.799000,E,47.00,77.17,20161023,,,D*74
$PTUBA,67.08,,18,GPS,,8.00,F,F*2E
$GPRMC,135510,A,2921.744000,N,11949.811000,E,47.00,78.60,20161023,,,D*7A
$PTUBA,67.45,,18,GPS,,8.00,F,F*27
$GPRMC,135511,A,2921.746000,N,11949.824000,E,47.00,79.90,20161023,,,D*71
$PTUBA,68.13,,18,GPS,,8.00,F,F*2B
$GPRMC,135512,A,2921.747000,N,11949.837000,E,46.00,81.30,20161023,,,D*7D
$PTUBA,68.81,,18,GPS,,8.00,F,F*20
$GPRMC,135513,A,2921.749000,N,11949.851000,E,46.00,82.05,20161023,,,D*77
$PTUBA,69.60,,18,GPS,,8.00,F,F*2E
$GPRMC,135514,A,2921.750000,N,11949.865000,E,50.00,82.91,20161023,,,D*75
$PTUBA,70.68,,18,GPS,,8.00,F,F*2E
$GPRMC,135515,A,2921.751000,N,11949.878000,E,50.00,83.96,20161023,,,D*7F
$PTUBA,71.86,,18,GPS,,6.00,F,F*21
$GPRMC,135516,A,2921.751000,N,11949.891000,E,50.00,86.41,20161023,,,D*74
$PTUBA,72.93,,18,GPS,,6.00,F,F*26
$GPRMC,135517,A,2921.750000,N,11949.903000,E,49.00,89.79,20161023,,,D*72
$PTUBA,74.30,,16,GPS,,6.00,F,F*27
$GPRMC,135518,A,2921.746000,N,11949.914000,E,49.00,104.71,20161023,,,D*40
$PTUBA,75.67,,17,GPS,,6.00,F,F*25
$GPRMC,135519,A,2921.743000,N,11949.927000,E,47.00,106.45,20161023,,,D*4F
$PTUBA,76.65,,17,GPS,,6.00,F,F*24
$GPRMC,135520,A,2921.739000,N,11949.939000,E,47.00,108.40,20161023,,,D*4C
$PTUBA,77.28,,16,GPS,,6.00,F,F*2D
$GPRMC,135521,A,2921.734000,N,11949.949000,E,46.00,112.11,20161023,,,D*49
$PTUBA,77.70,,16,GPS,,6.00,F,F*20
$GPRMC,135522,A,2921.730000,N,11949.959000,E,46.00,114.36,20161023,,,D*4C
$PTUBA,78.19,,16,GPS,,6.00,F,F*20
$GPRMC,135523,A,2921.725000,N,11949.969000,E,42.00,115.79,20161023,,,D*44
$PTUBA,78.63,,17,GPS,,6.00,F,F*2C
$GPRMC,135524,A,2921.720000,N,11949.978000,E,42.00,116.18,20161023,,,D*42
$PTUBA,78.90,,17,GPS,,6.00,F,F*20
$GPRMC,135525,A,2921.715000,N,11949.988000,E,42.00,115.83,20161023,,,D*4B
$PTUBA,79.02,,16,GPS,,6.00,F,F*2B
$GPRMC,135526,A,2921.711000,N,11949.999000,E,41.00,114.85,20161023,,,D*48
$PTUBA,79.08,,16,GPS,,6.00,F,F*21
$GPRMC,135527,A,2921.706000,N,11950.010000,E,41.00,113.16,20161023,,,D*42
$PTUBA,79.12,,16,GPS,,4.00,F,F*28
$GPRMC,135528,A,2921.702000,N,11950.022000,E,47.00,110.62,20161023,,,D*4E
$PTUBA,79.14,,16,GPS,,4.00,F,F*2E
$GPRMC,135529,A,2921.699000,N,11950.034000,E,47.00,106.66,20161023,,,D*48
$PTUBA,79.12,,16,GPS,,4.00,F,F*28
$GPRMC,135530,A,2921.699000,N,11950.047000,E,47.00,88.81,20161023,,,D*7A
$PTUBA,79.07,,17,GPS,,4.00,F,F*2D
$GPRMC,135531,A,2921.700000,N,11950.061000,E,47.00,87.60,20161023,,,D*7E
$PTUBA,78.97,,17,GPS,,6.00,F,F*27
$GPRMC,135532,A,2921.701000,N,11950.072000,E,54.00,88.04,20161023,,,D*71
$PTUBA,79.00,,18,GPS,,6.00,F,F*27
$GPRMC,135533,A,2921.701000,N,11950.084000,E,54.00,89.00,20161023,,,D*7C
$PTUBA,79.03,,18,GPS,,6.00,F,F*24
$GPRMC,135534,A,2921.701000,N,11950.096000,E,54.00,89.67,20161023,,,D*79
$PTUBA,79.06,,18,GPS,,6.00,F,F*21
$GPRMC,135535,A,2921.701000,N,11950.107000,E,47.00,90.15,20161023,,,D*7E
$PTUBA,79.18,,18,GPS,,6.00,F,F*2E
$GPRMC,135536,A,2921.701000,N,11950.119000,E,47.00,91.01,20161023,,,D*76
$PTUBA,79.50,,18,GPS,,6.00,F,F*22
$GPRMC,135537,A,2921.701000,N,11950.130000,E,42.00,91.36,20161023,,,D*7D
$PTUBA,79.90,,17,GPS,,6.00,F,F*21
$GPRMC,135538,A,2921.700000,N,11950.140000,E,42.00,92.92,20161023,,,D*79
$PTUBA,80.34,,18,GPS,,6.00,F,F*26
$GPRMC,135539,A,2921.699000,N,11950.150000,E,42.00,94.84,20161023,,,D*79
$PTUBA,80.67,,17,GPS,,6.00,F,F*2F
$GPRMC,135540,A,2921.698000,N,11950.162000,E,42.00,96.57,20161023,,,D*7B
$PTUBA,80.87,,17,GPS,,6.00,F,F*21
$GPRMC,135541,A,2921.696000,N,11950.174000,E,41.00,97.41,20161023,,,D*76
$PTUBA,81.01,,17,GPS,,6.00,F,F*2E
$GPRMC,135542,A,2921.694000,N,11950.186000,E,41.00,98.34,20161023,,,D*77
$PTUBA,81.23,,16,GPS,,6.00,F,F*2F
$GPRMC,135543,A,2921.692000,N,11950.199000,E,46.00,99.53,20161023,,,D*79
$PTUBA,81.54,,17,GPS,,6.00,F,F*2E
$GPRMC,135544,A,2921.689000,N,11950.212000,E,46.00,100.93,20161023,,,D*49
$PTUBA,81.77,,16,GPS,,6.00,F,F*2E
$GPRMC,135545,A,2921.686000,N,11950.226000,E,46.00,102.58,20161023,,,D*45
$PTUBA,81.94,,17,GPS,,6.00,F,F*22
$GPRMC,135546,A,2921.682000,N,11950.240000,E,50.00,104.30,20161023,,,D*4D
$PTUBA,82.04,,17,GPS,,6.00,F,F*28
$GPRMC,135547,A,2921.678000,N,11950.254000,E,50.00,105.67,20161023,,,D*4F
$PTUBA,82.07,,17,GPS,,6.00,F,F*2B
$GPRMC,135548,A,2921.674000,N,11950.270000,E,55.00,107.33,20161023,,,D*4C
$PTUBA,82.05,,17,GPS,,6.00,F,F*29
$GPRMC,135549,A,2921.669000,N,11950.286000,E,55.00,108.17,20161023,,,D*41
$PTUBA,82.16,,16,GPS,,6.00,F,F*2A
$GPRMC,135550,A,2921.663000,N,11950.304000,E,64.00,108.66,20161023,,,D*4C
$PTUBA,82.24,,16,GPS,,6.00,F,F*2B
$GPRMC,135551,A,2921.658000,N,11950.323000,E,64.00,108.99,20161023,,,D*40
$PTUBA,82.32,,16,GPS,,6.00,F,F*2C
$GPRMC,135552,A,2921.652000,N,11950.340000,E,75.00,110.84,20161023,,,D*49
$PTUBA,82.42,,17,GPS,,6.00,F,F*2A
$GPRMC,135553,A,2921.645000,N,11950.357000,E,75.00,111.69,20161023,,,D*4A
$PTUBA,82.52,,17,GPS,,6.00,F,F*2B
$GPRMC,135554,A,2921.639000,N,11950.375000,E,75.00,112.47,20161023,,,D*49
$PTUBA,82.63,,17,GPS,,4.00,F,F*2B
$GPRMC,135555,A,2921.633000,N,11950.391000,E,72.00,113.48,20161023,,,D*41
$PTUBA,82.84,,17,GPS,,4.00,F,F*22
$GPRMC,135556,A,2921.625000,N,11950.407000,E,72.00,118.11,20161023,,,D*4A
$PTUBA,83.03,,17,GPS,,4.00,F,F*2C
$GPRMC,135557,A,2921.617000,N,11950.423000,E,68.00,122.28,20161023,,,D*44
$PTUBA,83.21,,17,GPS,,4.00,F,F*2C
$GPRMC,135558,A,2921.608000,N,11950.437000,E,68.00,126.43,20161023,,,D*49
$PTUBA,83.30,,17,GPS,,4.00,F,F*2C
$GPRMC,135559,A,2921.598000,N,11950.451000,E,66.00,129.11,20161023,,,D*44
$PTUBA,83.45,,16,GPS,,8.00,F,F*23
$GPRMC,135600,A,2921.589000,N,11950.465000,E,66.00,130.27,20161023,,,D*41
$PTUBA,83.13,,17,GPS,,6.00,F,F*2F
$GPRMC,135601,A,2921.579000,N,11950.478000,E,65.00,131.70,20161023,,,D*43
$PTUBA,82.78,,17,GPS,,6.00,F,F*23
$GPRMC,135602,A,2921.570000,N,11950.490000,E,65.00,132.53,20161023,,,D*4D
$PTUBA,82.38,,17,GPS,,6.00,F,F*27
$GPRMC,135603,A,2921.561000,N,11950.502000,E,63.00,133.74,20161023,,,D*44
$PTUBA,81.87,,18,GPS,,6.00,F,F*2F
$GPRMC,135604,A,2921.550000,N,11950.513000,E,63.00,134.41,20161023,,,D*40
$PTUBA,81.61,,18,GPS,,6.00,F,F*27
$GPRMC,135605,A,2921.540000,N,11950.525000,E,63.00,134.75,20161023,,,D*42
$PTUBA,81.55,,18,GPS,,8.00,F,F*2E
$GPRMC,135606,A,2921.530000,N,11950.536000,E,61.00,135.33,20161023,,,D*45
$PTUBA,81.64,,18,GPS,,8.00,F,F*2C
$GPRMC,135607,A,2921.520000,N,11950.548000,E,61.00,134.37,20161023,,,D*49
$PTUBA,81.78,,17,GPS,,8.00,F,F*2E
$GPRMC,135608,A,2921.509000,N,11950.560000,E,61.00,134.12,20161023,,,D*40
$PTUBA,81.97,,17,GPS,,6.00,F,F*21
$GPRMC,135609,A,2921.498000,N,11950.572000,E,61.00,134.30,20161023,,,D*4B
$PTUBA,82.23,,17,GPS,,6.00,F,F*2D
$GPRMC,135610,A,2921.488000,N,11950.583000,E,63.00,133.48,20161023,,,D*46
$PTUBA,82.42,,17,GPS,,6.00,F,F*2A
$GPRMC,135611,A,2921.478000,N,11950.595000,E,63.00,133.59,20161023,,,D*4F
$PTUBA,82.78,,17,GPS,,6.00,F,F*23
$GPRMC,135612,A,2921.468000,N,11950.607000,E,64.00,133.78,20161023,,,D*41
$PTUBA,83.11,,17,GPS,,6.00,F,F*2D
$GPRMC,135613,A,2921.457000,N,11950.618000,E,64.00,134.27,20161023,,,D*4F
$PTUBA,83.38,,16,GPS,,6.00,F,F*27
$GPRMC,135614,A,2921.447000,N,11950.630000,E,63.00,135.25,20161023,,,D*47
$PTUBA,83.59,,17,GPS,,6.00,F,F*21
$GPRMC,135615,A,2921.436000,N,11950.641000,E,63.00,135.57,20161023,,,D*43
$PTUBA,83.58,,17,GPS,,6.00,F,F*20
$GPRMC,135616,A,2921.427000,N,11950.652000,E,63.00,134.57,20161023,,,D*43
$PTUBA,83.42,,17,GPS,,6.00,F,F*2B
$GPRMC,135617,A,2921.417000,N,11950.663000,E,60.00,133.02,20161023,,,D*47
$PTUBA,83.15,,17,GPS,,6.00,F,F*29
$GPRMC,135618,A,2921.408000,N,11950.676000,E,60.00,131.26,20161023,,,D*46
$PTUBA,82.74,,17,GPS,,6.00,F,F*2F
$GPRMC,135619,A,2921.399000,N,11950.688000,E,59.00,128.75,20161023,,,D*4D
$PTUBA,82.42,,17,GPS,,6.00,F,F*2A
$GPRMC,135620,A,2921.391000,N,11950.701000,E,59.00,125.46,20161023,,,D*42
$PTUBA,82.29,,17,GPS,,4.00,F,F*25
$GPRMC,135621,A,2921.384000,N,11950.715000,E,62.00,121.69,20161023,,,D*43
$PTUBA,82.35,,17,GPS,,4.00,F,F*28
$GPRMC,135622,A,2921.379000,N,11950.730000,E,62.00,109.04,20161023,,,D*44
$PTUBA,82.42,,17,GPS,,6.00,F,F*2A
$GPRMC,135623,A,2921.375000,N,11950.744000,E,59.00,108.35,20161023,,,D*41
$PTUBA,82.51,,17,GPS,,6.00,F,F*28
$GPRMC,135624,A,2921.372000,N,11950.758000,E,59.00,106.91,20161023,,,D*4C
$PTUBA,82.54,,17,GPS,,6.00,F,F*2D
$GPRMC,135625,A,2921.368000,N,11950.773000,E,59.00,105.03,20161023,,,D*47
$PTUBA,82.66,,17,GPS,,6.00,F,F*2C
$GPRMC,135626,A,2921.366000,N,11950.787000,E,54.00,102.81,20161023,,,D*41
$PTUBA,82.95,,17,GPS,,6.00,F,F*20
$GPRMC,135627,A,2921.363000,N,11950.801000,E,54.00,100.89,20161023,,,D*4E
$PTUBA,83.27,,17,GPS,,6.00,F,F*28
$GPRMC,135628,A,2921.361000,N,11950.816000,E,54.00,99.46,20161023,,,D*77
$PTUBA,83.67,,16,GPS,,6.00,F,F*2D
$GPRMC,135629,A,2921.360000,N,11950.829000,E,54.00,98.58,20161023,,,D*75
$PTUBA,83.90,,16,GPS,,6.00,F,F*25
$GPRMC,135630,A,2921.359000,N,11950.842000,E,54.00,98.35,20161023,,,D*71
$PTUBA,84.04,,17,GPS,,6.00,F,F*2E
$GPRMC,135631,A,2921.358000,N,11950.857000,E,54.00,98.94,20161023,,,D*7E
$PTUBA,84.08,,17,GPS,,6.00,F,F*22
$GPRMC,135632,A,2921.356000,N,11950.871000,E,54.00,101.20,20161023,,,D*49
$PTUBA,84.23,,17,GPS,,6.00,F,F*2B
$GPRMC,135633,A,2921.352000,N,11950.885000,E,54.00,104.84,20161023,,,D*4C
$PTUBA,84.43,,17,GPS,,6.00,F,F*2D
$GPRMC,135634,A,2921.348000,N,11950.900000,E,56.00,108.62,20161023,,,D*4A
$PTUBA,84.53,,18,GPS,,6.00,F,F*23
$GPRMC,135635,A,2921.342000,N,11950.914000,E,56.00,111.74,20161023,,,D*4B
$PTUBA,84.53,,17,GPS,,6.00,F,F*2C
$GPRMC,135636,A,2921.336000,N,11950.928000,E,56.00,114.45,20161023,,,D*43
$PTUBA,84.50,,18,GPS,,6.00,F,F*20
$GPRMC,135637,A,2921.329000,N,11950.943000,E,60.00,117.52,20161023,,,D*41
$PTUBA,84.45,,17,GPS,,6.00,F,F*2B
$GPRMC,135638,A,2921.321000,N,11950.957000,E,60.00,120.91,20161023,,,D*48
$PTUBA,84.59,,17,GPS,,6.00,F,F*26
$GPRMC,135639,A,2921.312000,N,11950.971000,E,63.00,124.08,20161023,,,D*4A
$PTUBA,84.84,,17,GPS,,6.00,F,F*26
$GPRMC,135640,A,2921.302000,N,11950.984000,E,63.00,126.97,20161023,,,D*4B
$PTUBA,85.19,,17,GPS,,6.00,F,F*23
$GPRMC,135641,A,2921.291000,N,11950.998000,E,66.00,128.97,20161023,,,D*47
$PTUBA,85.60,,16,GPS,,6.00,F,F*2C
$GPRMC,135642,A,2921.279000,N,11951.011000,E,66.00,131.50,20161023,,,D*48
$PTUBA,86.21,,16,GPS,,8.00,F,F*24
$GPRMC,135643,A,2921.267000,N,11951.025000,E,70.00,133.39,20161023,,,D*4B
$PTUBA,86.94,,15,GPS,,8.00,F,F*29
$GPRMC,135644,A,2921.255000,N,11951.038000,E,70.00,135.20,20161023,,,D*4F
$PTUBA,87.62,,15,GPS,,8.00,F,F*21
$GPRMC,135645,A,2921.243000,N,11951.050000,E,72.00,134.75,20161023,,,D*44
$PTUBA,87.93,,15,GPS,,8.00,F,F*2F
$GPRMC,135646,A,2921.232000,N,11951.063000,E,72.00,133.13,20161023,,,D*46
$PTUBA,88.22,,15,GPS,,8.00,F,F*2A
$GPRMC,135647,A,2921.221000,N,11951.076000,E,72.00,134.19,20161023,,,D*4C
$PTUBA,88.45,,16,GPS,,8.00,F,F*28
$GPRMC,135648,A,2921.209000,N,11951.089000,E,69.00,133.46,20161023,,,D*4E
$PTUBA,88.78,,15,GPS,,8.00,F,F*25
$GPRMC,135649,A,2921.197000,N,11951.101000,E,69.00,133.64,20161023,,,D*4A
$PTUBA,89.08,,16,GPS,,8.00,F,F*20
$GPRMC,135650,A,2921.186000,N,11951.113000,E,67.00,134.00,20161023,,,D*4A
$PTUBA,89.41,,15,GPS,,8.00,F,F*2E
$GPRMC,135651,A,2921.176000,N,11951.126000,E,67.00,133.06,20161023,,,D*43
$PTUBA,89.66,,17,GPS,,4.00,F,F*25
$GPRMC,135652,A,2921.165000,N,11951.138000,E,65.00,135.70,20161023,,,D*48
$PTUBA,89.61,,17,GPS,,12.00,F,F*15
$GPRMC,135653,A,2921.154000,N,11951.149000,E,65.00,136.92,20161023,,,D*42
$PTUBA,89.32,,17,GPS,,12.00,F,F*13
$GPRMC,135654,A,2921.142000,N,11951.161000,E,66.00,140.47,20161023,,,D*42
$PTUBA,89.03,,16,GPS,,6.00,F,F*25
$GPRMC,135655,A,2921.130000,N,11951.171000,E,66.00,145.24,20161023,,,D*47
$PTUBA,88.97,,16,GPS,,6.00,F,F*29
$GPRMC,135656,A,2921.116000,N,11951.180000,E,66.00,150.36,20161023,,,D*49
$PTUBA,89.08,,16,GPS,,6.00,F,F*2E
$GPRMC,135657,A,2921.102000,N,11951.188000,E,66.00,157.04,20161023,,,D*43
$PTUBA,89.17,,18,GPS,,6.00,F,F*2E
$GPRMC,135658,A,2921.088000,N,11951.194000,E,66.00,161.88,20161023,,,D*43
$PTUBA,89.13,,18,GPS,,6.00,F,F*2A
