$GPRMC,161127,A,2920.949000,N,11947.651000,E,11.00,12.49,20161023,,,D*79
$PTUBA,56.51,,15,GPS,,16.00,F,F*12
$GPRMC,161128,A,2920.952000,N,11947.653000,E,11.00,23.69,20161023,,,D*7E
$PTUBA,56.56,,15,GPS,,16.00,F,F*15
$GPRMC,161129,A,2920.953000,N,11947.655000,E,11.00,23.62,20161023,,,D*73
$PTUBA,56.58,,15,GPS,,16.00,F,F*1B
$GPRMC,161130,A,2920.955000,N,11947.656000,E,11.00,21.37,20161023,,,D*7C
$PTUBA,56.59,,15,GPS,,16.00,F,F*1A
$GPRMC,161131,A,2920.958000,N,11947.657000,E,10.00,13.16,20161023,,,D*72
$PTUBA,56.53,,15,GPS,,12.00,F,F*14
$GPRMC,161132,A,2920.961000,N,11947.659000,E,10.00,16.12,20161023,,,D*74
$PTUBA,56.46,,15,GPS,,16.00,F,F*14
$GPRMC,161133,A,2920.964000,N,11947.661000,E,10.00,18.00,20161023,,,D*76
$PTUBA,56.38,,15,GPS,,12.00,F,F*19
$GPRMC,161134,A,2920.967000,N,11947.662000,E,10.00,13.47,20161023,,,D*79
$PTUBA,56.32,,15,GPS,,16.00,F,F*17
$GPRMC,161135,A,2920.969000,N,11947.663000,E,11.00,14.37,20161023,,,D*76
$PTUBA,56.27,,15,GPS,,16.00,F,F*13
$GPRMC,161136,A,2920.970000,N,11947.664000,E,11.00,39.06,20161023,,,D*77
$PTUBA,56.25,,15,GPS,,32.00,F,F*17
$GPRMC,161137,A,2920.971000,N,11947.665000,E,10.00,38.11,20161023,,,D*70
$PTUBA,56.23,,15,GPS,,24.00,F,F*16
$GPRMC,161138,A,2920.973000,N,11947.666000,E,10.00,32.79,20161023,,,D*7A
$PTUBA,56.15,,15,GPS,,24.00,F,F*13
$GPRMC,161139,A,2920.975000,N,11947.666000,E,10.00,12.13,20161023,,,D*73
$PTUBA,56.05,,15,GPS,,24.00,F,F*12
$GPRMC,161140,A,2920.978000,N,11947.667000,E,10.00,7.65,20161023,,,D*44
$PTUBA,55.95,,15,GPS,,16.00,F,F*19
$GPRMC,161141,A,2920.981000,N,11947.667000,E,10.00,7.84,20161023,,,D*4C
$PTUBA,55.90,,15,GPS,,12.00,F,F*18
$GPRMC,161142,A,2920.983000,N,11947.668000,E,11.00,16.06,20161023,,,D*79
$PTUBA,55.86,,15,GPS,,12.00,F,F*1F
$GPRMC,161143,A,2920.985000,N,11947.669000,E,11.00,10.12,20161023,,,D*7C
$PTUBA,55.78,,15,GPS,,24.00,F,F*1B
$GPRMC,161144,A,2920.987000,N,11947.670000,E,10.00,10.35,20161023,,,D*75
$PTUBA,55.71,,13,GPS,,12.00,F,F*11
$GPRMC,161145,A,2920.990000,N,11947.670000,E,10.00,5.59,20161023,,,D*4C
$PTUBA,55.67,,13,GPS,,12.00,F,F*16
$GPRMC,161146,A,2920.991000,N,11947.671000,E,11.00,8.48,20161023,,,D*43
$PTUBA,55.68,,13,GPS,,16.00,F,F*1D
$GPRMC,161147,A,2920.994000,N,11947.672000,E,11.00,5.31,20161023,,,D*47
$PTUBA,55.72,,13,GPS,,16.00,F,F*16
$GPRMC,161148,A,2920.996000,N,11947.673000,E,11.00,8.49,20161023,,,D*49
$PTUBA,55.78,,13,GPS,,16.00,F,F*1C
$GPRMC,161149,A,2920.999000,N,11947.674000,E,11.00,1.41,20161023,,,D*41
$PTUBA,55.81,,13,GPS,,8.00,F,F*25
$GPRMC,161150,A,2921.002000,N,11947.675000,E,11.00,9.50,20161023,,,D*4A
$PTUBA,55.90,,14,GPS,,32.00,F,F*1B
$GPRMC,161151,A,2921.005000,N,11947.676000,E,11.00,12.26,20161023,,,D*74
$PTUBA,55.94,,14,GPS,,16.00,F,F*19
$GPRMC,161152,A,2921.008000,N,11947.676000,E,11.00,358.34,20161023,,,D*44
$PTUBA,55.99,,15,GPS,,16.00,F,F*15
$GPRMC,161153,A,2921.009000,N,11947.676000,E,11.00,357.24,20161023,,,D*4A
$PTUBA,55.97,,15,GPS,,16.00,F,F*1B
$GPRMC,161154,A,2921.011000,N,11947.677000,E,11.00,15.01,20161023,,,D*77
$PTUBA,55.94,,15,GPS,,16.00,F,F*18
$GPRMC,161155,A,2921.013000,N,11947.679000,E,10.00,40.69,20161023,,,D*75
$PTUBA,55.90,,15,GPS,,16.00,F,F*1C
$GPRMC,161156,A,2921.015000,N,11947.680000,E,10.00,24.94,20161023,,,D*76
$PTUBA,55.83,,16,GPS,,16.00,F,F*1D
$GPRMC,161157,A,2921.017000,N,11947.681000,E,10.00,37.67,20161023,,,D*7A
$PTUBA,55.82,,16,GPS,,16.00,F,F*1C
$GPRMC,161158,A,2921.019000,N,11947.682000,E,9.00,19.60,20161023,,,D*4B
$PTUBA,55.83,,16,GPS,,16.00,F,F*1D
$GPRMC,161159,A,2921.021000,N,11947.682000,E,9.00,355.22,20161023,,,D*7C
$PTUBA,55.87,,16,GPS,,16.00,F,F*19
$GPRMC,161200,A,2921.022000,N,11947.682000,E,7.00,6.16,20161023,,,D*7C
$PTUBA,55.88,,16,GPS,,12.00,F,F*12
$GPRMC,161201,A,2921.024000,N,11947.683000,E,7.00,22.97,20161023,,,D*45
$PTUBA,55.89,,16,GPS,,12.00,F,F*13
$GPRMC,161202,A,2921.025000,N,11947.684000,E,4.00,16.63,20161023,,,D*4F
$PTUBA,55.89,,16,GPS,,12.00,F,F*13
$GPRMC,161203,A,2921.025000,N,11947.683000,E,4.00,343.21,20161023,,,D*7C
$PTUBA,55.95,,16,GPS,,16.00,F,F*1A
$GPRMC,161204,A,2921.027000,N,11947.683000,E,3.00,343.01,20161023,,,D*7C
$PTUBA,56.06,,15,GPS,,16.00,F,F*10
$GPRMC,161206,A,2921.027000,N,11947.684000,E,3.00,16.33,20161023,,,D*4B
$PTUBA,56.31,,15,GPS,,16.00,F,F*14
$GPRMC,161207,A,2921.028000,N,11947.684000,E,3.00,1.06,20161023,,,D*75
$PTUBA,56.46,,15,GPS,,16.00,F,F*14
$GPRMC,161208,A,2921.030000,N,11947.684000,E,3.00,359.75,20161023,,,D*79
$PTUBA,56.57,,15,GPS,,16.00,F,F*14
$GPRMC,161209,A,2921.031000,N,11947.684000,E,3.00,10.31,20161023,,,D*47
$PTUBA,56.70,,16,GPS,,16.00,F,F*12
$GPRMC,161210,A,2921.032000,N,11947.685000,E,3.00,28.14,20161023,,,D*41
$PTUBA,56.87,,16,GPS,,16.00,F,F*1A
$GPRMC,161211,A,2921.034000,N,11947.685000,E,3.00,17.58,20161023,,,D*42
$PTUBA,57.05,,16,GPS,,16.00,F,F*11
$GPRMC,161212,A,2921.035000,N,11947.686000,E,3.00,359.82,20161023,,,D*7D
$PTUBA,57.26,,16,GPS,,16.00,F,F*10
$GPRMC,161213,A,2921.037000,N,11947.685000,E,3.00,358.31,20161023,,,D*74
$PTUBA,57.55,,16,GPS,,24.00,F,F*15
$GPRMC,161214,A,2921.039000,N,11947.685000,E,3.00,357.86,20161023,,,D*7E
$PTUBA,57.85,,16,GPS,,12.00,F,F*1D
$GPRMC,161216,A,2921.041000,N,11947.685000,E,5.00,3.02,20161023,,,D*7B
$PTUBA,58.61,,16,GPS,,16.00,F,F*1C
$GPRMC,161217,A,2921.042000,N,11947.686000,E,5.00,2.45,20161023,,,D*78
$PTUBA,58.98,,16,GPS,,16.00,F,F*1A
$GPRMC,161218,A,2921.043000,N,11947.686000,E,5.00,350.59,20161023,,,D*7F
$PTUBA,59.28,,16,GPS,,16.00,F,F*10
$GPRMC,161219,A,2921.044000,N,11947.686000,E,5.00,346.45,20161023,,,D*73
$PTUBA,59.53,,15,GPS,,16.00,F,F*1F
$GPRMC,161220,A,2921.046000,N,11947.685000,E,7.00,347.50,20161023,,,D*7F
$PTUBA,59.64,,16,GPS,,16.00,F,F*18
$GPRMC,161221,A,2921.048000,N,11947.686000,E,7.00,6.79,20161023,,,D*7E
$PTUBA,59.69,,16,GPS,,16.00,F,F*15
$GPRMC,161222,A,2921.049000,N,11947.686000,E,8.00,6.35,20161023,,,D*7B
$PTUBA,59.74,,16,GPS,,12.00,F,F*1D
$GPRMC,161223,A,2921.050000,N,11947.687000,E,8.00,7.92,20161023,,,D*7F
$PTUBA,59.73,,16,GPS,,24.00,F,F*1F
$GPRMC,161224,A,2921.051000,N,11947.687000,E,8.00,11.36,20161023,,,D*40
$PTUBA,59.73,,16,GPS,,12.00,F,F*1A
$GPRMC,161225,A,2921.052000,N,11947.687000,E,8.00,6.16,20161023,,,D*76
$PTUBA,59.79,,16,GPS,,12.00,F,F*10
$GPRMC,161226,A,2921.054000,N,11947.688000,E,8.00,6.93,20161023,,,D*71
$PTUBA,59.86,,16,GPS,,24.00,F,F*15
$GPRMC,161227,A,2921.056000,N,11947.688000,E,8.00,357.66,20161023,,,D*7F
$PTUBA,59.97,,16,GPS,,24.00,F,F*15
$GPRMC,161228,A,2921.057000,N,11947.689000,E,8.00,3.57,20161023,,,D*70
$PTUBA,60.09,,16,GPS,,16.00,F,F*19
$GPRMC,161230,A,2921.059000,N,11947.690000,E,7.00,19.18,20161023,,,D*40
$PTUBA,60.33,,16,GPS,,16.00,F,F*10
$GPRMC,161231,A,2921.061000,N,11947.692000,E,8.00,23.19,20161023,,,D*4F
$PTUBA,60.38,,16,GPS,,12.00,F,F*1F
$GPRMC,161232,A,2921.063000,N,11947.693000,E,8.00,21.16,20161023,,,D*42
$PTUBA,60.36,,16,GPS,,12.00,F,F*11
$GPRMC,161233,A,2921.066000,N,11947.695000,E,10.00,19.87,20161023,,,D*7A
$PTUBA,60.30,,16,GPS,,12.00,F,F*17
$GPRMC,161234,A,2921.068000,N,11947.696000,E,10.00,20.30,20161023,,,D*76
$PTUBA,60.23,,16,GPS,,12.00,F,F*15
$GPRMC,161235,A,2921.070000,N,11947.698000,E,10.00,21.00,20161023,,,D*72
$PTUBA,60.18,,16,GPS,,24.00,F,F*18
$GPRMC,161236,A,2921.072000,N,11947.699000,E,8.00,19.66,20161023,,,D*40
$PTUBA,60.13,,16,GPS,,8.00,F,F*2D
$GPRMC,161237,A,2921.073000,N,11947.700000,E,8.00,20.36,20161023,,,D*4E
$PTUBA,60.07,,16,GPS,,8.00,F,F*28
$GPRMC,161238,A,2921.074000,N,11947.702000,E,4.00,29.69,20161023,,,D*4B
$PTUBA,60.02,,16,GPS,,8.00,F,F*2D
$GPRMC,161239,A,2921.075000,N,11947.702000,E,4.00,23.24,20161023,,,D*48
$PTUBA,60.01,,16,GPS,,16.00,F,F*11
$GPRMC,161240,A,2921.075000,N,11947.703000,E,3.00,23.24,20161023,,,D*40
$PTUBA,59.97,,16,GPS,,12.00,F,F*10
$GPRMC,161251,A,2921.072000,N,11947.709000,E,2.00,23.24,20161023,,,D*4C
$PTUBA,60.07,,15,GPS,,24.00,F,F*15
$GPRMC,161252,A,2921.073000,N,11947.710000,E,2.00,34.69,20161023,,,D*49
$PTUBA,60.13,,15,GPS,,24.00,F,F*10
$GPRMC,161253,A,2921.074000,N,11947.710000,E,2.00,15.51,20161023,,,D*47
$PTUBA,60.23,,16,GPS,,24.00,F,F*10
$GPRMC,161254,A,2921.076000,N,11947.711000,E,7.00,19.36,20161023,,,D*4B
$PTUBA,60.35,,16,GPS,,16.00,F,F*16
$GPRMC,161255,A,2921.078000,N,11947.712000,E,7.00,21.27,20161023,,,D*4C
$PTUBA,60.44,,16,GPS,,12.00,F,F*14
$GPRMC,161256,A,2921.083000,N,11947.713000,E,11.00,15.43,20161023,,,D*78
$PTUBA,60.51,,16,GPS,,16.00,F,F*14
$GPRMC,161257,A,2921.085000,N,11947.713000,E,11.00,1.41,20161023,,,D*48
$PTUBA,60.54,,16,GPS,,24.00,F,F*10
$GPRMC,161258,A,2921.087000,N,11947.714000,E,11.00,12.72,20161023,,,D*70
$PTUBA,60.57,,16,GPS,,16.00,F,F*12
$GPRMC,161259,A,2921.090000,N,11947.714000,E,11.00,10.78,20161023,,,D*7F
$PTUBA,60.59,,16,GPS,,16.00,F,F*1C
$GPRMC,161300,A,2921.092000,N,11947.714000,E,10.00,12.23,20161023,,,D*7D
$PTUBA,60.61,,16,GPS,,16.00,F,F*17
$GPRMC,161301,A,2921.095000,N,11947.715000,E,10.00,8.29,20161023,,,D*4B
$PTUBA,60.66,,16,GPS,,16.00,F,F*10
$GPRMC,161302,A,2921.098000,N,11947.715000,E,10.00,11.34,20161023,,,D*71
$PTUBA,60.75,,16,GPS,,24.00,F,F*13
$GPRMC,161303,A,2921.101000,N,11947.716000,E,13.00,8.53,20161023,,,D*48
$PTUBA,60.82,,15,GPS,,24.00,F,F*18
$GPRMC,161304,A,2921.106000,N,11947.716000,E,13.00,6.62,20161023,,,D*44
$PTUBA,60.93,,15,GPS,,24.00,F,F*18
$GPRMC,161305,A,2921.109000,N,11947.716000,E,13.00,4.19,20161023,,,D*44
$PTUBA,61.01,,16,GPS,,16.00,F,F*10
$GPRMC,161306,A,2921.112000,N,11947.716000,E,13.00,10.87,20161023,,,D*7F
$PTUBA,61.13,,16,GPS,,16.00,F,F*13
$GPRMC,161307,A,2921.115000,N,11947.717000,E,13.00,14.63,20161023,,,D*76
$PTUBA,61.30,,16,GPS,,16.00,F,F*12
$GPRMC,161308,A,2921.119000,N,11947.717000,E,13.00,12.54,20161023,,,D*77
$PTUBA,61.42,,16,GPS,,24.00,F,F*16
$GPRMC,161309,A,2921.123000,N,11947.718000,E,13.00,8.45,20161023,,,D*4B
$PTUBA,61.51,,16,GPS,,24.00,F,F*14
$GPRMC,161310,A,2921.126000,N,11947.718000,E,13.00,7.94,20161023,,,D*45
$PTUBA,61.63,,15,GPS,,24.00,F,F*16
$GPRMC,161311,A,2921.130000,N,11947.719000,E,14.00,10.78,20161023,,,D*71
$PTUBA,61.74,,15,GPS,,16.00,F,F*11
$GPRMC,161312,A,2921.135000,N,11947.719000,E,14.00,8.24,20161023,,,D*47
$PTUBA,61.87,,16,GPS,,24.00,F,F*1F
$GPRMC,161313,A,2921.138000,N,11947.720000,E,14.00,6.72,20161023,,,D*4C
$PTUBA,62.02,,16,GPS,,12.00,F,F*14
$GPRMC,161314,A,2921.141000,N,11947.720000,E,14.00,7.08,20161023,,,D*49
$PTUBA,62.14,,16,GPS,,12.00,F,F*13
$GPRMC,161315,A,2921.144000,N,11947.720000,E,14.00,7.30,20161023,,,D*46
$PTUBA,62.23,,15,GPS,,12.00,F,F*14
$GPRMC,161316,A,2921.148000,N,11947.721000,E,8.00,5.60,20161023,,,D*72
$PTUBA,62.33,,16,GPS,,12.00,F,F*16
$GPRMC,161317,A,2921.150000,N,11947.721000,E,8.00,1.79,20161023,,,D*76
$PTUBA,62.44,,16,GPS,,24.00,F,F*13
$GPRMC,161318,A,2921.152000,N,11947.722000,E,8.00,31.42,20161023,,,D*43
$PTUBA,62.52,,16,GPS,,16.00,F,F*15
$GPRMC,161319,A,2921.154000,N,11947.723000,E,8.00,37.69,20161023,,,D*4A
$PTUBA,62.56,,16,GPS,,12.00,F,F*15
$GPRMC,161320,A,2921.156000,N,11947.725000,E,7.00,34.70,20161023,,,D*40
$PTUBA,62.52,,16,GPS,,12.00,F,F*11
$GPRMC,161321,A,2921.158000,N,11947.726000,E,7.00,23.19,20161023,,,D*45
$PTUBA,62.51,,16,GPS,,12.00,F,F*12
$GPRMC,161322,A,2921.159000,N,11947.727000,E,8.00,16.25,20161023,,,D*40
$PTUBA,62.45,,16,GPS,,16.00,F,F*13
$GPRMC,161323,A,2921.162000,N,11947.729000,E,8.00,14.87,20161023,,,D*4D
$PTUBA,62.40,,16,GPS,,8.00,F,F*29
$GPRMC,161324,A,2921.164000,N,11947.730000,E,8.00,14.25,20161023,,,D*4C
$PTUBA,62.36,,16,GPS,,8.00,F,F*28
$GPRMC,161325,A,2921.167000,N,11947.731000,E,12.00,13.98,20161023,,,D*75
$PTUBA,62.33,,16,GPS,,8.00,F,F*2D
$GPRMC,161326,A,2921.170000,N,11947.732000,E,12.00,6.88,20161023,,,D*46
$PTUBA,62.35,,16,GPS,,16.00,F,F*14
$GPRMC,161327,A,2921.174000,N,11947.732000,E,14.00,8.46,20161023,,,D*49
$PTUBA,62.38,,16,GPS,,16.00,F,F*19
$GPRMC,161328,A,2921.176000,N,11947.733000,E,14.00,15.04,20161023,,,D*7F
$PTUBA,62.39,,16,GPS,,16.00,F,F*18
$GPRMC,161329,A,2921.179000,N,11947.735000,E,20.00,15.04,20161023,,,D*70
$PTUBA,62.42,,16,GPS,,16.00,F,F*14
$GPRMC,161330,A,2921.182000,N,11947.735000,E,20.00,8.39,20161023,,,D*4E
$PTUBA,62.81,,16,GPS,,24.00,F,F*1A
$GPRMC,161331,A,2921.188000,N,11947.734000,E,23.00,2.68,20161023,,,D*49
$PTUBA,63.24,,16,GPS,,16.00,F,F*15
$GPRMC,161332,A,2921.196000,N,11947.735000,E,23.00,0.52,20161023,,,D*4F
$PTUBA,62.73,,15,GPS,,16.00,F,F*15
$GPRMC,161333,A,2921.205000,N,11947.735000,E,23.00,3.02,20161023,,,D*41
$PTUBA,62.20,,15,GPS,,16.00,F,F*13
$GPRMC,161334,A,2921.214000,N,11947.736000,E,35.00,3.98,20161023,,,D*41
$PTUBA,62.16,,16,GPS,,16.00,F,F*15
$GPRMC,161335,A,2921.223000,N,11947.737000,E,35.00,5.34,20161023,,,D*45
$PTUBA,62.47,,16,GPS,,16.00,F,F*11
$GPRMC,161336,A,2921.231000,N,11947.738000,E,36.00,6.24,20161023,,,D*4B
$PTUBA,62.66,,16,GPS,,16.00,F,F*12
$GPRMC,161337,A,2921.239000,N,11947.738000,E,36.00,8.64,20161023,,,D*48
$PTUBA,62.27,,15,GPS,,12.00,F,F*10
$GPRMC,161338,A,2921.246000,N,11947.739000,E,33.00,7.62,20161023,,,D*42
$PTUBA,61.59,,15,GPS,,12.00,F,F*1A
$GPRMC,161339,A,2921.253000,N,11947.739000,E,33.00,4.47,20161023,,,D*43
$PTUBA,60.10,,15,GPS,,12.00,F,F*16
$GPRMC,161340,A,2921.259000,N,11947.737000,E,24.00,340.56,20161023,,,D*4C
$PTUBA,57.73,,15,GPS,,12.00,F,F*17
$GPRMC,161341,A,2921.263000,N,11947.733000,E,24.00,325.04,20161023,,,D*44
$PTUBA,55.58,,15,GPS,,8.00,F,F*27
$GPRMC,161342,A,2921.267000,N,11947.730000,E,24.00,324.19,20161023,,,D*4D
$PTUBA,53.01,,15,GPS,,8.00,F,F*2D
$GPRMC,161343,A,2921.270000,N,11947.727000,E,21.00,322.66,20161023,,,D*47
$PTUBA,52.75,,15,GPS,,8.00,F,F*2F
$GPRMC,161344,A,2921.273000,N,11947.724000,E,21.00,321.38,20161023,,,D*48
$PTUBA,52.47,,15,GPS,,8.00,F,F*2E
$GPRMC,161345,A,2921.275000,N,11947.722000,E,17.00,319.51,20161023,,,D*48
$PTUBA,52.18,,15,GPS,,8.00,F,F*24
$GPRMC,161346,A,2921.277000,N,11947.719000,E,17.00,299.98,20161023,,,D*4D
$PTUBA,51.87,,15,GPS,,8.00,F,F*21
$GPRMC,161347,A,2921.279000,N,11947.715000,E,12.00,298.59,20161023,,,D*47
$PTUBA,51.57,,15,GPS,,8.00,F,F*2C
$GPRMC,161348,A,2921.279000,N,11947.711000,E,12.00,276.33,20161023,,,D*40
$PTUBA,48.83,,16,GPS,,8.00,F,F*2E
$GPRMC,161349,A,2921.279000,N,11947.706000,E,15.00,268.55,20161023,,,D*4F
$PTUBA,46.73,,16,GPS,,8.00,F,F*2F
$GPRMC,161350,A,2921.279000,N,11947.700000,E,15.00,270.62,20161023,,,D*4C
$PTUBA,45.20,,16,GPS,,8.00,F,F*2A
$GPRMC,161351,A,2921.280000,N,11947.693000,E,15.00,270.00,20161023,,,D*44
$PTUBA,44.41,,16,GPS,,8.00,F,F*2C
$GPRMC,161352,A,2921.281000,N,11947.684000,E,21.00,272.43,20161023,,,D*42
$PTUBA,43.97,,16,GPS,,8.00,F,F*20
$GPRMC,161353,A,2921.282000,N,11947.675000,E,21.00,274.14,20161023,,,D*4A
$PTUBA,43.89,,16,GPS,,12.00,F,F*14
$GPRMC,161354,A,2921.283000,N,11947.665000,E,31.00,274.82,20161023,,,D*43
$PTUBA,43.66,,16,GPS,,12.00,F,F*15
$GPRMC,161355,A,2921.284000,N,11947.655000,E,31.00,274.06,20161023,,,D*4A
$PTUBA,43.38,,16,GPS,,12.00,F,F*1E
$GPRMC,161356,A,2921.285000,N,11947.645000,E,35.00,274.47,20161023,,,D*48
$PTUBA,42.99,,16,GPS,,8.00,F,F*2F
$GPRMC,161357,A,2921.286000,N,11947.634000,E,35.00,274.66,20161023,,,D*4F
$PTUBA,42.73,,16,GPS,,8.00,F,F*2B
$GPRMC,161358,A,2921.286000,N,11947.624000,E,39.00,274.85,20161023,,,D*40
$PTUBA,42.55,,16,GPS,,8.00,F,F*2F
$GPRMC,161359,A,2921.287000,N,11947.612000,E,39.00,274.33,20161023,,,D*48
$PTUBA,42.49,,15,GPS,,8.00,F,F*21
$GPRMC,161400,A,2921.288000,N,11947.600000,E,39.00,274.70,20161023,,,D*48
$PTUBA,42.44,,15,GPS,,8.00,F,F*2C
$GPRMC,161401,A,2921.289000,N,11947.589000,E,42.00,275.13,20161023,,,D*42
$PTUBA,42.54,,16,GPS,,8.00,F,F*2E
$GPRMC,161402,A,2921.290000,N,11947.577000,E,42.00,274.51,20161023,,,D*4F
$PTUBA,42.72,,15,GPS,,8.00,F,F*29
$GPRMC,161403,A,2921.291000,N,11947.565000,E,43.00,274.59,20161023,,,D*45
$PTUBA,42.90,,15,GPS,,8.00,F,F*25
$GPRMC,161404,A,2921.292000,N,11947.553000,E,43.00,274.02,20161023,,,D*4A
$PTUBA,43.18,,15,GPS,,8.00,F,F*24
$GPRMC,161405,A,2921.292000,N,11947.541000,E,46.00,273.41,20161023,,,D*4D
$PTUBA,43.30,,15,GPS,,8.00,F,F*2E
$GPRMC,161406,A,2921.292000,N,11947.530000,E,46.00,271.68,20161023,,,D*41
$PTUBA,43.45,,15,GPS,,8.00,F,F*2C
$GPRMC,161407,A,2921.292000,N,11947.519000,E,42.00,269.47,20161023,,,D*4B
$PTUBA,43.60,,15,GPS,,8.00,F,F*2B
$GPRMC,161408,A,2921.292000,N,11947.507000,E,42.00,267.44,20161023,,,D*46
$PTUBA,43.75,,15,GPS,,8.00,F,F*2F
$GPRMC,161409,A,2921.291000,N,11947.495000,E,42.00,265.73,20161023,,,D*48
$PTUBA,43.83,,16,GPS,,8.00,F,F*25
$GPRMC,161410,A,2921.290000,N,11947.484000,E,42.00,264.43,20161023,,,D*43
$PTUBA,43.88,,16,GPS,,8.00,F,F*2E
$GPRMC,161411,A,2921.288000,N,11947.472000,E,42.00,263.15,20161023,,,D*46
$PTUBA,43.84,,16,GPS,,8.00,F,F*22
$GPRMC,161412,A,2921.287000,N,11947.460000,E,43.00,261.87,20161023,,,D*41
$PTUBA,43.80,,16,GPS,,8.00,F,F*26
$GPRMC,161413,A,2921.285000,N,11947.449000,E,43.00,261.38,20161023,,,D*4D
$PTUBA,43.70,,17,GPS,,8.00,F,F*28
$GPRMC,161414,A,2921.283000,N,11947.437000,E,44.00,261.52,20161023,,,D*4E
$PTUBA,43.99,,17,GPS,,8.00,F,F*2F
$GPRMC,161415,A,2921.281000,N,11947.425000,E,44.00,261.93,20161023,,,D*43
$PTUBA,43.99,,17,GPS,,8.00,F,F*2F
$GPRMC,161416,A,2921.280000,N,11947.412000,E,46.00,262.66,20161023,,,D*4E
$PTUBA,43.97,,17,GPS,,6.00,F,F*2F
$GPRMC,161417,A,2921.278000,N,11947.399000,E,46.00,262.88,20161023,,,D*4C
$PTUBA,43.92,,17,GPS,,6.00,F,F*2A
$GPRMC,161418,A,2921.276000,N,11947.386000,E,49.00,263.29,20161023,,,D*46
$PTUBA,43.86,,17,GPS,,8.00,F,F*21
$GPRMC,161419,A,2921.275000,N,11947.373000,E,49.00,262.54,20161023,,,D*45
$PTUBA,43.77,,17,GPS,,8.00,F,F*2F
$GPRMC,161420,A,2921.273000,N,11947.361000,E,50.00,261.96,20161023,,,D*4F
$PTUBA,43.66,,17,GPS,,8.00,F,F*2F
$GPRMC,161421,A,2921.272000,N,11947.349000,E,50.00,262.84,20161023,,,D*45
$PTUBA,43.49,,17,GPS,,8.00,F,F*22
$GPRMC,161422,A,2921.270000,N,11947.337000,E,50.00,262.76,20161023,,,D*40
$PTUBA,43.44,,17,GPS,,8.00,F,F*2F
$GPRMC,161423,A,2921.269000,N,11947.326000,E,46.00,262.64,20161023,,,D*4D
$PTUBA,43.40,,17,GPS,,8.00,F,F*2B
$GPRMC,161424,A,2921.267000,N,11947.313000,E,46.00,262.94,20161023,,,D*4D
$PTUBA,43.33,,17,GPS,,8.00,F,F*2F
$GPRMC,161425,A,2921.266000,N,11947.299000,E,47.00,262.95,20161023,,,D*4E
$PTUBA,43.47,,17,GPS,,8.00,F,F*2C
$GPRMC,161426,A,2921.265000,N,11947.285000,E,47.00,263.25,20161023,,,D*49
$PTUBA,43.81,,17,GPS,,8.00,F,F*26
$GPRMC,161427,A,2921.263000,N,11947.271000,E,52.00,262.39,20161023,,,D*4D
$PTUBA,44.08,,17,GPS,,8.00,F,F*20
$GPRMC,161428,A,2921.261000,N,11947.256000,E,52.00,261.88,20161023,,,D*4C
$PTUBA,44.43,,17,GPS,,6.00,F,F*21
$GPRMC,161429,A,2921.259000,N,11947.242000,E,55.00,261.18,20161023,,,D*4D
$PTUBA,44.82,,17,GPS,,6.00,F,F*2C
$GPRMC,161430,A,2921.257000,N,11947.227000,E,55.00,260.35,20161023,,,D*46
$PTUBA,45.33,,17,GPS,,6.00,F,F*27
$GPRMC,161431,A,2921.255000,N,11947.212000,E,55.00,260.72,20161023,,,D*40
$PTUBA,45.95,,17,GPS,,6.00,F,F*2B
$GPRMC,161432,A,2921.253000,N,11947.197000,E,56.00,261.66,20161023,,,D*4C
$PTUBA,46.52,,17,GPS,,6.00,F,F*23
$GPRMC,161433,A,2921.251000,N,11947.181000,E,56.00,262.39,20161023,,,D*41
$PTUBA,46.92,,17,GPS,,6.00,F,F*2F
$GPRMC,161434,A,2921.250000,N,11947.166000,E,57.00,263.38,20161023,,,D*4F
$PTUBA,47.14,,17,GPS,,6.00,F,F*20
$GPRMC,161435,A,2921.248000,N,11947.150000,E,57.00,263.40,20161023,,,D*4D
$PTUBA,47.36,,17,GPS,,6.00,F,F*20
$GPRMC,161436,A,2921.247000,N,11947.135000,E,60.00,263.41,20161023,,,D*47
$PTUBA,47.60,,17,GPS,,6.00,F,F*23
$GPRMC,161437,A,2921.245000,N,11947.120000,E,60.00,263.00,20161023,,,D*45
$PTUBA,47.74,,17,GPS,,6.00,F,F*26
$GPRMC,161438,A,2921.244000,N,11947.106000,E,57.00,263.07,20161023,,,D*4C
$PTUBA,47.78,,17,GPS,,6.00,F,F*2A
$GPRMC,161439,A,2921.242000,N,11947.091000,E,57.00,263.09,20161023,,,D*4A
$PTUBA,47.92,,17,GPS,,6.00,F,F*2E
$GPRMC,161440,A,2921.241000,N,11947.077000,E,57.00,262.66,20161023,,,D*47
$PTUBA,48.19,,17,GPS,,6.00,F,F*22
$GPRMC,161441,A,2921.239000,N,11947.062000,E,55.00,262.54,20161023,,,D*4E
$PTUBA,48.52,,17,GPS,,6.00,F,F*2D
$GPRMC,161442,A,2921.237000,N,11947.047000,E,55.00,262.52,20161023,,,D*42
$PTUBA,48.63,,17,GPS,,6.00,F,F*2F
$GPRMC,161443,A,2921.235000,N,11947.033000,E,54.00,262.36,20161023,,,D*41
$PTUBA,48.79,,17,GPS,,6.00,F,F*24
$GPRMC,161444,A,2921.234000,N,11947.018000,E,54.00,262.77,20161023,,,D*4B
$PTUBA,48.84,,17,GPS,,6.00,F,F*26
$GPRMC,161445,A,2921.232000,N,11947.003000,E,56.00,262.52,20161023,,,D*43
$PTUBA,49.01,,17,GPS,,6.00,F,F*2A
$GPRMC,161446,A,2921.230000,N,11946.991000,E,56.00,263.21,20161023,,,D*44
$PTUBA,48.69,,17,GPS,,6.00,F,F*25
$GPRMC,161447,A,2921.229000,N,11946.978000,E,56.00,262.78,20161023,,,D*47
$PTUBA,48.20,,17,GPS,,6.00,F,F*28
$GPRMC,161448,A,2921.228000,N,11946.964000,E,56.00,262.38,20161023,,,D*40
$PTUBA,47.58,,17,GPS,,4.00,F,F*2A
$GPRMC,161449,A,2921.226000,N,11946.950000,E,56.00,261.72,20161023,,,D*45
$PTUBA,46.74,,17,GPS,,4.00,F,F*25
$GPRMC,161450,A,2921.225000,N,11946.936000,E,55.00,262.48,20161023,,,D*47
$PTUBA,46.25,,17,GPS,,6.00,F,F*23
$GPRMC,161451,A,2921.223000,N,11946.923000,E,55.00,262.87,20161023,,,D*47
$PTUBA,45.63,,17,GPS,,6.00,F,F*22
$GPRMC,161452,A,2921.222000,N,11946.908000,E,53.00,263.20,20161023,,,D*46
$PTUBA,45.26,,17,GPS,,6.00,F,F*23
$GPRMC,161453,A,2921.221000,N,11946.894000,E,53.00,263.53,20161023,,,D*44
$PTUBA,45.19,,17,GPS,,6.00,F,F*2F
$GPRMC,161454,A,2921.220000,N,11946.881000,E,51.00,263.07,20161023,,,D*45
$PTUBA,45.32,,17,GPS,,6.00,F,F*26
$GPRMC,161455,A,2921.219000,N,11946.868000,E,51.00,262.79,20161023,,,D*41
$PTUBA,45.53,,17,GPS,,6.00,F,F*21
$GPRMC,161456,A,2921.217000,N,11946.856000,E,47.00,262.64,20161023,,,D*4A
$PTUBA,45.65,,17,GPS,,6.00,F,F*24
$GPRMC,161457,A,2921.216000,N,11946.844000,E,47.00,262.02,20161023,,,D*49
$PTUBA,45.70,,17,GPS,,6.00,F,F*20
$GPRMC,161458,A,2921.214000,N,11946.832000,E,44.00,261.98,20161023,,,D*46
$PTUBA,45.70,,17,GPS,,6.00,F,F*20
$GPRMC,161459,A,2921.213000,N,11946.820000,E,44.00,262.38,20161023,,,D*4A
$PTUBA,45.57,,17,GPS,,6.00,F,F*25
$GPRMC,161500,A,2921.212000,N,11946.809000,E,44.00,263.13,20161023,,,D*45
$PTUBA,45.61,,17,GPS,,6.00,F,F*20
$GPRMC,161501,A,2921.211000,N,11946.798000,E,44.00,265.45,20161023,,,D*45
$PTUBA,45.53,,17,GPS,,6.00,F,F*21
$GPRMC,161502,A,2921.211000,N,11946.788000,E,44.00,269.33,20161023,,,D*4A
$PTUBA,45.23,,17,GPS,,6.00,F,F*26
$GPRMC,161503,A,2921.213000,N,11946.776000,E,42.00,282.52,20161023,,,D*4C
$PTUBA,45.40,,17,GPS,,6.00,F,F*23
$GPRMC,161504,A,2921.216000,N,11946.765000,E,42.00,284.10,20161023,,,D*4C
$PTUBA,45.26,,17,GPS,,6.00,F,F*23
$GPRMC,161505,A,2921.219000,N,11946.754000,E,42.00,285.58,20161023,,,D*4D
$PTUBA,44.97,,17,GPS,,6.00,F,F*28
$GPRMC,161506,A,2921.222000,N,11946.743000,E,42.00,287.07,20161023,,,D*48
$PTUBA,44.52,,17,GPS,,6.00,F,F*21
$GPRMC,161507,A,2921.225000,N,11946.732000,E,43.00,288.16,20161023,,,D*46
$PTUBA,43.93,,17,GPS,,6.00,F,F*2B
$GPRMC,161508,A,2921.229000,N,11946.722000,E,43.00,288.86,20161023,,,D*4D
$PTUBA,43.34,,17,GPS,,6.00,F,F*26
$GPRMC,161509,A,2921.233000,N,11946.712000,E,43.00,289.84,20161023,,,D*47
$PTUBA,42.63,,17,GPS,,6.00,F,F*25
$GPRMC,161510,A,2921.236000,N,11946.701000,E,44.00,289.24,20161023,,,D*45
$PTUBA,41.89,,17,GPS,,4.00,F,F*20
$GPRMC,161511,A,2921.240000,N,11946.690000,E,44.00,289.87,20161023,,,D*45
$PTUBA,41.30,,17,GPS,,4.00,F,F*22
$GPRMC,161512,A,2921.244000,N,11946.679000,E,44.00,290.12,20161023,,,D*41
$PTUBA,40.69,,17,GPS,,4.00,F,F*2F
$GPRMC,161513,A,2921.247000,N,11946.669000,E,44.00,289.97,20161023,,,D*47
$PTUBA,40.38,,17,GPS,,4.00,F,F*2B
$GPRMC,161514,A,2921.251000,N,11946.658000,E,43.00,289.27,20161023,,,D*49
$PTUBA,40.18,,17,GPS,,6.00,F,F*2B
$GPRMC,161515,A,2921.254000,N,11946.647000,E,43.00,289.56,20161023,,,D*45
$PTUBA,40.04,,16,GPS,,6.00,F,F*27
$GPRMC,161516,A,2921.258000,N,11946.636000,E,42.00,289.57,20161023,,,D*4C
$PTUBA,39.90,,16,GPS,,6.00,F,F*24
$GPRMC,161517,A,2921.261000,N,11946.625000,E,42.00,289.69,20161023,,,D*48
$PTUBA,39.70,,16,GPS,,6.00,F,F*2A
$GPRMC,161518,A,2921.264000,N,11946.614000,E,42.00,290.09,20161023,,,D*4E
$PTUBA,39.58,,17,GPS,,6.00,F,F*21
$GPRMC,161519,A,2921.268000,N,11946.604000,E,42.00,289.54,20161023,,,D*42
$PTUBA,39.54,,17,GPS,,6.00,F,F*2D
$GPRMC,161520,A,2921.271000,N,11946.594000,E,42.00,289.06,20161023,,,D*4D
$PTUBA,39.59,,17,GPS,,6.00,F,F*20
$GPRMC,161521,A,2921.274000,N,11946.583000,E,41.00,288.24,20161023,,,D*4D
$PTUBA,39.71,,17,GPS,,6.00,F,F*2A
$GPRMC,161522,A,2921.277000,N,11946.574000,E,41.00,288.95,20161023,,,D*4F
$PTUBA,39.82,,16,GPS,,6.00,F,F*27
$GPRMC,161523,A,2921.280000,N,11946.565000,E,40.00,289.53,20161023,,,D*4C
$PTUBA,39.95,,16,GPS,,6.00,F,F*21
$GPRMC,161524,A,2921.283000,N,11946.558000,E,40.00,288.74,20161023,,,D*42
$PTUBA,39.97,,16,GPS,,6.00,F,F*23
$GPRMC,161525,A,2921.285000,N,11946.550000,E,33.00,286.88,20161023,,,D*44
$PTUBA,39.83,,17,GPS,,6.00,F,F*27
$GPRMC,161526,A,2921.287000,N,11946.542000,E,33.00,285.69,20161023,,,D*4A
$PTUBA,39.54,,17,GPS,,6.00,F,F*2D
$GPRMC,161527,A,2921.289000,N,11946.534000,E,30.00,283.80,20161023,,,D*46
$PTUBA,39.40,,17,GPS,,8.00,F,F*26
$GPRMC,161528,A,2921.290000,N,11946.526000,E,30.00,283.81,20161023,,,D*43
$PTUBA,39.34,,17,GPS,,6.00,F,F*2B
$GPRMC,161529,A,2921.292000,N,11946.519000,E,30.00,284.19,20161023,,,D*4A
$PTUBA,39.35,,17,GPS,,6.00,F,F*2A
$GPRMC,161530,A,2921.293000,N,11946.513000,E,28.00,285.10,20161023,,,D*48
$PTUBA,39.59,,17,GPS,,6.00,F,F*20
$GPRMC,161531,A,2921.296000,N,11946.507000,E,28.00,285.47,20161023,,,D*4B
$PTUBA,39.94,,17,GPS,,12.00,F,F*14
$GPRMC,161532,A,2921.297000,N,11946.501000,E,24.00,286.03,20161023,,,D*40
$PTUBA,40.27,,17,GPS,,12.00,F,F*12
$GPRMC,161533,A,2921.298000,N,11946.495000,E,24.00,289.44,20161023,,,D*4E
$PTUBA,40.63,,17,GPS,,12.00,F,F*12
$GPRMC,161534,A,2921.299000,N,11946.490000,E,22.00,287.05,20161023,,,D*40
$PTUBA,40.97,,17,GPS,,12.00,F,F*19
$GPRMC,161535,A,2921.300000,N,11946.484000,E,22.00,284.10,20161023,,,D*42
$PTUBA,41.48,,17,GPS,,8.00,F,F*21
$GPRMC,161536,A,2921.300000,N,11946.478000,E,22.00,269.45,20161023,,,D*41
$PTUBA,42.09,,17,GPS,,8.00,F,F*27
$GPRMC,161537,A,2921.300000,N,11946.472000,E,22.00,268.03,20161023,,,D*49
$PTUBA,42.82,,17,GPS,,12.00,F,F*1F
$GPRMC,161538,A,2921.299000,N,11946.466000,E,23.00,266.94,20161023,,,D*43
$PTUBA,43.86,,17,GPS,,12.00,F,F*1A
$GPRMC,161539,A,2921.298000,N,11946.460000,E,23.00,265.83,20161023,,,D*40
$PTUBA,45.27,,17,GPS,,6.00,F,F*22
$GPRMC,161540,A,2921.297000,N,11946.453000,E,23.00,266.08,20161023,,,D*41
$PTUBA,46.82,,17,GPS,,8.00,F,F*20
$GPRMC,161541,A,2921.295000,N,11946.446000,E,26.00,265.83,20161023,,,D*43
$PTUBA,48.40,,17,GPS,,8.00,F,F*20
$GPRMC,161542,A,2921.294000,N,11946.440000,E,26.00,264.20,20161023,,,D*4F
$PTUBA,49.79,,17,GPS,,8.00,F,F*2B
$GPRMC,161543,A,2921.293000,N,11946.433000,E,27.00,264.80,20161023,,,D*46
$PTUBA,50.94,,17,GPS,,8.00,F,F*20
$GPRMC,161544,A,2921.291000,N,11946.428000,E,27.00,263.88,20161023,,,D*46
$PTUBA,51.84,,17,GPS,,8.00,F,F*20
$GPRMC,161545,A,2921.290000,N,11946.424000,E,23.00,259.62,20161023,,,D*43
$PTUBA,52.83,,17,GPS,,8.00,F,F*24
$GPRMC,161546,A,2921.289000,N,11946.418000,E,23.00,264.32,20161023,,,D*4C
$PTUBA,53.88,,17,GPS,,12.00,F,F*15
$GPRMC,161547,A,2921.288000,N,11946.412000,E,22.00,265.63,20161023,,,D*42
$PTUBA,54.61,,17,GPS,,8.00,F,F*2E
$GPRMC,161548,A,2921.287000,N,11946.407000,E,22.00,265.42,20161023,,,D*45
$PTUBA,55.02,,16,GPS,,8.00,F,F*2B
$GPRMC,161549,A,2921.286000,N,11946.400000,E,22.00,264.81,20161023,,,D*4C
$PTUBA,55.43,,17,GPS,,8.00,F,F*2F
$GPRMC,161550,A,2921.285000,N,11946.393000,E,25.00,264.09,20161023,,,D*4D
$PTUBA,55.75,,17,GPS,,8.00,F,F*2A
$GPRMC,161551,A,2921.285000,N,11946.386000,E,25.00,262.17,20161023,,,D*41
$PTUBA,55.75,,17,GPS,,8.00,F,F*2A
$GPRMC,161552,A,2921.285000,N,11946.379000,E,26.00,263.92,20161023,,,D*4D
$PTUBA,55.30,,17,GPS,,12.00,F,F*10
$GPRMC,161553,A,2921.286000,N,11946.372000,E,26.00,263.00,20161023,,,D*4F
$PTUBA,54.33,,17,GPS,,8.00,F,F*29
$GPRMC,161554,A,2921.286000,N,11946.366000,E,23.00,263.85,20161023,,,D*45
$PTUBA,53.11,,17,GPS,,8.00,F,F*2E
$GPRMC,161555,A,2921.286000,N,11946.363000,E,23.00,260.86,20161023,,,D*41
$PTUBA,53.00,,16,GPS,,8.00,F,F*2F
$GPRMC,161556,A,2921.286000,N,11946.361000,E,14.00,261.65,20161023,,,D*48
$PTUBA,52.88,,17,GPS,,16.00,F,F*10
$GPRMC,161557,A,2921.286000,N,11946.358000,E,14.00,272.48,20161023,,,D*4E
$PTUBA,52.73,,17,GPS,,16.00,F,F*14
$GPRMC,161558,A,2921.287000,N,11946.356000,E,14.00,270.23,20161023,,,D*41
$PTUBA,52.53,,17,GPS,,16.00,F,F*16
$GPRMC,161559,A,2921.287000,N,11946.353000,E,10.00,255.32,20161023,,,D*46
$PTUBA,52.37,,17,GPS,,12.00,F,F*10
$GPRMC,161600,A,2921.287000,N,11946.350000,E,10.00,256.03,20161023,,,D*4B
$PTUBA,52.18,,17,GPS,,12.00,F,F*1D
$GPRMC,161601,A,2921.287000,N,11946.348000,E,9.00,262.08,20161023,,,D*77
$PTUBA,52.01,,17,GPS,,12.00,F,F*15
$GPRMC,161602,A,2921.287000,N,11946.345000,E,9.00,263.88,20161023,,,D*70
$PTUBA,51.86,,17,GPS,,8.00,F,F*22
$GPRMC,161603,A,2921.287000,N,11946.342000,E,9.00,262.61,20161023,,,D*70
$PTUBA,51.73,,17,GPS,,8.00,F,F*28
$GPRMC,161604,A,2921.286000,N,11946.339000,E,9.00,260.88,20161023,,,D*7F
$PTUBA,51.59,,17,GPS,,8.00,F,F*20
$GPRMC,161605,A,2921.286000,N,11946.336000,E,13.00,262.22,20161023,,,D*48
$PTUBA,51.46,,17,GPS,,12.00,F,F*15
$GPRMC,161606,A,2921.285000,N,11946.331000,E,13.00,262.15,20161023,,,D*4B
$PTUBA,49.98,,17,GPS,,12.00,F,F*1F
$GPRMC,161607,A,2921.285000,N,11946.326000,E,13.00,263.53,20161023,,,D*4F
$PTUBA,48.74,,17,GPS,,12.00,F,F*1C
$GPRMC,161608,A,2921.284000,N,11946.319000,E,17.00,263.98,20161023,,,D*4E
$PTUBA,47.32,,17,GPS,,12.00,F,F*11
$GPRMC,161609,A,2921.285000,N,11946.311000,E,17.00,278.09,20161023,,,D*44
$PTUBA,46.13,,17,GPS,,12.00,F,F*13
$GPRMC,161610,A,2921.287000,N,11946.304000,E,27.00,291.05,20161023,,,D*42
$PTUBA,45.15,,17,GPS,,12.00,F,F*16
$GPRMC,161611,A,2921.289000,N,11946.296000,E,27.00,294.54,20161023,,,D*46
$PTUBA,44.07,,17,GPS,,12.00,F,F*14
$GPRMC,161612,A,2921.293000,N,11946.289000,E,29.00,297.99,20161023,,,D*4C
$PTUBA,43.58,,17,GPS,,12.00,F,F*19
$GPRMC,161613,A,2921.298000,N,11946.283000,E,29.00,312.08,20161023,,,D*48
$PTUBA,43.49,,17,GPS,,8.00,F,F*22
$GPRMC,161614,A,2921.303000,N,11946.277000,E,29.00,315.15,20161023,,,D*4C
$PTUBA,43.89,,17,GPS,,8.00,F,F*2E
$GPRMC,161615,A,2921.309000,N,11946.272000,E,29.00,318.64,20161023,,,D*49
$PTUBA,44.14,,16,GPS,,8.00,F,F*2C
$GPRMC,161616,A,2921.315000,N,11946.269000,E,29.00,339.24,20161023,,,D*4A
$PTUBA,44.22,,16,GPS,,8.00,F,F*29
$GPRMC,161617,A,2921.323000,N,11946.265000,E,31.00,340.18,20161023,,,D*4A
$PTUBA,44.24,,16,GPS,,8.00,F,F*2F
$GPRMC,161618,A,2921.331000,N,11946.263000,E,31.00,342.29,20161023,,,D*40
$PTUBA,44.09,,16,GPS,,8.00,F,F*20
$GPRMC,161619,A,2921.338000,N,11946.260000,E,34.00,342.83,20161023,,,D*4E
$PTUBA,43.63,,16,GPS,,8.00,F,F*2B
$GPRMC,161620,A,2921.346000,N,11946.258000,E,34.00,344.48,20161023,,,D*47
$PTUBA,43.13,,16,GPS,,12.00,F,F*17
$GPRMC,161621,A,2921.353000,N,11946.257000,E,34.00,346.97,20161023,,,D*4D
$PTUBA,42.74,,16,GPS,,8.00,F,F*2C
$GPRMC,161622,A,2921.361000,N,11946.256000,E,34.00,349.44,20161023,,,D*4F
$PTUBA,42.53,,16,GPS,,8.00,F,F*29
$GPRMC,161623,A,2921.370000,N,11946.255000,E,34.00,351.72,20161023,,,D*41
$PTUBA,42.28,,16,GPS,,8.00,F,F*25
$GPRMC,161624,A,2921.379000,N,11946.254000,E,34.00,352.62,20161023,,,D*4C
$PTUBA,42.22,,16,GPS,,8.00,F,F*2F
$GPRMC,161625,A,2921.388000,N,11946.253000,E,34.00,351.90,20161023,,,D*4A
$PTUBA,42.14,,16,GPS,,8.00,F,F*2A
$GPRMC,161626,A,2921.397000,N,11946.251000,E,38.00,351.33,20161023,,,D*40
$PTUBA,41.92,,16,GPS,,8.00,F,F*27
$GPRMC,161627,A,2921.407000,N,11946.250000,E,38.00,350.31,20161023,,,D*4D
$PTUBA,41.43,,16,GPS,,8.00,F,F*2B
$GPRMC,161628,A,2921.417000,N,11946.249000,E,39.00,350.55,20161023,,,D*48
$PTUBA,40.72,,17,GPS,,8.00,F,F*29
$GPRMC,161629,A,2921.427000,N,11946.247000,E,39.00,350.39,20161023,,,D*4E
$PTUBA,39.85,,17,GPS,,6.00,F,F*21
$GPRMC,161630,A,2921.436000,N,11946.245000,E,42.00,350.74,20161023,,,D*41
$PTUBA,39.52,,17,GPS,,6.00,F,F*2B
$GPRMC,161631,A,2921.445000,N,11946.244000,E,42.00,350.21,20161023,,,D*45
$PTUBA,39.26,,17,GPS,,6.00,F,F*28
$GPRMC,161632,A,2921.454000,N,11946.242000,E,40.00,349.80,20161023,,,D*41
$PTUBA,39.09,,17,GPS,,6.00,F,F*25
$GPRMC,161633,A,2921.463000,N,11946.241000,E,40.00,349.35,20161023,,,D*49
$PTUBA,39.08,,17,GPS,,6.00,F,F*24
$GPRMC,161634,A,2921.473000,N,11946.239000,E,38.00,349.81,20161023,,,D*40
$PTUBA,38.93,,16,GPS,,6.00,F,F*26
$GPRMC,161635,A,2921.481000,N,11946.237000,E,38.00,350.46,20161023,,,D*41
$PTUBA,38.69,,16,GPS,,6.00,F,F*23
$GPRMC,161636,A,2921.488000,N,11946.236000,E,38.00,351.76,20161023,,,D*48
$PTUBA,38.82,,16,GPS,,6.00,F,F*26
$GPRMC,161637,A,2921.495000,N,11946.235000,E,35.00,353.98,20161023,,,D*49
$PTUBA,39.19,,17,GPS,,6.00,F,F*24
$GPRMC,161638,A,2921.502000,N,11946.234000,E,35.00,352.82,20161023,,,D*42
$PTUBA,39.79,,17,GPS,,6.00,F,F*22
$GPRMC,161639,A,2921.511000,N,11946.232000,E,31.00,350.23,20161023,,,D*4A
$PTUBA,40.26,,17,GPS,,6.00,F,F*26
$GPRMC,161640,A,2921.522000,N,11946.229000,E,31.00,347.76,20161023,,,D*48
$PTUBA,40.69,,16,GPS,,6.00,F,F*2C
$GPRMC,161641,A,2921.533000,N,11946.227000,E,43.00,348.10,20161023,,,D*4D
$PTUBA,40.70,,16,GPS,,8.00,F,F*2A
$GPRMC,161642,A,2921.546000,N,11946.225000,E,43.00,349.56,20161023,,,D*4D
$PTUBA,40.44,,16,GPS,,8.00,F,F*2D
$GPRMC,161643,A,2921.559000,N,11946.223000,E,55.00,350.74,20161023,,,D*4B
$PTUBA,39.92,,16,GPS,,8.00,F,F*28
$GPRMC,161644,A,2921.572000,N,11946.221000,E,55.00,350.31,20161023,,,D*46
$PTUBA,39.73,,17,GPS,,8.00,F,F*26
$GPRMC,161645,A,2921.586000,N,11946.219000,E,55.00,349.82,20161023,,,D*47
$PTUBA,39.62,,17,GPS,,8.00,F,F*26
$GPRMC,161646,A,2921.600000,N,11946.216000,E,57.00,349.91,20161023,,,D*46
$PTUBA,39.39,,16,GPS,,8.00,F,F*29
$GPRMC,161647,A,2921.615000,N,11946.214000,E,57.00,350.68,20161023,,,D*4F
$PTUBA,38.95,,16,GPS,,8.00,F,F*2E
$GPRMC,161648,A,2921.628000,N,11946.211000,E,62.00,351.34,20161023,,,D*45
$PTUBA,38.56,,16,GPS,,8.00,F,F*21
$GPRMC,161649,A,2921.642000,N,11946.208000,E,62.00,350.78,20161023,,,D*49
$PTUBA,37.80,,17,GPS,,6.00,F,F*2A
$GPRMC,161650,A,2921.657000,N,11946.206000,E,60.00,350.61,20161023,,,D*41
$PTUBA,37.04,,17,GPS,,6.00,F,F*26
$GPRMC,161651,A,2921.671000,N,11946.203000,E,60.00,350.16,20161023,,,D*41
$PTUBA,36.27,,17,GPS,,6.00,F,F*26
$GPRMC,161652,A,2921.685000,N,11946.199000,E,60.00,349.28,20161023,,,D*4C
$PTUBA,35.47,,17,GPS,,6.00,F,F*23
$GPRMC,161653,A,2921.699000,N,11946.196000,E,60.00,348.13,20161023,,,D*46
$PTUBA,34.66,,17,GPS,,6.00,F,F*21
$GPRMC,161654,A,2921.713000,N,11946.192000,E,61.00,347.30,20161023,,,D*49
$PTUBA,34.03,,17,GPS,,6.00,F,F*22
$GPRMC,161655,A,2921.727000,N,11946.188000,E,61.00,346.09,20161023,,,D*4F
$PTUBA,33.53,,17,GPS,,6.00,F,F*20
$GPRMC,161656,A,2921.739000,N,11946.183000,E,61.00,343.85,20161023,,,D*49
$PTUBA,33.29,,16,GPS,,6.00,F,F*2C
$GPRMC,161657,A,2921.752000,N,11946.177000,E,60.00,341.31,20161023,,,D*42
$PTUBA,33.20,,16,GPS,,6.00,F,F*25
$GPRMC,161658,A,2921.764000,N,11946.171000,E,60.00,338.71,20161023,,,D*44
$PTUBA,33.21,,16,GPS,,6.00,F,F*24
$GPRMC,161659,A,2921.776000,N,11946.164000,E,60.00,336.40,20161023,,,D*4E
$PTUBA,33.27,,17,GPS,,6.00,F,F*23
$GPRMC,161700,A,2921.788000,N,11946.156000,E,60.00,334.40,20161023,,,D*41
$PTUBA,33.35,,17,GPS,,6.00,F,F*20
$GPRMC,161701,A,2921.799000,N,11946.149000,E,57.00,332.72,20161023,,,D*4D
$PTUBA,33.47,,17,GPS,,6.00,F,F*25
$GPRMC,161702,A,2921.810000,N,11946.141000,E,57.00,331.55,20161023,,,D*4E
$PTUBA,33.62,,17,GPS,,6.00,F,F*22
$GPRMC,161703,A,2921.820000,N,11946.134000,E,53.00,330.86,20161023,,,D*45
$PTUBA,33.83,,17,GPS,,6.00,F,F*2D
$GPRMC,161704,A,2921.830000,N,11946.127000,E,53.00,330.25,20161023,,,D*48
$PTUBA,34.16,,17,GPS,,6.00,F,F*26
$GPRMC,161705,A,2921.839000,N,11946.120000,E,53.00,329.80,20161023,,,D*40
$PTUBA,34.41,,17,GPS,,6.00,F,F*24
$GPRMC,161706,A,2921.849000,N,11946.113000,E,53.00,329.03,20161023,,,D*4F
$PTUBA,34.59,,17,GPS,,6.00,F,F*2D
$GPRMC,161707,A,2921.858000,N,11946.106000,E,53.00,328.96,20161023,,,D*47
$PTUBA,34.73,,17,GPS,,6.00,F,F*25
$GPRMC,161708,A,2921.867000,N,11946.099000,E,49.00,328.91,20161023,,,D*4F
$PTUBA,34.75,,17,GPS,,6.00,F,F*23
$GPRMC,161709,A,2921.877000,N,11946.092000,E,49.00,328.93,20161023,,,D*46
$PTUBA,34.76,,17,GPS,,6.00,F,F*20
$GPRMC,161710,A,2921.885000,N,11946.085000,E,48.00,328.94,20161023,,,D*43
$PTUBA,34.70,,17,GPS,,6.00,F,F*26
$GPRMC,161711,A,2921.894000,N,11946.080000,E,48.00,328.95,20161023,,,D*46
$PTUBA,34.68,,17,GPS,,6.00,F,F*2F
$GPRMC,161712,A,2921.903000,N,11946.073000,E,47.00,328.80,20161023,,,D*4D
$PTUBA,34.73,,17,GPS,,6.00,F,F*25
$GPRMC,161713,A,2921.912000,N,11946.067000,E,47.00,328.82,20161023,,,D*4B
$PTUBA,34.86,,17,GPS,,6.00,F,F*2F
$GPRMC,161714,A,2921.921000,N,11946.060000,E,47.00,328.71,20161023,,,D*47
$PTUBA,34.86,,17,GPS,,6.00,F,F*2F
$GPRMC,161715,A,2921.931000,N,11946.053000,E,47.00,329.29,20161023,,,D*4B
$PTUBA,34.65,,17,GPS,,6.00,F,F*22
$GPRMC,161716,A,2921.941000,N,11946.047000,E,47.00,329.46,20161023,,,D*43
$PTUBA,34.29,,17,GPS,,6.00,F,F*2A
$GPRMC,161717,A,2921.950000,N,11946.040000,E,48.00,328.81,20161023,,,D*40
$PTUBA,34.03,,17,GPS,,6.00,F,F*22
$GPRMC,161718,A,2921.958000,N,11946.034000,E,48.00,327.96,20161023,,,D*4D
$PTUBA,33.82,,17,GPS,,6.00,F,F*2C
$GPRMC,161719,A,2921.967000,N,11946.027000,E,44.00,327.65,20161023,,,D*42
$PTUBA,33.62,,17,GPS,,6.00,F,F*22
$GPRMC,161720,A,2921.974000,N,11946.022000,E,44.00,327.78,20161023,,,D*43
$PTUBA,33.89,,17,GPS,,6.00,F,F*27
$GPRMC,161721,A,2921.981000,N,11946.017000,E,41.00,327.82,20161023,,,D*4E
$PTUBA,34.31,,17,GPS,,4.00,F,F*21
$GPRMC,161722,A,2921.988000,N,11946.012000,E,41.00,327.65,20161023,,,D*48
$PTUBA,34.82,,17,GPS,,4.00,F,F*29
$GPRMC,161723,A,2921.995000,N,11946.007000,E,38.00,327.47,20161023,,,D*4F
$PTUBA,35.35,,17,GPS,,4.00,F,F*24
$GPRMC,161724,A,2922.002000,N,11946.002000,E,38.00,327.93,20161023,,,D*40
$PTUBA,35.81,,17,GPS,,4.00,F,F*2B
$GPRMC,161725,A,2922.009000,N,11945.997000,E,38.00,328.35,20161023,,,D*4F
$PTUBA,36.23,,17,GPS,,4.00,F,F*20
$GPRMC,161726,A,2922.016000,N,11945.992000,E,36.00,328.35,20161023,,,D*49
$PTUBA,36.56,,17,GPS,,4.00,F,F*22
$GPRMC,161727,A,2922.023000,N,11945.987000,E,36.00,328.69,20161023,,,D*43
$PTUBA,36.74,,17,GPS,,4.00,F,F*22
$GPRMC,161728,A,2922.030000,N,11945.982000,E,34.00,328.81,20161023,,,D*4F
$PTUBA,36.89,,17,GPS,,4.00,F,F*20
$GPRMC,161729,A,2922.036000,N,11945.978000,E,34.00,328.63,20161023,,,D*41
$PTUBA,37.05,,17,GPS,,4.00,F,F*25
$GPRMC,161730,A,2922.042000,N,11945.973000,E,31.00,328.58,20161023,,,D*4C
$PTUBA,37.21,,17,GPS,,4.00,F,F*23
$GPRMC,161731,A,2922.048000,N,11945.969000,E,31.00,328.44,20161023,,,D*41
$PTUBA,37.35,,17,GPS,,4.00,F,F*26
$GPRMC,161732,A,2922.054000,N,11945.965000,E,30.00,328.68,20161023,,,D*4C
$PTUBA,37.48,,17,GPS,,4.00,F,F*2C
$GPRMC,161733,A,2922.059000,N,11945.961000,E,30.00,328.42,20161023,,,D*4C
$PTUBA,37.67,,17,GPS,,4.00,F,F*21
$GPRMC,161734,A,2922.065000,N,11945.957000,E,28.00,328.69,20161023,,,D*41
$PTUBA,37.85,,17,GPS,,4.00,F,F*2D
$GPRMC,161735,A,2922.070000,N,11945.953000,E,28.00,328.36,20161023,,,D*4A
$PTUBA,38.03,,17,GPS,,4.00,F,F*2C
$GPRMC,161736,A,2922.076000,N,11945.949000,E,28.00,328.60,20161023,,,D*47
$PTUBA,38.19,,17,GPS,,4.00,F,F*27
$GPRMC,161737,A,2922.080000,N,11945.946000,E,26.00,328.97,20161023,,,D*46
$PTUBA,38.39,,17,GPS,,4.00,F,F*25
$GPRMC,161738,A,2922.084000,N,11945.944000,E,26.00,328.71,20161023,,,D*47
$PTUBA,38.41,,17,GPS,,4.00,F,F*2A
$GPRMC,161739,A,2922.087000,N,11945.942000,E,21.00,329.15,20161023,,,D*47
$PTUBA,38.42,,17,GPS,,4.00,F,F*29
$GPRMC,161740,A,2922.090000,N,11945.940000,E,21.00,328.50,20161023,,,D*4D
$PTUBA,38.43,,17,GPS,,4.00,F,F*28
$GPRMC,161841,A,2922.097000,N,11945.936000,E,8.00,332.76,20161023,,,D*71
$PTUBA,38.24,,17,GPS,,6.00,F,F*2B
$GPRMC,161842,A,2922.102000,N,11945.933000,E,8.00,332.40,20161023,,,D*7F
$PTUBA,37.96,,17,GPS,,6.00,F,F*2D
$GPRMC,161843,A,2922.107000,N,11945.929000,E,8.00,329.94,20161023,,,D*73
$PTUBA,37.76,,17,GPS,,6.00,F,F*23
$GPRMC,161844,A,2922.112000,N,11945.923000,E,26.00,313.63,20161023,,,D*47
$PTUBA,37.71,,17,GPS,,6.00,F,F*24
$GPRMC,161845,A,2922.116000,N,11945.915000,E,26.00,300.14,20161023,,,D*45
$PTUBA,37.92,,17,GPS,,6.00,F,F*29
$GPRMC,161846,A,2922.121000,N,11945.906000,E,33.00,296.47,20161023,,,D*4C
$PTUBA,38.19,,17,GPS,,6.00,F,F*25
$GPRMC,161847,A,2922.122000,N,11945.895000,E,33.00,273.51,20161023,,,D*49
$PTUBA,38.53,,17,GPS,,6.00,F,F*2B
$GPRMC,161848,A,2922.122000,N,11945.883000,E,39.00,269.87,20161023,,,D*4B
$PTUBA,38.73,,17,GPS,,6.00,F,F*29
$GPRMC,161849,A,2922.119000,N,11945.870000,E,39.00,256.13,20161023,,,D*4F
$PTUBA,38.92,,17,GPS,,6.00,F,F*26
$GPRMC,161850,A,2922.116000,N,11945.855000,E,51.00,256.76,20161023,,,D*42
$PTUBA,38.95,,17,GPS,,6.00,F,F*21
$GPRMC,161851,A,2922.113000,N,11945.840000,E,51.00,257.21,20161023,,,D*41
$PTUBA,39.23,,17,GPS,,6.00,F,F*2D
$GPRMC,161852,A,2922.110000,N,11945.825000,E,51.00,256.59,20161023,,,D*4C
$PTUBA,39.52,,17,GPS,,6.00,F,F*2B
$GPRMC,161853,A,2922.106000,N,11945.810000,E,59.00,255.81,20161023,,,D*42
$PTUBA,39.78,,17,GPS,,6.00,F,F*23
$GPRMC,161854,A,2922.103000,N,11945.794000,E,59.00,256.38,20161023,,,D*42
$PTUBA,40.07,,17,GPS,,6.00,F,F*25
$GPRMC,161855,A,2922.100000,N,11945.777000,E,63.00,256.88,20161023,,,D*4F
$PTUBA,40.24,,17,GPS,,6.00,F,F*24
$GPRMC,161856,A,2922.097000,N,11945.761000,E,63.00,257.42,20161023,,,D*43
$PTUBA,40.33,,17,GPS,,6.00,F,F*22
$GPRMC,161857,A,2922.094000,N,11945.745000,E,63.00,257.81,20161023,,,D*48
$PTUBA,40.30,,17,GPS,,6.00,F,F*21
$GPRMC,161858,A,2922.091000,N,11945.729000,E,63.00,257.97,20161023,,,D*4F
$PTUBA,40.34,,17,GPS,,6.00,F,F*25
$GPRMC,161859,A,2922.088000,N,11945.712000,E,63.00,257.94,20161023,,,D*4D
$PTUBA,40.26,,17,GPS,,6.00,F,F*26
$GPRMC,161900,A,2922.085000,N,11945.696000,E,63.00,258.48,20161023,,,D*4E
$PTUBA,40.30,,17,GPS,,6.00,F,F*21
$GPRMC,161901,A,2922.082000,N,11945.679000,E,63.00,258.86,20161023,,,D*4B
$PTUBA,40.42,,17,GPS,,6.00,F,F*24
$GPRMC,161902,A,2922.079000,N,11945.664000,E,63.00,258.06,20161023,,,D*48
$PTUBA,40.46,,17,GPS,,6.00,F,F*20
$GPRMC,161903,A,2922.076000,N,11945.647000,E,63.00,257.42,20161023,,,D*48
$PTUBA,40.49,,17,GPS,,6.00,F,F*2F
$GPRMC,161904,A,2922.072000,N,11945.631000,E,65.00,255.82,20161023,,,D*42
$PTUBA,40.59,,17,GPS,,6.00,F,F*2E
$GPRMC,161905,A,2922.068000,N,11945.615000,E,65.00,255.08,20161023,,,D*4C
$PTUBA,40.77,,17,GPS,,6.00,F,F*22
$GPRMC,161906,A,2922.065000,N,11945.600000,E,62.00,255.61,20161023,,,D*4E
$PTUBA,40.96,,17,GPS,,6.00,F,F*2D
$GPRMC,161907,A,2922.061000,N,11945.585000,E,62.00,255.07,20161023,,,D*45
$PTUBA,41.07,,17,GPS,,6.00,F,F*24
$GPRMC,161908,A,2922.058000,N,11945.571000,E,60.00,255.14,20161023,,,D*4B
$PTUBA,41.05,,17,GPS,,6.00,F,F*26
$GPRMC,161909,A,2922.054000,N,11945.556000,E,60.00,254.77,20161023,,,D*47
$PTUBA,40.75,,17,GPS,,6.00,F,F*20
$GPRMC,161910,A,2922.051000,N,11945.542000,E,56.00,254.89,20161023,,,D*4B
$PTUBA,40.73,,17,GPS,,6.00,F,F*26
$GPRMC,161911,A,2922.047000,N,11945.529000,E,56.00,254.92,20161023,,,D*4A
$PTUBA,40.82,,17,GPS,,6.00,F,F*28
$GPRMC,161912,A,2922.044000,N,11945.515000,E,56.00,255.61,20161023,,,D*48
$PTUBA,40.86,,15,GPS,,6.00,F,F*2E
$GPRMC,161913,A,2922.041000,N,11945.502000,E,53.00,255.41,20161023,,,D*4D
$PTUBA,40.91,,16,GPS,,6.00,F,F*2B
$GPRMC,161914,A,2922.038000,N,11945.489000,E,53.00,255.85,20161023,,,D*4E
$PTUBA,41.04,,16,GPS,,6.00,F,F*26
$GPRMC,161915,A,2922.035000,N,11945.476000,E,50.00,255.05,20161023,,,D*49
$PTUBA,41.25,,16,GPS,,6.00,F,F*25
$GPRMC,161916,A,2922.032000,N,11945.464000,E,50.00,255.17,20161023,,,D*4D
$PTUBA,41.46,,15,GPS,,6.00,F,F*23
$GPRMC,161917,A,2922.029000,N,11945.452000,E,48.00,255.18,20161023,,,D*45
$PTUBA,41.67,,15,GPS,,6.00,F,F*20
$GPRMC,161918,A,2922.027000,N,11945.441000,E,48.00,254.99,20161023,,,D*4E
$PTUBA,41.69,,16,GPS,,6.00,F,F*2D
$GPRMC,161919,A,2922.024000,N,11945.429000,E,44.00,254.32,20161023,,,D*4F
$PTUBA,41.65,,16,GPS,,6.00,F,F*21
$GPRMC,161920,A,2922.022000,N,11945.418000,E,44.00,254.52,20161023,,,D*47
$PTUBA,41.47,,16,GPS,,6.00,F,F*21
$GPRMC,161921,A,2922.019000,N,11945.408000,E,44.00,255.00,20161023,,,D*49
$PTUBA,41.39,,16,GPS,,6.00,F,F*28
$GPRMC,161922,A,2922.017000,N,11945.398000,E,42.00,255.46,20161023,,,D*4E
$PTUBA,41.06,,16,GPS,,6.00,F,F*24
$GPRMC,161923,A,2922.017000,N,11945.390000,E,42.00,254.75,20161023,,,D*46
$PTUBA,40.64,,17,GPS,,6.00,F,F*20
$GPRMC,161924,A,2922.015000,N,11945.381000,E,36.00,254.67,20161023,,,D*43
$PTUBA,40.46,,17,GPS,,6.00,F,F*20
$GPRMC,161925,A,2922.013000,N,11945.374000,E,36.00,254.63,20161023,,,D*4A
$PTUBA,40.68,,17,GPS,,6.00,F,F*2C
$GPRMC,161926,A,2922.011000,N,11945.368000,E,31.00,255.50,20161023,,,D*40
$PTUBA,40.87,,16,GPS,,6.00,F,F*2C
$GPRMC,161927,A,2922.010000,N,11945.360000,E,31.00,255.81,20161023,,,D*44
$PTUBA,41.04,,17,GPS,,4.00,F,F*25
$GPRMC,161928,A,2922.008000,N,11945.353000,E,28.00,252.34,20161023,,,D*43
$PTUBA,41.22,,17,GPS,,4.00,F,F*21
$GPRMC,161929,A,2922.003000,N,11945.347000,E,28.00,225.27,20161023,,,D*4E
$PTUBA,41.46,,17,GPS,,4.00,F,F*23
$GPRMC,161930,A,2921.998000,N,11945.343000,E,28.00,207.94,20161023,,,D*42
$PTUBA,41.69,,17,GPS,,4.00,F,F*2E
$GPRMC,161931,A,2921.993000,N,11945.343000,E,26.00,175.70,20161023,,,D*4A
$PTUBA,41.63,,17,GPS,,6.00,F,F*26
$GPRMC,161932,A,2921.987000,N,11945.344000,E,26.00,160.02,20161023,,,D*4A
$PTUBA,41.53,,17,GPS,,6.00,F,F*25
$GPRMC,161933,A,2921.981000,N,11945.346000,E,26.00,162.21,20161023,,,D*4C
$PTUBA,41.47,,17,GPS,,6.00,F,F*20
$GPRMC,161934,A,2921.975000,N,11945.349000,E,26.00,162.56,20161023,,,D*4F
$PTUBA,40.97,,17,GPS,,6.00,F,F*2C
$GPRMC,161935,A,2921.966000,N,11945.352000,E,26.00,159.97,20161023,,,D*43
$PTUBA,40.28,,17,GPS,,4.00,F,F*2A
$GPRMC,161936,A,2921.958000,N,11945.356000,E,26.00,157.04,20161023,,,D*4D
$PTUBA,39.85,,17,GPS,,6.00,F,F*21
$GPRMC,161937,A,2921.950000,N,11945.361000,E,38.00,155.00,20161023,,,D*49
$PTUBA,39.77,,17,GPS,,6.00,F,F*2C
$GPRMC,161938,A,2921.940000,N,11945.365000,E,38.00,153.79,20161023,,,D*4B
$PTUBA,39.97,,17,GPS,,6.00,F,F*22
$GPRMC,161939,A,2921.931000,N,11945.371000,E,43.00,153.16,20161023,,,D*4C
$PTUBA,40.32,,17,GPS,,6.00,F,F*23
$GPRMC,161940,A,2921.922000,N,11945.376000,E,43.00,152.54,20161023,,,D*40
$PTUBA,40.56,,17,GPS,,6.00,F,F*21
$GPRMC,161941,A,2921.914000,N,11945.381000,E,43.00,152.96,20161023,,,D*42
$PTUBA,40.98,,17,GPS,,6.00,F,F*23
$GPRMC,161942,A,2921.905000,N,11945.386000,E,44.00,153.59,20161023,,,D*43
$PTUBA,41.46,,17,GPS,,6.00,F,F*21
$GPRMC,161943,A,2921.897000,N,11945.391000,E,44.00,154.10,20161023,,,D*44
$PTUBA,41.96,,17,GPS,,6.00,F,F*2C
$GPRMC,161944,A,2921.889000,N,11945.395000,E,41.00,154.09,20161023,,,D*45
$PTUBA,42.45,,17,GPS,,6.00,F,F*21
$GPRMC,161945,A,2921.882000,N,11945.399000,E,41.00,153.57,20161023,,,D*4F
$PTUBA,42.62,,17,GPS,,6.00,F,F*24
$GPRMC,161946,A,2921.875000,N,11945.403000,E,37.00,153.30,20161023,,,D*40
$PTUBA,42.72,,17,GPS,,6.00,F,F*25
$GPRMC,161947,A,2921.868000,N,11945.407000,E,37.00,154.18,20161023,,,D*44
$PTUBA,42.76,,17,GPS,,6.00,F,F*21
$GPRMC,161948,A,2921.862000,N,11945.411000,E,30.00,152.91,20161023,,,D*46
$PTUBA,42.71,,17,GPS,,6.00,F,F*26
$GPRMC,161949,A,2921.856000,N,11945.414000,E,30.00,152.07,20161023,,,D*4A
$PTUBA,42.79,,17,GPS,,8.00,F,F*20
$GPRMC,161950,A,2921.850000,N,11945.418000,E,30.00,153.57,20161023,,,D*4C
$PTUBA,43.25,,17,GPS,,6.00,F,F*26
$GPRMC,161951,A,2921.845000,N,11945.420000,E,28.00,157.26,20161023,,,D*49
$PTUBA,44.43,,17,GPS,,6.00,F,F*21
$GPRMC,161952,A,2921.842000,N,11945.421000,E,28.00,180.37,20161023,,,D*46
$PTUBA,44.55,,17,GPS,,6.00,F,F*26
$GPRMC,161953,A,2921.839000,N,11945.419000,E,20.00,219.85,20161023,,,D*42
$PTUBA,44.65,,17,GPS,,6.00,F,F*25
$GPRMC,161954,A,2921.837000,N,11945.417000,E,20.00,244.49,20161023,,,D*4D
$PTUBA,44.74,,17,GPS,,6.00,F,F*25
$GPRMC,161955,A,2921.836000,N,11945.415000,E,15.00,259.39,20161023,,,D*42
$PTUBA,44.81,,17,GPS,,12.00,F,F*1A
$GPRMC,161956,A,2921.835000,N,11945.412000,E,15.00,261.53,20161023,,,D*42
$PTUBA,44.88,,17,GPS,,8.00,F,F*28
$GPRMC,161957,A,2921.834000,N,11945.409000,E,14.00,249.35,20161023,,,D*43
$PTUBA,44.92,,17,GPS,,8.00,F,F*23
$GPRMC,161958,A,2921.833000,N,11945.405000,E,14.00,255.64,20161023,,,D*4E
$PTUBA,44.94,,17,GPS,,8.00,F,F*25
$GPRMC,161959,A,2921.831000,N,11945.399000,E,20.00,255.84,20161023,,,D*46
$PTUBA,44.83,,17,GPS,,8.00,F,F*23
$GPRMC,162000,A,2921.829000,N,11945.393000,E,20.00,251.50,20161023,,,D*4E
$PTUBA,44.69,,16,GPS,,12.00,F,F*1D
$GPRMC,162001,A,2921.826000,N,11945.387000,E,20.00,245.84,20161023,,,D*49
$PTUBA,44.37,,16,GPS,,12.00,F,F*16
$GPRMC,162002,A,2921.823000,N,11945.381000,E,25.00,240.36,20161023,,,D*40
$PTUBA,44.04,,16,GPS,,12.00,F,F*16
$GPRMC,162003,A,2921.822000,N,11945.374000,E,25.00,253.92,20161023,,,D*46
$PTUBA,43.97,,17,GPS,,12.00,F,F*1A
$GPRMC,162004,A,2921.822000,N,11945.367000,E,27.00,269.49,20161023,,,D*4E
$PTUBA,43.85,,17,GPS,,12.00,F,F*19
$GPRMC,162005,A,2921.823000,N,11945.361000,E,27.00,270.17,20161023,,,D*4B
$PTUBA,43.39,,17,GPS,,12.00,F,F*1E
$GPRMC,162006,A,2921.823000,N,11945.354000,E,22.00,269.49,20161023,,,D*48
$PTUBA,42.92,,17,GPS,,12.00,F,F*1E
$GPRMC,162007,A,2921.822000,N,11945.348000,E,22.00,257.84,20161023,,,D*49
$PTUBA,42.91,,17,GPS,,12.00,F,F*1D
$GPRMC,162008,A,2921.822000,N,11945.343000,E,21.00,261.81,20161023,,,D*4E
$PTUBA,43.24,,17,GPS,,8.00,F,F*29
$GPRMC,162009,A,2921.820000,N,11945.341000,E,21.00,237.71,20161023,,,D*43
$PTUBA,43.33,,17,GPS,,8.00,F,F*2F
$GPRMC,162010,A,2921.818000,N,11945.339000,E,21.00,207.11,20161023,,,D*4A
$PTUBA,43.43,,17,GPS,,8.00,F,F*28
$GPRMC,162011,A,2921.815000,N,11945.337000,E,17.00,204.06,20161023,,,D*48
$PTUBA,43.47,,17,GPS,,16.00,F,F*13
$GPRMC,162012,A,2921.810000,N,11945.336000,E,17.00,196.39,20161023,,,D*4B
$PTUBA,43.50,,17,GPS,,16.00,F,F*15
$GPRMC,162013,A,2921.806000,N,11945.335000,E,16.00,189.07,20161023,,,D*4C
$PTUBA,43.50,,17,GPS,,24.00,F,F*14
$GPRMC,162014,A,2921.801000,N,11945.335000,E,16.00,197.65,20161023,,,D*47
$PTUBA,43.54,,17,GPS,,12.00,F,F*15
$GPRMC,162015,A,2921.797000,N,11945.334000,E,18.00,189.33,20161023,,,D*45
$PTUBA,44.30,,17,GPS,,12.00,F,F*10
$GPRMC,162016,A,2921.795000,N,11945.334000,E,18.00,194.49,20161023,,,D*45
$PTUBA,44.36,,17,GPS,,12.00,F,F*16
$GPRMC,162017,A,2921.792000,N,11945.333000,E,16.00,196.38,20161023,,,D*4E
$PTUBA,44.44,,17,GPS,,24.00,F,F*16
$GPRMC,162018,A,2921.789000,N,11945.332000,E,16.00,198.16,20161023,,,D*48
$PTUBA,44.54,,16,GPS,,8.00,F,F*28
$GPRMC,162019,A,2921.787000,N,11945.330000,E,16.00,227.01,20161023,,,D*44
$PTUBA,44.69,,17,GPS,,8.00,F,F*27
$GPRMC,162020,A,2921.786000,N,11945.326000,E,14.00,257.46,20161023,,,D*4E
$PTUBA,44.87,,17,GPS,,16.00,F,F*18
$GPRMC,162021,A,2921.785000,N,11945.322000,E,14.00,252.09,20161023,,,D*46
$PTUBA,45.03,,17,GPS,,8.00,F,F*2A
$GPRMC,162022,A,2921.783000,N,11945.317000,E,12.00,255.50,20161023,,,D*48
$PTUBA,45.18,,17,GPS,,8.00,F,F*20
$GPRMC,162023,A,2921.782000,N,11945.312000,E,12.00,256.89,20161023,,,D*4A
$PTUBA,45.30,,17,GPS,,8.00,F,F*2A
$GPRMC,162024,A,2921.781000,N,11945.308000,E,14.00,256.32,20161023,,,D*43
$PTUBA,45.42,,17,GPS,,8.00,F,F*2F
$GPRMC,162025,A,2921.781000,N,11945.303000,E,14.00,258.01,20161023,,,D*47
$PTUBA,45.48,,17,GPS,,8.00,F,F*25
$GPRMC,162026,A,2921.780000,N,11945.299000,E,15.00,257.60,20161023,,,D*4E
$PTUBA,45.51,,16,GPS,,8.00,F,F*2C
$GPRMC,162027,A,2921.778000,N,11945.295000,E,15.00,254.66,20161023,,,D*41
$PTUBA,45.55,,16,GPS,,8.00,F,F*28
$GPRMC,162028,A,2921.777000,N,11945.292000,E,12.00,252.04,20161023,,,D*43
$PTUBA,45.59,,16,GPS,,8.00,F,F*24
$GPRMC,162029,A,2921.776000,N,11945.288000,E,12.00,250.66,20161023,,,D*4E
$PTUBA,45.60,,15,GPS,,8.00,F,F*2D
$GPRMC,162030,A,2921.774000,N,11945.285000,E,12.00,249.41,20161023,,,D*44
$PTUBA,45.58,,15,GPS,,8.00,F,F*26
$GPRMC,162031,A,2921.774000,N,11945.282000,E,11.00,270.36,20161023,,,D*4B
$PTUBA,45.56,,15,GPS,,8.00,F,F*28
$GPRMC,162032,A,2921.773000,N,11945.280000,E,11.00,269.76,20161023,,,D*41
$PTUBA,45.53,,16,GPS,,8.00,F,F*2E
$GPRMC,162033,A,2921.772000,N,11945.279000,E,10.00,244.51,20161023,,,D*4C
$PTUBA,45.51,,15,GPS,,8.00,F,F*2F
