$GPRMC,154045,A,2921.051000,N,11953.867000,E,4.00,83.75,20161023,,,D*46
$PTUBA,92.10,,10,GPS,,6.00,F,F*2B
$GPRMC,154054,A,2921.047000,N,11953.868000,E,7.00,185.49,20161023,,,D*75
$PTUBA,92.74,,10,GPS,,8.00,F,F*27
$GPRMC,154055,A,2921.045000,N,11953.868000,E,7.00,186.15,20161023,,,D*7C
$PTUBA,92.84,,10,GPS,,8.00,F,F*28
$GPRMC,154056,A,2921.043000,N,11953.868000,E,9.00,191.60,20161023,,,D*73
$PTUBA,92.94,,10,GPS,,8.00,F,F*29
$GPRMC,154057,A,2921.042000,N,11953.867000,E,9.00,201.86,20161023,,,D*7E
$PTUBA,93.04,,10,GPS,,8.00,F,F*21
$GPRMC,154058,A,2921.041000,N,11953.866000,E,9.00,226.82,20161023,,,D*72
$PTUBA,93.13,,10,GPS,,8.00,F,F*27
$GPRMC,154059,A,2921.042000,N,11953.863000,E,9.00,250.53,20161023,,,D*78
$PTUBA,93.12,,10,GPS,,8.00,F,F*26
$GPRMC,154100,A,2921.041000,N,11953.860000,E,9.00,262.15,20161023,,,D*76
$PTUBA,93.13,,11,GPS,,8.00,F,F*26
$GPRMC,154101,A,2921.041000,N,11953.857000,E,9.00,260.31,20161023,,,D*77
$PTUBA,93.18,,11,GPS,,12.00,F,F*16
$GPRMC,154102,A,2921.040000,N,11953.852000,E,9.00,261.01,20161023,,,D*72
$PTUBA,93.18,,11,GPS,,12.00,F,F*16
$GPRMC,154103,A,2921.039000,N,11953.848000,E,11.00,262.78,20161023,,,D*42
$PTUBA,93.18,,11,GPS,,12.00,F,F*16
$GPRMC,154104,A,2921.039000,N,11953.843000,E,11.00,264.81,20161023,,,D*4E
$PTUBA,93.08,,11,GPS,,12.00,F,F*17
$GPRMC,154105,A,2921.038000,N,11953.838000,E,15.00,265.32,20161023,,,D*4F
$PTUBA,93.33,,11,GPS,,8.00,F,F*24
$GPRMC,154106,A,2921.038000,N,11953.833000,E,15.00,264.81,20161023,,,D*4E
$PTUBA,93.73,,11,GPS,,8.00,F,F*20
$GPRMC,154107,A,2921.037000,N,11953.829000,E,17.00,265.68,20161023,,,D*4F
$PTUBA,94.16,,11,GPS,,8.00,F,F*24
$GPRMC,154108,A,2921.037000,N,11953.824000,E,17.00,266.66,20161023,,,D*40
$PTUBA,94.20,,10,GPS,,8.00,F,F*20
$GPRMC,154109,A,2921.037000,N,11953.820000,E,16.00,267.43,20161023,,,D*42
$PTUBA,94.26,,11,GPS,,8.00,F,F*27
$GPRMC,154110,A,2921.037000,N,11953.816000,E,16.00,268.32,20161023,,,D*46
$PTUBA,94.96,,11,GPS,,8.00,F,F*2C
$GPRMC,154111,A,2921.036000,N,11953.811000,E,16.00,266.83,20161023,,,D*45
$PTUBA,95.74,,11,GPS,,8.00,F,F*21
$GPRMC,154112,A,2921.036000,N,11953.805000,E,17.00,265.36,20161023,,,D*4F
$PTUBA,96.37,,11,GPS,,8.00,F,F*25
$GPRMC,154113,A,2921.035000,N,11953.800000,E,17.00,262.48,20161023,,,D*46
$PTUBA,96.73,,10,GPS,,8.00,F,F*24
$GPRMC,154114,A,2921.033000,N,11953.796000,E,18.00,248.07,20161023,,,D*4B
$PTUBA,97.02,,10,GPS,,8.00,F,F*23
$GPRMC,154115,A,2921.032000,N,11953.791000,E,18.00,246.14,20161023,,,D*40
$PTUBA,97.21,,10,GPS,,8.00,F,F*22
$GPRMC,154116,A,2921.030000,N,11953.787000,E,20.00,244.11,20161023,,,D*4A
$PTUBA,97.29,,11,GPS,,12.00,F,F*10
$GPRMC,154117,A,2921.027000,N,11953.782000,E,20.00,238.32,20161023,,,D*42
$PTUBA,97.06,,13,GPS,,12.00,F,F*1F
$GPRMC,154118,A,2921.024000,N,11953.779000,E,17.00,230.60,20161023,,,D*41
$PTUBA,97.01,,12,GPS,,12.00,F,F*19
$GPRMC,154119,A,2921.021000,N,11953.776000,E,17.00,236.48,20161023,,,D*46
$PTUBA,96.90,,13,GPS,,12.00,F,F*11
$GPRMC,154120,A,2921.018000,N,11953.774000,E,17.00,216.60,20161023,,,D*4C
$PTUBA,96.70,,13,GPS,,12.00,F,F*1F
$GPRMC,154121,A,2921.014000,N,11953.772000,E,18.00,210.03,20161023,,,D*4B
$PTUBA,96.16,,15,GPS,,12.00,F,F*19
$GPRMC,154122,A,2921.011000,N,11953.771000,E,18.00,208.53,20161023,,,D*42
$PTUBA,96.65,,16,GPS,,12.00,F,F*1E
$GPRMC,154123,A,2921.008000,N,11953.770000,E,18.00,207.20,20161023,,,D*41
$PTUBA,96.63,,16,GPS,,12.00,F,F*18
$GPRMC,154124,A,2921.004000,N,11953.769000,E,18.00,190.51,20161023,,,D*49
$PTUBA,95.87,,16,GPS,,16.00,F,F*15
$GPRMC,154125,A,2921.000000,N,11953.769000,E,20.00,200.26,20161023,,,D*4D
$PTUBA,95.24,,16,GPS,,16.00,F,F*1C
$GPRMC,154126,A,2920.995000,N,11953.769000,E,20.00,178.70,20161023,,,D*45
$PTUBA,94.36,,15,GPS,,12.00,F,F*19
$GPRMC,154127,A,2920.988000,N,11953.768000,E,24.00,179.20,20161023,,,D*49
$PTUBA,94.03,,16,GPS,,12.00,F,F*1C
$GPRMC,154128,A,2920.980000,N,11953.768000,E,24.00,180.89,20161023,,,D*4B
$PTUBA,94.02,,15,GPS,,12.00,F,F*1E
$GPRMC,154129,A,2920.972000,N,11953.767000,E,24.00,182.93,20161023,,,D*41
$PTUBA,94.18,,15,GPS,,12.00,F,F*15
$GPRMC,154130,A,2920.965000,N,11953.765000,E,28.00,186.86,20161023,,,D*41
$PTUBA,94.42,,16,GPS,,12.00,F,F*19
$GPRMC,154131,A,2920.958000,N,11953.762000,E,28.00,199.72,20161023,,,D*4C
$PTUBA,94.92,,16,GPS,,12.00,F,F*14
$GPRMC,154132,A,2920.953000,N,11953.760000,E,27.00,200.70,20161023,,,D*48
$PTUBA,95.60,,16,GPS,,12.00,F,F*18
$GPRMC,154133,A,2920.948000,N,11953.758000,E,27.00,199.75,20161023,,,D*4E
$PTUBA,95.95,,14,GPS,,12.00,F,F*10
$GPRMC,154134,A,2920.944000,N,11953.758000,E,23.00,186.21,20161023,,,D*4E
$PTUBA,95.99,,16,GPS,,12.00,F,F*1E
$GPRMC,154135,A,2920.939000,N,11953.760000,E,23.00,164.41,20161023,,,D*44
$PTUBA,95.92,,16,GPS,,12.00,F,F*15
$GPRMC,154136,A,2920.934000,N,11953.762000,E,20.00,161.54,20161023,,,D*4A
$PTUBA,95.81,,15,GPS,,8.00,F,F*2F
$GPRMC,154137,A,2920.928000,N,11953.765000,E,20.00,159.64,20161023,,,D*49
$PTUBA,95.48,,15,GPS,,8.00,F,F*2A
$GPRMC,154138,A,2920.922000,N,11953.767000,E,27.00,159.97,20161023,,,D*45
$PTUBA,95.30,,15,GPS,,8.00,F,F*25
$GPRMC,154139,A,2920.915000,N,11953.770000,E,27.00,158.36,20161023,,,D*4C
$PTUBA,94.82,,16,GPS,,8.00,F,F*2E
$GPRMC,154140,A,2920.908000,N,11953.773000,E,27.00,159.40,20161023,,,D*4D
$PTUBA,94.52,,16,GPS,,8.00,F,F*23
$GPRMC,154141,A,2920.903000,N,11953.776000,E,29.00,159.90,20161023,,,D*41
$PTUBA,94.34,,15,GPS,,8.00,F,F*20
$GPRMC,154142,A,2920.897000,N,11953.778000,E,29.00,160.39,20161023,,,D*49
$PTUBA,94.23,,15,GPS,,8.00,F,F*26
$GPRMC,154143,A,2920.890000,N,11953.781000,E,28.00,160.81,20161023,,,D*4B
$PTUBA,94.14,,14,GPS,,8.00,F,F*23
$GPRMC,154144,A,2920.884000,N,11953.783000,E,28.00,161.44,20161023,,,D*43
$PTUBA,93.80,,15,GPS,,8.00,F,F*28
$GPRMC,154145,A,2920.877000,N,11953.785000,E,27.00,162.01,20161023,,,D*45
$PTUBA,93.41,,15,GPS,,8.00,F,F*25
$GPRMC,154146,A,2920.871000,N,11953.788000,E,27.00,162.73,20161023,,,D*48
$PTUBA,92.68,,15,GPS,,8.00,F,F*2F
$GPRMC,154147,A,2920.865000,N,11953.790000,E,26.00,162.31,20161023,,,D*42
$PTUBA,92.04,,15,GPS,,8.00,F,F*25
$GPRMC,154148,A,2920.859000,N,11953.791000,E,26.00,163.29,20161023,,,D*4B
$PTUBA,91.45,,14,GPS,,6.00,F,F*2C
$GPRMC,154149,A,2920.854000,N,11953.792000,E,26.00,166.77,20161023,,,D*4A
$PTUBA,90.69,,14,GPS,,6.00,F,F*23
$GPRMC,154150,A,2920.848000,N,11953.792000,E,26.00,181.24,20161023,,,D*40
$PTUBA,90.31,,14,GPS,,6.00,F,F*2E
$GPRMC,154151,A,2920.843000,N,11953.792000,E,26.00,181.39,20161023,,,D*46
$PTUBA,90.22,,14,GPS,,6.00,F,F*2C
$GPRMC,154152,A,2920.838000,N,11953.792000,E,23.00,182.16,20161023,,,D*42
$PTUBA,90.20,,15,GPS,,8.00,F,F*21
$GPRMC,154153,A,2920.833000,N,11953.791000,E,23.00,182.84,20161023,,,D*40
$PTUBA,90.15,,15,GPS,,6.00,F,F*29
$GPRMC,154154,A,2920.828000,N,11953.791000,E,23.00,186.19,20161023,,,D*4D
$PTUBA,89.98,,16,GPS,,6.00,F,F*27
$GPRMC,154155,A,2920.823000,N,11953.790000,E,23.00,189.42,20161023,,,D*47
$PTUBA,89.70,,16,GPS,,6.00,F,F*21
$GPRMC,154156,A,2920.818000,N,11953.788000,E,24.00,192.47,20161023,,,D*4D
$PTUBA,89.32,,15,GPS,,6.00,F,F*24
$GPRMC,154157,A,2920.813000,N,11953.785000,E,24.00,193.42,20161023,,,D*4E
$PTUBA,88.86,,15,GPS,,8.00,F,F*24
$GPRMC,154158,A,2920.807000,N,11953.784000,E,24.00,192.54,20161023,,,D*43
$PTUBA,88.34,,15,GPS,,8.00,F,F*2D
$GPRMC,154159,A,2920.801000,N,11953.784000,E,24.00,179.37,20161023,,,D*44
$PTUBA,88.00,,15,GPS,,4.00,F,F*26
$GPRMC,154200,A,2920.795000,N,11953.784000,E,24.00,179.90,20161023,,,D*44
$PTUBA,88.02,,15,GPS,,6.00,F,F*26
$GPRMC,154201,A,2920.790000,N,11953.784000,E,26.00,179.92,20161023,,,D*40
$PTUBA,88.19,,15,GPS,,6.00,F,F*2C
$GPRMC,154202,A,2920.785000,N,11953.784000,E,26.00,181.30,20161023,,,D*48
$PTUBA,88.30,,16,GPS,,6.00,F,F*24
$GPRMC,154203,A,2920.781000,N,11953.784000,E,23.00,180.76,20161023,,,D*4B
$PTUBA,88.22,,16,GPS,,6.00,F,F*27
$GPRMC,154204,A,2920.778000,N,11953.781000,E,23.00,223.23,20161023,,,D*45
$PTUBA,88.21,,17,GPS,,8.00,F,F*2B
$GPRMC,154205,A,2920.776000,N,11953.776000,E,17.00,245.11,20161023,,,D*44
$PTUBA,88.21,,17,GPS,,8.00,F,F*2B
$GPRMC,154206,A,2920.774000,N,11953.772000,E,17.00,247.39,20161023,,,D*49
$PTUBA,88.20,,15,GPS,,8.00,F,F*28
$GPRMC,154207,A,2920.772000,N,11953.768000,E,13.00,249.80,20161023,,,D*4D
$PTUBA,88.19,,15,GPS,,6.00,F,F*2C
$GPRMC,154208,A,2920.771000,N,11953.763000,E,13.00,251.28,20161023,,,D*41
$PTUBA,88.04,,17,GPS,,6.00,F,F*22
$GPRMC,154209,A,2920.769000,N,11953.759000,E,13.00,252.45,20161023,,,D*48
$PTUBA,87.87,,17,GPS,,6.00,F,F*26
$GPRMC,154210,A,2920.769000,N,11953.754000,E,17.00,253.75,20161023,,,D*4B
$PTUBA,87.81,,16,GPS,,6.00,F,F*21
$GPRMC,154211,A,2920.768000,N,11953.750000,E,17.00,253.42,20161023,,,D*4B
$PTUBA,87.84,,15,GPS,,8.00,F,F*29
$GPRMC,154212,A,2920.766000,N,11953.747000,E,18.00,232.11,20161023,,,D*4E
$PTUBA,87.84,,16,GPS,,6.00,F,F*24
$GPRMC,154213,A,2920.763000,N,11953.745000,E,18.00,213.39,20161023,,,D*41
$PTUBA,87.83,,16,GPS,,6.00,F,F*23
$GPRMC,154214,A,2920.760000,N,11953.743000,E,15.00,203.92,20161023,,,D*4E
$PTUBA,87.84,,16,GPS,,6.00,F,F*24
$GPRMC,154215,A,2920.756000,N,11953.745000,E,15.00,160.38,20161023,,,D*4A
$PTUBA,87.88,,15,GPS,,6.00,F,F*2B
$GPRMC,154216,A,2920.751000,N,11953.747000,E,20.00,160.03,20161023,,,D*42
$PTUBA,87.69,,16,GPS,,8.00,F,F*29
$GPRMC,154217,A,2920.747000,N,11953.749000,E,20.00,157.08,20161023,,,D*45
$PTUBA,87.33,,16,GPS,,8.00,F,F*26
$GPRMC,154218,A,2920.742000,N,11953.751000,E,20.00,158.74,20161023,,,D*42
$PTUBA,87.22,,14,GPS,,8.00,F,F*24
$GPRMC,154219,A,2920.737000,N,11953.753000,E,24.00,158.74,20161023,,,D*47
$PTUBA,87.03,,14,GPS,,8.00,F,F*27
$GPRMC,154220,A,2920.730000,N,11953.755000,E,24.00,165.32,20161023,,,D*40
$PTUBA,86.92,,14,GPS,,12.00,F,F*15
$GPRMC,154221,A,2920.723000,N,11953.757000,E,27.00,167.13,20161023,,,D*43
$PTUBA,86.91,,15,GPS,,12.00,F,F*17
$GPRMC,154222,A,2920.717000,N,11953.759000,E,27.00,165.81,20161023,,,D*40
$PTUBA,86.70,,16,GPS,,8.00,F,F*20
$GPRMC,154223,A,2920.710000,N,11953.762000,E,28.00,164.91,20161023,,,D*41
$PTUBA,86.35,,15,GPS,,8.00,F,F*22
$GPRMC,154224,A,2920.704000,N,11953.765000,E,28.00,163.53,20161023,,,D*4D
$PTUBA,86.16,,15,GPS,,8.00,F,F*23
$GPRMC,154225,A,2920.697000,N,11953.768000,E,28.00,160.68,20161023,,,D*41
$PTUBA,85.85,,14,GPS,,8.00,F,F*2B
$GPRMC,154226,A,2920.692000,N,11953.771000,E,28.00,156.03,20161023,,,D*47
$PTUBA,85.71,,15,GPS,,6.00,F,F*2F
$GPRMC,154227,A,2920.685000,N,11953.774000,E,28.00,157.22,20161023,,,D*47
$PTUBA,85.55,,14,GPS,,6.00,F,F*28
$GPRMC,154228,A,2920.680000,N,11953.775000,E,28.00,171.88,20161023,,,D*48
$PTUBA,85.18,,13,GPS,,8.00,F,F*28
$GPRMC,154229,A,2920.675000,N,11953.776000,E,28.00,164.36,20161023,,,D*41
$PTUBA,84.92,,14,GPS,,8.00,F,F*2C
$GPRMC,154230,A,2920.668000,N,11953.779000,E,27.00,162.55,20161023,,,D*46
$PTUBA,84.61,,14,GPS,,8.00,F,F*20
$GPRMC,154231,A,2920.663000,N,11953.781000,E,27.00,162.01,20161023,,,D*4A
$PTUBA,84.19,,14,GPS,,8.00,F,F*2F
$GPRMC,154232,A,2920.658000,N,11953.783000,E,27.00,161.37,20161023,,,D*45
$PTUBA,83.89,,14,GPS,,12.00,F,F*1A
$GPRMC,154233,A,2920.655000,N,11953.784000,E,27.00,164.87,20161023,,,D*40
$PTUBA,83.88,,13,GPS,,16.00,F,F*18
$GPRMC,154234,A,2920.651000,N,11953.784000,E,25.00,169.22,20161023,,,D*43
$PTUBA,83.86,,13,GPS,,16.00,F,F*16
$GPRMC,154235,A,2920.649000,N,11953.785000,E,25.00,165.70,20161023,,,D*41
$PTUBA,83.83,,13,GPS,,12.00,F,F*17
$GPRMC,154236,A,2920.647000,N,11953.787000,E,11.00,163.70,20161023,,,D*4F
$PTUBA,83.80,,15,GPS,,12.00,F,F*12
$GPRMC,154237,A,2920.645000,N,11953.787000,E,11.00,183.83,20161023,,,D*4E
$PTUBA,83.76,,15,GPS,,8.00,F,F*20
$GPRMC,154238,A,2920.644000,N,11953.785000,E,11.00,213.24,20161023,,,D*45
$PTUBA,83.72,,14,GPS,,8.00,F,F*25
$GPRMC,154239,A,2920.642000,N,11953.784000,E,5.00,234.41,20161023,,,D*70
$PTUBA,83.68,,14,GPS,,8.00,F,F*2E
$GPRMC,154240,A,2920.642000,N,11953.783000,E,5.00,260.46,20161023,,,D*7F
$PTUBA,83.63,,13,GPS,,6.00,F,F*2C
$GPRMC,154241,A,2920.642000,N,11953.779000,E,8.00,275.35,20161023,,,D*76
$PTUBA,83.61,,13,GPS,,6.00,F,F*2E
$GPRMC,154242,A,2920.642000,N,11953.774000,E,8.00,276.17,20161023,,,D*7B
$PTUBA,83.50,,14,GPS,,6.00,F,F*2B
$GPRMC,154243,A,2920.642000,N,11953.769000,E,14.00,277.58,20161023,,,D*41
$PTUBA,83.58,,14,GPS,,8.00,F,F*2D
$GPRMC,154244,A,2920.643000,N,11953.763000,E,14.00,278.43,20161023,,,D*48
$PTUBA,83.71,,14,GPS,,8.00,F,F*26
$GPRMC,154245,A,2920.644000,N,11953.757000,E,21.00,279.70,20161023,,,D*4E
$PTUBA,84.17,,15,GPS,,8.00,F,F*20
$GPRMC,154246,A,2920.645000,N,11953.752000,E,21.00,279.47,20161023,,,D*4D
$PTUBA,84.51,,15,GPS,,8.00,F,F*22
$GPRMC,154247,A,2920.647000,N,11953.747000,E,22.00,278.77,20161023,,,D*4B
$PTUBA,85.02,,16,GPS,,12.00,F,F*1D
$GPRMC,154248,A,2920.647000,N,11953.743000,E,22.00,275.89,20161023,,,D*4C
$PTUBA,85.09,,16,GPS,,12.00,F,F*16
$GPRMC,154249,A,2920.646000,N,11953.740000,E,22.00,250.27,20161023,,,D*4C
$PTUBA,85.19,,16,GPS,,12.00,F,F*17
$GPRMC,154250,A,2920.644000,N,11953.737000,E,16.00,227.22,20161023,,,D*44
$PTUBA,85.28,,15,GPS,,12.00,F,F*16
$GPRMC,154251,A,2920.641000,N,11953.736000,E,16.00,198.82,20161023,,,D*4C
$PTUBA,85.36,,14,GPS,,8.00,F,F*23
$GPRMC,154252,A,2920.639000,N,11953.736000,E,14.00,194.77,20161023,,,D*44
$PTUBA,85.45,,15,GPS,,8.00,F,F*26
$GPRMC,154253,A,2920.636000,N,11953.735000,E,14.00,188.08,20161023,,,D*4C
$PTUBA,85.54,,15,GPS,,12.00,F,F*1D
$GPRMC,154254,A,2920.632000,N,11953.735000,E,13.00,191.12,20161023,,,D*4B
$PTUBA,85.63,,15,GPS,,12.00,F,F*19
$GPRMC,154255,A,2920.628000,N,11953.734000,E,13.00,189.76,20161023,,,D*4B
$PTUBA,85.74,,15,GPS,,12.00,F,F*1F
$GPRMC,154256,A,2920.623000,N,11953.732000,E,17.00,197.81,20161023,,,D*46
$PTUBA,86.72,,15,GPS,,12.00,F,F*1A
$GPRMC,154257,A,2920.619000,N,11953.730000,E,17.00,195.77,20161023,,,D*47
$PTUBA,87.51,,15,GPS,,12.00,F,F*1A
$GPRMC,154258,A,2920.615000,N,11953.729000,E,17.00,193.42,20161023,,,D*4C
$PTUBA,87.55,,14,GPS,,12.00,F,F*1F
$GPRMC,154259,A,2920.611000,N,11953.728000,E,16.00,194.34,20161023,,,D*4F
$PTUBA,87.59,,14,GPS,,12.00,F,F*13
$GPRMC,154300,A,2920.608000,N,11953.727000,E,16.00,187.35,20161023,,,D*46
$PTUBA,87.87,,15,GPS,,12.00,F,F*11
$GPRMC,154301,A,2920.604000,N,11953.727000,E,17.00,187.35,20161023,,,D*4A
$PTUBA,88.17,,15,GPS,,12.00,F,F*17
$GPRMC,154302,A,2920.600000,N,11953.728000,E,17.00,182.48,20161023,,,D*4D
$PTUBA,87.68,,16,GPS,,12.00,F,F*13
$GPRMC,154303,A,2920.593000,N,11953.727000,E,21.00,184.65,20161023,,,D*46
$PTUBA,86.96,,15,GPS,,12.00,F,F*10
$GPRMC,154304,A,2920.586000,N,11953.726000,E,21.00,188.84,20161023,,,D*47
$PTUBA,85.91,,15,GPS,,12.00,F,F*14
$GPRMC,154305,A,2920.579000,N,11953.725000,E,24.00,186.29,20161023,,,D*49
$PTUBA,85.15,,15,GPS,,8.00,F,F*23
$GPRMC,154306,A,2920.574000,N,11953.725000,E,24.00,178.37,20161023,,,D*49
$PTUBA,85.09,,15,GPS,,8.00,F,F*2E
$GPRMC,154307,A,2920.568000,N,11953.722000,E,24.00,198.77,20161023,,,D*48
$PTUBA,84.55,,14,GPS,,8.00,F,F*27
$GPRMC,154308,A,2920.562000,N,11953.720000,E,23.00,201.79,20161023,,,D*45
$PTUBA,84.12,,14,GPS,,8.00,F,F*24
$GPRMC,154309,A,2920.557000,N,11953.715000,E,23.00,217.81,20161023,,,D*44
$PTUBA,83.79,,14,GPS,,8.00,F,F*2E
$GPRMC,154310,A,2920.551000,N,11953.711000,E,24.00,216.39,20161023,,,D*4B
$PTUBA,83.45,,14,GPS,,8.00,F,F*21
$GPRMC,154311,A,2920.545000,N,11953.706000,E,24.00,212.93,20161023,,,D*4D
$PTUBA,82.91,,14,GPS,,8.00,F,F*29
$GPRMC,154312,A,2920.539000,N,11953.702000,E,27.00,213.68,20161023,,,D*47
$PTUBA,82.14,,14,GPS,,8.00,F,F*24
$GPRMC,154313,A,2920.534000,N,11953.698000,E,27.00,214.68,20161023,,,D*4E
$PTUBA,81.38,,14,GPS,,8.00,F,F*29
$GPRMC,154314,A,2920.528000,N,11953.694000,E,27.00,216.66,20161023,,,D*44
$PTUBA,81.01,,14,GPS,,8.00,F,F*23
$GPRMC,154315,A,2920.523000,N,11953.690000,E,27.00,216.35,20161023,,,D*4C
$PTUBA,80.53,,14,GPS,,8.00,F,F*25
$GPRMC,154316,A,2920.518000,N,11953.687000,E,26.00,208.31,20161023,,,D*4B
$PTUBA,79.98,,14,GPS,,8.00,F,F*24
$GPRMC,154317,A,2920.512000,N,11953.685000,E,26.00,198.73,20161023,,,D*4E
$PTUBA,79.55,,14,GPS,,8.00,F,F*25
$GPRMC,154318,A,2920.505000,N,11953.682000,E,26.00,201.10,20161023,,,D*46
$PTUBA,79.30,,14,GPS,,8.00,F,F*26
$GPRMC,154319,A,2920.500000,N,11953.679000,E,25.00,204.83,20161023,,,D*4A
$PTUBA,79.36,,14,GPS,,8.00,F,F*20
$GPRMC,154320,A,2920.495000,N,11953.676000,E,25.00,208.68,20161023,,,D*4B
$PTUBA,79.33,,14,GPS,,12.00,F,F*1E
$GPRMC,154321,A,2920.491000,N,11953.673000,E,25.00,209.86,20161023,,,D*4A
$PTUBA,79.25,,14,GPS,,16.00,F,F*1D
$GPRMC,154322,A,2920.487000,N,11953.670000,E,25.00,210.36,20161023,,,D*4E
$PTUBA,79.36,,14,GPS,,8.00,F,F*20
$GPRMC,154323,A,2920.483000,N,11953.668000,E,22.00,209.64,20161023,,,D*4A
$PTUBA,79.36,,14,GPS,,8.00,F,F*20
$GPRMC,154324,A,2920.479000,N,11953.666000,E,22.00,199.35,20161023,,,D*48
$PTUBA,79.63,,15,GPS,,8.00,F,F*21
$GPRMC,154325,A,2920.475000,N,11953.665000,E,20.00,195.58,20161023,,,D*43
$PTUBA,80.01,,15,GPS,,8.00,F,F*23
$GPRMC,154326,A,2920.471000,N,11953.666000,E,20.00,168.06,20161023,,,D*4E
$PTUBA,80.43,,15,GPS,,6.00,F,F*2B
$GPRMC,154327,A,2920.465000,N,11953.668000,E,20.00,164.79,20161023,,,D*40
$PTUBA,80.88,,14,GPS,,6.00,F,F*2D
$GPRMC,154328,A,2920.459000,N,11953.670000,E,22.00,161.17,20161023,,,D*46
$PTUBA,81.12,,14,GPS,,6.00,F,F*2F
$GPRMC,154329,A,2920.454000,N,11953.673000,E,22.00,158.70,20161023,,,D*42
$PTUBA,81.32,,14,GPS,,6.00,F,F*2D
$GPRMC,154330,A,2920.448000,N,11953.676000,E,27.00,156.73,20161023,,,D*4A
$PTUBA,81.59,,14,GPS,,8.00,F,F*2E
$GPRMC,154331,A,2920.442000,N,11953.679000,E,27.00,156.11,20161023,,,D*4A
$PTUBA,81.77,,16,GPS,,16.00,F,F*1F
$GPRMC,154332,A,2920.436000,N,11953.682000,E,28.00,155.67,20161023,,,D*43
$PTUBA,81.99,,16,GPS,,8.00,F,F*20
$GPRMC,154333,A,2920.428000,N,11953.686000,E,28.00,154.69,20161023,,,D*46
$PTUBA,82.48,,16,GPS,,8.00,F,F*2F
$GPRMC,154334,A,2920.420000,N,11953.690000,E,34.00,154.67,20161023,,,D*4D
$PTUBA,82.90,,16,GPS,,16.00,F,F*15
$GPRMC,154335,A,2920.412000,N,11953.694000,E,34.00,156.38,20161023,,,D*41
$PTUBA,83.23,,16,GPS,,16.00,F,F*1C
$GPRMC,154336,A,2920.403000,N,11953.697000,E,37.00,156.86,20161023,,,D*47
$PTUBA,83.39,,16,GPS,,12.00,F,F*13
$GPRMC,154337,A,2920.394000,N,11953.700000,E,37.00,156.38,20161023,,,D*45
$PTUBA,83.62,,15,GPS,,12.00,F,F*1E
$GPRMC,154338,A,2920.384000,N,11953.704000,E,37.00,153.97,20161023,,,D*4F
$PTUBA,83.86,,15,GPS,,6.00,F,F*21
$GPRMC,154339,A,2920.376000,N,11953.709000,E,38.00,152.72,20161023,,,D*4B
$PTUBA,83.71,,15,GPS,,8.00,F,F*27
$GPRMC,154340,A,2920.369000,N,11953.714000,E,38.00,152.96,20161023,,,D*4D
$PTUBA,82.85,,15,GPS,,8.00,F,F*2D
$GPRMC,154341,A,2920.362000,N,11953.719000,E,40.00,152.09,20161023,,,D*43
$PTUBA,82.18,,15,GPS,,6.00,F,F*27
$GPRMC,154342,A,2920.354000,N,11953.724000,E,40.00,152.55,20161023,,,D*42
$PTUBA,81.67,,15,GPS,,6.00,F,F*2C
$GPRMC,154343,A,2920.347000,N,11953.728000,E,39.00,153.62,20161023,,,D*46
$PTUBA,81.08,,15,GPS,,6.00,F,F*25
$GPRMC,154344,A,2920.339000,N,11953.732000,E,39.00,155.12,20161023,,,D*42
$PTUBA,80.76,,15,GPS,,6.00,F,F*2D
$GPRMC,154345,A,2920.330000,N,11953.736000,E,39.00,154.52,20161023,,,D*4B
$PTUBA,80.77,,16,GPS,,8.00,F,F*21
$GPRMC,154346,A,2920.322000,N,11953.739000,E,39.00,154.96,20161023,,,D*4C
$PTUBA,80.85,,16,GPS,,6.00,F,F*22
$GPRMC,154347,A,2920.315000,N,11953.743000,E,39.00,147.96,20161023,,,D*46
$PTUBA,80.79,,16,GPS,,12.00,F,F*14
$GPRMC,154348,A,2920.308000,N,11953.748000,E,39.00,148.31,20161023,,,D*4C
$PTUBA,80.38,,16,GPS,,12.00,F,F*11
$GPRMC,154349,A,2920.302000,N,11953.752000,E,39.00,150.35,20161023,,,D*41
$PTUBA,79.77,,17,GPS,,12.00,F,F*1D
$GPRMC,154350,A,2920.295000,N,11953.755000,E,34.00,154.18,20161023,,,D*47
$PTUBA,79.25,,16,GPS,,8.00,F,F*20
$GPRMC,154351,A,2920.288000,N,11953.758000,E,34.00,153.84,20161023,,,D*45
$PTUBA,78.87,,16,GPS,,6.00,F,F*27
$GPRMC,154352,A,2920.281000,N,11953.762000,E,35.00,152.89,20161023,,,D*4B
$PTUBA,78.50,,16,GPS,,6.00,F,F*2D
$GPRMC,154353,A,2920.274000,N,11953.765000,E,35.00,153.57,20161023,,,D*45
$PTUBA,78.44,,15,GPS,,6.00,F,F*2B
$GPRMC,154354,A,2920.267000,N,11953.768000,E,31.00,157.32,20161023,,,D*4E
$PTUBA,78.38,,15,GPS,,6.00,F,F*20
$GPRMC,154355,A,2920.260000,N,11953.768000,E,31.00,182.40,20161023,,,D*45
$PTUBA,78.19,,15,GPS,,6.00,F,F*23
$GPRMC,154356,A,2920.251000,N,11953.767000,E,31.00,184.66,20161023,,,D*49
$PTUBA,77.67,,15,GPS,,6.00,F,F*25
$GPRMC,154357,A,2920.244000,N,11953.767000,E,35.00,183.43,20161023,,,D*48
$PTUBA,76.77,,14,GPS,,6.00,F,F*24
$GPRMC,154358,A,2920.235000,N,11953.767000,E,35.00,181.03,20161023,,,D*47
$PTUBA,75.72,,14,GPS,,6.00,F,F*22
$GPRMC,154359,A,2920.227000,N,11953.768000,E,37.00,179.54,20161023,,,D*4D
$PTUBA,74.78,,14,GPS,,8.00,F,F*27
$GPRMC,154400,A,2920.218000,N,11953.768000,E,37.00,178.40,20161023,,,D*4E
$PTUBA,74.13,,14,GPS,,8.00,F,F*2A
$GPRMC,154401,A,2920.209000,N,11953.769000,E,37.00,179.80,20161023,,,D*43
$PTUBA,73.87,,15,GPS,,6.00,F,F*2F
$GPRMC,154402,A,2920.201000,N,11953.769000,E,37.00,182.12,20161023,,,D*47
$PTUBA,73.81,,15,GPS,,6.00,F,F*29
$GPRMC,154403,A,2920.193000,N,11953.766000,E,35.00,201.23,20161023,,,D*49
$PTUBA,73.91,,14,GPS,,6.00,F,F*29
$GPRMC,154404,A,2920.184000,N,11953.762000,E,35.00,203.11,20161023,,,D*4F
$PTUBA,73.88,,15,GPS,,6.00,F,F*20
$GPRMC,154405,A,2920.176000,N,11953.758000,E,35.00,204.15,20161023,,,D*49
$PTUBA,73.77,,15,GPS,,12.00,F,F*15
$GPRMC,154406,A,2920.167000,N,11953.753000,E,39.00,204.61,20161023,,,D*4E
$PTUBA,73.50,,16,GPS,,12.00,F,F*13
$GPRMC,154407,A,2920.158000,N,11953.749000,E,39.00,204.11,20161023,,,D*4F
$PTUBA,73.09,,16,GPS,,12.00,F,F*1F
$GPRMC,154408,A,2920.150000,N,11953.745000,E,42.00,204.28,20161023,,,D*42
$PTUBA,72.17,,16,GPS,,12.00,F,F*11
$GPRMC,154409,A,2920.140000,N,11953.740000,E,42.00,204.98,20161023,,,D*4C
$PTUBA,71.76,,16,GPS,,8.00,F,F*2E
$GPRMC,154410,A,2920.129000,N,11953.735000,E,44.00,204.63,20161023,,,D*4B
$PTUBA,71.99,,15,GPS,,8.00,F,F*2C
$GPRMC,154411,A,2920.119000,N,11953.730000,E,44.00,204.12,20161023,,,D*4A
$PTUBA,72.85,,16,GPS,,12.00,F,F*1A
$GPRMC,154412,A,2920.108000,N,11953.725000,E,46.00,203.63,20161023,,,D*4E
$PTUBA,74.15,,16,GPS,,12.00,F,F*15
$GPRMC,154413,A,2920.099000,N,11953.721000,E,46.00,204.34,20161023,,,D*47
$PTUBA,75.40,,16,GPS,,8.00,F,F*2F
$GPRMC,154414,A,2920.090000,N,11953.716000,E,46.00,203.18,20161023,,,D*44
$PTUBA,76.58,,15,GPS,,8.00,F,F*26
$GPRMC,154415,A,2920.080000,N,11953.712000,E,42.00,201.12,20161023,,,D*4C
$PTUBA,77.66,,16,GPS,,8.00,F,F*29
$GPRMC,154416,A,2920.071000,N,11953.708000,E,42.00,201.03,20161023,,,D*4A
$PTUBA,78.60,,16,GPS,,8.00,F,F*20
$GPRMC,154417,A,2920.061000,N,11953.704000,E,41.00,202.88,20161023,,,D*45
$PTUBA,79.18,,16,GPS,,12.00,F,F*15
$GPRMC,154418,A,2920.051000,N,11953.699000,E,41.00,204.13,20161023,,,D*48
$PTUBA,79.74,,16,GPS,,12.00,F,F*1F
$GPRMC,154419,A,2920.042000,N,11953.694000,E,41.00,203.02,20161023,,,D*41
$PTUBA,80.15,,16,GPS,,12.00,F,F*1E
$GPRMC,154420,A,2920.034000,N,11953.689000,E,41.00,204.56,20161023,,,D*40
$PTUBA,80.47,,16,GPS,,12.00,F,F*19
$GPRMC,154421,A,2920.026000,N,11953.684000,E,40.00,207.10,20161023,,,D*4F
$PTUBA,80.48,,16,GPS,,8.00,F,F*2D
$GPRMC,154422,A,2920.018000,N,11953.679000,E,40.00,207.60,20161023,,,D*44
$PTUBA,80.38,,16,GPS,,8.00,F,F*2A
$GPRMC,154423,A,2920.010000,N,11953.674000,E,40.00,206.60,20161023,,,D*41
$PTUBA,80.18,,16,GPS,,8.00,F,F*28
$GPRMC,154424,A,2920.002000,N,11953.669000,E,39.00,207.34,20161023,,,D*47
$PTUBA,80.00,,16,GPS,,8.00,F,F*21
$GPRMC,154425,A,2919.994000,N,11953.664000,E,39.00,208.72,20161023,,,D*4A
$PTUBA,79.79,,16,GPS,,8.00,F,F*29
$GPRMC,154426,A,2919.987000,N,11953.659000,E,39.00,208.20,20161023,,,D*42
$PTUBA,79.47,,15,GPS,,12.00,F,F*1C
$GPRMC,154427,A,2919.980000,N,11953.656000,E,39.00,208.29,20161023,,,D*42
$PTUBA,79.09,,15,GPS,,8.00,F,F*2D
$GPRMC,154428,A,2919.973000,N,11953.652000,E,38.00,205.77,20161023,,,D*42
$PTUBA,78.53,,15,GPS,,16.00,F,F*1C
$GPRMC,154429,A,2919.966000,N,11953.648000,E,38.00,206.22,20161023,,,D*4F
$PTUBA,77.71,,15,GPS,,16.00,F,F*13
$GPRMC,154430,A,2919.961000,N,11953.644000,E,34.00,206.74,20161023,,,D*43
$PTUBA,77.09,,16,GPS,,12.00,F,F*1B
$GPRMC,154431,A,2919.956000,N,11953.640000,E,34.00,207.30,20161023,,,D*43
$PTUBA,76.39,,16,GPS,,12.00,F,F*19
$GPRMC,154432,A,2919.952000,N,11953.637000,E,30.00,209.88,20161023,,,D*4D
$PTUBA,75.88,,16,GPS,,12.00,F,F*10
$GPRMC,154433,A,2919.948000,N,11953.633000,E,30.00,210.21,20161023,,,D*48
$PTUBA,75.20,,15,GPS,,12.00,F,F*11
$GPRMC,154434,A,2919.945000,N,11953.630000,E,30.00,208.13,20161023,,,D*49
$PTUBA,74.36,,16,GPS,,8.00,F,F*2F
$GPRMC,154435,A,2919.941000,N,11953.628000,E,24.00,206.75,20161023,,,D*4E
$PTUBA,73.52,,16,GPS,,8.00,F,F*2A
$GPRMC,154436,A,2919.938000,N,11953.626000,E,24.00,205.25,20161023,,,D*4B
$PTUBA,73.47,,16,GPS,,8.00,F,F*2E
$GPRMC,154437,A,2919.936000,N,11953.625000,E,17.00,207.15,20161023,,,D*46
$PTUBA,73.46,,15,GPS,,8.00,F,F*2C
$GPRMC,154438,A,2919.934000,N,11953.623000,E,17.00,231.87,20161023,,,D*43
$PTUBA,73.48,,15,GPS,,8.00,F,F*22
$GPRMC,154439,A,2919.932000,N,11953.620000,E,12.00,235.62,20161023,,,D*4D
$PTUBA,73.51,,15,GPS,,6.00,F,F*24
$GPRMC,154440,A,2919.931000,N,11953.616000,E,12.00,270.61,20161023,,,D*47
$PTUBA,73.95,,15,GPS,,6.00,F,F*2C
$GPRMC,154441,A,2919.933000,N,11953.609000,E,20.00,289.10,20161023,,,D*4B
$PTUBA,74.41,,16,GPS,,6.00,F,F*21
$GPRMC,154442,A,2919.936000,N,11953.601000,E,20.00,292.39,20161023,,,D*44
$PTUBA,74.84,,16,GPS,,6.00,F,F*28
$GPRMC,154443,A,2919.939000,N,11953.593000,E,33.00,292.76,20161023,,,D*4B
$PTUBA,75.24,,16,GPS,,8.00,F,F*2D
$GPRMC,154444,A,2919.942000,N,11953.584000,E,33.00,293.10,20161023,,,D*47
$PTUBA,75.58,,15,GPS,,8.00,F,F*25
$GPRMC,154445,A,2919.946000,N,11953.574000,E,33.00,293.51,20161023,,,D*48
$PTUBA,75.94,,15,GPS,,8.00,F,F*25
$GPRMC,154446,A,2919.950000,N,11953.564000,E,37.00,293.84,20161023,,,D*41
$PTUBA,76.38,,15,GPS,,8.00,F,F*20
$GPRMC,154447,A,2919.953000,N,11953.554000,E,37.00,292.61,20161023,,,D*4A
$PTUBA,77.08,,15,GPS,,6.00,F,F*2C
$GPRMC,154448,A,2919.957000,N,11953.543000,E,43.00,290.20,20161023,,,D*43
$PTUBA,77.69,,15,GPS,,6.00,F,F*2B
$GPRMC,154449,A,2919.958000,N,11953.532000,E,43.00,276.94,20161023,,,D*4C
$PTUBA,78.50,,15,GPS,,6.00,F,F*2E
$GPRMC,154450,A,2919.959000,N,11953.520000,E,44.00,274.08,20161023,,,D*46
$PTUBA,79.15,,15,GPS,,6.00,F,F*2E
$GPRMC,154451,A,2919.959000,N,11953.506000,E,44.00,271.51,20161023,,,D*4A
$PTUBA,79.49,,15,GPS,,6.00,F,F*27
$GPRMC,154452,A,2919.958000,N,11953.492000,E,48.00,269.86,20161023,,,D*4B
$PTUBA,79.55,,16,GPS,,6.00,F,F*29
$GPRMC,154453,A,2919.958000,N,11953.478000,E,48.00,268.78,20161023,,,D*4E
$PTUBA,79.61,,17,GPS,,6.00,F,F*2F
$GPRMC,154454,A,2919.957000,N,11953.463000,E,48.00,268.28,20161023,,,D*49
$PTUBA,79.58,,17,GPS,,6.00,F,F*25
$GPRMC,154455,A,2919.956000,N,11953.447000,E,56.00,267.92,20161023,,,D*4E
$PTUBA,79.50,,16,GPS,,6.00,F,F*2C
$GPRMC,154456,A,2919.955000,N,11953.432000,E,56.00,267.79,20161023,,,D*49
$PTUBA,79.47,,16,GPS,,6.00,F,F*2A
$GPRMC,154457,A,2919.955000,N,11953.416000,E,57.00,268.18,20161023,,,D*47
$PTUBA,79.54,,16,GPS,,6.00,F,F*28
$GPRMC,154458,A,2919.954000,N,11953.401000,E,57.00,268.51,20161023,,,D*42
$PTUBA,79.62,,16,GPS,,6.00,F,F*2D
$GPRMC,154459,A,2919.954000,N,11953.384000,E,59.00,268.86,20161023,,,D*4D
$PTUBA,79.52,,16,GPS,,6.00,F,F*2E
$GPRMC,154500,A,2919.954000,N,11953.368000,E,59.00,268.91,20161023,,,D*44
$PTUBA,79.32,,16,GPS,,6.00,F,F*28
$GPRMC,154501,A,2919.953000,N,11953.352000,E,61.00,268.68,20161023,,,D*46
$PTUBA,79.04,,15,GPS,,6.00,F,F*2E
$GPRMC,154502,A,2919.953000,N,11953.336000,E,61.00,267.72,20161023,,,D*43
$PTUBA,78.72,,15,GPS,,6.00,F,F*2E
$GPRMC,154503,A,2919.952000,N,11953.320000,E,61.00,267.93,20161023,,,D*4B
$PTUBA,78.41,,15,GPS,,6.00,F,F*2E
$GPRMC,154504,A,2919.952000,N,11953.304000,E,61.00,268.85,20161023,,,D*42
$PTUBA,78.18,,15,GPS,,6.00,F,F*22
$GPRMC,154505,A,2919.952000,N,11953.288000,E,61.00,270.31,20161023,,,D*40
$PTUBA,78.03,,16,GPS,,6.00,F,F*2B
$GPRMC,154506,A,2919.953000,N,11953.272000,E,61.00,273.09,20161023,,,D*4F
$PTUBA,77.88,,16,GPS,,6.00,F,F*27
$GPRMC,154507,A,2919.955000,N,11953.257000,E,61.00,276.26,20161023,,,D*47
$PTUBA,77.71,,15,GPS,,6.00,F,F*22
$GPRMC,154508,A,2919.957000,N,11953.241000,E,60.00,278.47,20161023,,,D*45
$PTUBA,77.43,,15,GPS,,6.00,F,F*23
$GPRMC,154509,A,2919.960000,N,11953.226000,E,60.00,278.48,20161023,,,D*4E
$PTUBA,77.04,,15,GPS,,6.00,F,F*20
$GPRMC,154510,A,2919.962000,N,11953.211000,E,59.00,277.90,20161023,,,D*40
$PTUBA,76.71,,14,GPS,,6.00,F,F*22
$GPRMC,154511,A,2919.964000,N,11953.197000,E,59.00,276.46,20161023,,,D*40
$PTUBA,76.37,,14,GPS,,6.00,F,F*20
$GPRMC,154512,A,2919.966000,N,11953.182000,E,59.00,274.38,20161023,,,D*4E
$PTUBA,76.11,,14,GPS,,6.00,F,F*24
$GPRMC,154513,A,2919.966000,N,11953.167000,E,59.00,272.22,20161023,,,D*49
$PTUBA,75.81,,16,GPS,,6.00,F,F*2C
$GPRMC,154514,A,2919.966000,N,11953.152000,E,59.00,270.16,20161023,,,D*4D
$PTUBA,75.42,,16,GPS,,6.00,F,F*23
$GPRMC,154515,A,2919.965000,N,11953.137000,E,56.00,267.29,20161023,,,D*49
$PTUBA,75.21,,16,GPS,,6.00,F,F*26
$GPRMC,154516,A,2919.964000,N,11953.122000,E,56.00,263.37,20161023,,,D*44
$PTUBA,74.94,,15,GPS,,6.00,F,F*2A
$GPRMC,154517,A,2919.958000,N,11953.109000,E,55.00,248.08,20161023,,,D*45
$PTUBA,74.51,,15,GPS,,6.00,F,F*23
$GPRMC,154518,A,2919.953000,N,11953.095000,E,55.00,247.08,20161023,,,D*4A
$PTUBA,73.94,,16,GPS,,6.00,F,F*2E
$GPRMC,154519,A,2919.948000,N,11953.081000,E,54.00,245.94,20161023,,,D*42
$PTUBA,73.24,,15,GPS,,6.00,F,F*26
$GPRMC,154520,A,2919.942000,N,11953.068000,E,54.00,245.60,20161023,,,D*4E
$PTUBA,72.60,,15,GPS,,6.00,F,F*27
$GPRMC,154521,A,2919.937000,N,11953.055000,E,53.00,245.33,20161023,,,D*42
$PTUBA,72.13,,15,GPS,,6.00,F,F*23
$GPRMC,154522,A,2919.932000,N,11953.041000,E,53.00,245.97,20161023,,,D*4F
$PTUBA,71.97,,16,GPS,,6.00,F,F*2F
$GPRMC,154523,A,2919.926000,N,11953.028000,E,53.00,246.80,20161023,,,D*41
$PTUBA,72.00,,16,GPS,,6.00,F,F*22
$GPRMC,154524,A,2919.921000,N,11953.014000,E,52.00,247.21,20161023,,,D*45
$PTUBA,72.04,,16,GPS,,6.00,F,F*26
$GPRMC,154525,A,2919.915000,N,11953.000000,E,52.00,246.11,20161023,,,D*44
$PTUBA,71.95,,15,GPS,,6.00,F,F*2E
$GPRMC,154526,A,2919.910000,N,11952.986000,E,56.00,245.45,20161023,,,D*42
$PTUBA,71.72,,15,GPS,,6.00,F,F*27
$GPRMC,154527,A,2919.903000,N,11952.971000,E,56.00,244.74,20161023,,,D*4A
$PTUBA,71.49,,14,GPS,,6.00,F,F*2E
$GPRMC,154528,A,2919.897000,N,11952.956000,E,63.00,245.58,20161023,,,D*45
$PTUBA,71.18,,14,GPS,,6.00,F,F*2A
$GPRMC,154529,A,2919.890000,N,11952.941000,E,63.00,244.80,20161023,,,D*41
$PTUBA,70.77,,14,GPS,,6.00,F,F*22
$GPRMC,154530,A,2919.884000,N,11952.926000,E,63.00,242.66,20161023,,,D*43
$PTUBA,70.33,,14,GPS,,6.00,F,F*22
$GPRMC,154531,A,2919.876000,N,11952.913000,E,63.00,239.27,20161023,,,D*40
$PTUBA,69.94,,14,GPS,,6.00,F,F*27
$GPRMC,154532,A,2919.867000,N,11952.898000,E,63.00,235.83,20161023,,,D*43
$PTUBA,69.83,,14,GPS,,6.00,F,F*21
$GPRMC,154533,A,2919.857000,N,11952.884000,E,65.00,233.01,20161023,,,D*46
$PTUBA,69.69,,14,GPS,,6.00,F,F*25
$GPRMC,154534,A,2919.845000,N,11952.872000,E,65.00,224.53,20161023,,,D*4A
$PTUBA,69.56,,15,GPS,,6.00,F,F*28
$GPRMC,154535,A,2919.833000,N,11952.860000,E,67.00,222.91,20161023,,,D*43
$PTUBA,69.31,,15,GPS,,6.00,F,F*29
$GPRMC,154536,A,2919.821000,N,11952.849000,E,67.00,221.26,20161023,,,D*47
$PTUBA,69.11,,15,GPS,,6.00,F,F*2B
$GPRMC,154537,A,2919.809000,N,11952.838000,E,65.00,219.98,20161023,,,D*46
$PTUBA,68.74,,15,GPS,,6.00,F,F*29
$GPRMC,154538,A,2919.798000,N,11952.827000,E,65.00,220.79,20161023,,,D*45
$PTUBA,68.34,,16,GPS,,6.00,F,F*2E
$GPRMC,154539,A,2919.788000,N,11952.816000,E,64.00,221.50,20161023,,,D*4C
$PTUBA,67.91,,15,GPS,,4.00,F,F*2F
$GPRMC,154540,A,2919.777000,N,11952.806000,E,64.00,221.56,20161023,,,D*45
$PTUBA,67.74,,15,GPS,,4.00,F,F*24
$GPRMC,154541,A,2919.766000,N,11952.795000,E,64.00,220.81,20161023,,,D*4A
$PTUBA,67.61,,16,GPS,,4.00,F,F*23
$GPRMC,154542,A,2919.756000,N,11952.784000,E,65.00,220.73,20161023,,,D*46
$PTUBA,67.64,,16,GPS,,4.00,F,F*26
$GPRMC,154543,A,2919.745000,N,11952.773000,E,65.00,220.05,20161023,,,D*4C
$PTUBA,67.72,,15,GPS,,6.00,F,F*20
$GPRMC,154544,A,2919.734000,N,11952.763000,E,64.00,220.33,20161023,,,D*48
$PTUBA,67.65,,16,GPS,,8.00,F,F*2B
$GPRMC,154545,A,2919.725000,N,11952.752000,E,64.00,221.21,20161023,,,D*49
$PTUBA,67.49,,15,GPS,,4.00,F,F*2A
$GPRMC,154546,A,2919.715000,N,11952.742000,E,62.00,221.77,20161023,,,D*4D
$PTUBA,67.28,,15,GPS,,6.00,F,F*2F
$GPRMC,154547,A,2919.705000,N,11952.732000,E,62.00,221.37,20161023,,,D*4E
$PTUBA,66.97,,15,GPS,,8.00,F,F*24
$GPRMC,154548,A,2919.695000,N,11952.722000,E,59.00,220.96,20161023,,,D*4A
$PTUBA,66.62,,15,GPS,,8.00,F,F*2E
$GPRMC,154549,A,2919.685000,N,11952.712000,E,59.00,220.72,20161023,,,D*43
$PTUBA,66.30,,15,GPS,,6.00,F,F*27
$GPRMC,154550,A,2919.675000,N,11952.703000,E,57.00,219.86,20161023,,,D*4B
$PTUBA,66.02,,15,GPS,,6.00,F,F*26
$GPRMC,154551,A,2919.665000,N,11952.693000,E,57.00,220.40,20161023,,,D*43
$PTUBA,65.93,,15,GPS,,6.00,F,F*2D
$GPRMC,154552,A,2919.655000,N,11952.684000,E,57.00,220.89,20161023,,,D*40
$PTUBA,65.76,,16,GPS,,6.00,F,F*25
$GPRMC,154553,A,2919.646000,N,11952.675000,E,54.00,220.29,20161023,,,D*44
$PTUBA,65.42,,16,GPS,,6.00,F,F*22
$GPRMC,154554,A,2919.636000,N,11952.665000,E,54.00,220.01,20161023,,,D*4F
$PTUBA,65.11,,16,GPS,,6.00,F,F*24
$GPRMC,154555,A,2919.627000,N,11952.656000,E,54.00,220.66,20161023,,,D*4F
$PTUBA,64.91,,16,GPS,,6.00,F,F*2D
$GPRMC,154556,A,2919.618000,N,11952.647000,E,54.00,220.88,20161023,,,D*40
$PTUBA,64.78,,15,GPS,,6.00,F,F*29
$GPRMC,154557,A,2919.608000,N,11952.638000,E,54.00,221.73,20161023,,,D*4D
$PTUBA,64.54,,15,GPS,,8.00,F,F*29
$GPRMC,154558,A,2919.598000,N,11952.629000,E,54.00,222.38,20161023,,,D*44
$PTUBA,64.32,,15,GPS,,6.00,F,F*27
$GPRMC,154559,A,2919.589000,N,11952.618000,E,55.00,222.47,20161023,,,D*4E
$PTUBA,64.26,,15,GPS,,6.00,F,F*22
$GPRMC,154600,A,2919.579000,N,11952.609000,E,55.00,223.09,20161023,,,D*45
$PTUBA,64.05,,15,GPS,,6.00,F,F*23
$GPRMC,154601,A,2919.570000,N,11952.598000,E,55.00,223.57,20161023,,,D*4D
$PTUBA,63.59,,15,GPS,,6.00,F,F*2D
$GPRMC,154602,A,2919.560000,N,11952.588000,E,56.00,224.39,20161023,,,D*42
$PTUBA,63.03,,16,GPS,,8.00,F,F*2F
$GPRMC,154603,A,2919.551000,N,11952.577000,E,56.00,225.65,20161023,,,D*49
$PTUBA,62.26,,16,GPS,,4.00,F,F*25
$GPRMC,154604,A,2919.542000,N,11952.566000,E,57.00,227.45,20161023,,,D*4D
$PTUBA,61.24,,16,GPS,,4.00,F,F*24
$GPRMC,154605,A,2919.534000,N,11952.554000,E,57.00,229.62,20161023,,,D*47
$PTUBA,60.07,,16,GPS,,4.00,F,F*24
$GPRMC,154606,A,2919.525000,N,11952.541000,E,57.00,231.49,20161023,,,D*40
$PTUBA,58.95,,16,GPS,,4.00,F,F*24
$GPRMC,154607,A,2919.517000,N,11952.528000,E,57.00,233.14,20161023,,,D*45
$PTUBA,57.95,,16,GPS,,6.00,F,F*29
$GPRMC,154608,A,2919.508000,N,11952.514000,E,59.00,234.01,20161023,,,D*46
$PTUBA,57.21,,15,GPS,,6.00,F,F*25
$GPRMC,154609,A,2919.500000,N,11952.499000,E,59.00,235.46,20161023,,,D*49
$PTUBA,56.86,,15,GPS,,6.00,F,F*29
$GPRMC,154610,A,2919.492000,N,11952.485000,E,59.00,237.09,20161023,,,D*4F
$PTUBA,56.67,,16,GPS,,6.00,F,F*25
$GPRMC,154611,A,2919.485000,N,11952.471000,E,61.00,238.75,20161023,,,D*4C
$PTUBA,56.63,,16,GPS,,6.00,F,F*21
$GPRMC,154612,A,2919.478000,N,11952.456000,E,61.00,240.54,20161023,,,D*44
$PTUBA,56.74,,16,GPS,,6.00,F,F*27
$GPRMC,154613,A,2919.472000,N,11952.440000,E,63.00,242.63,20161023,,,D*4C
$PTUBA,56.77,,15,GPS,,6.00,F,F*27
$GPRMC,154614,A,2919.466000,N,11952.425000,E,63.00,244.59,20161023,,,D*42
$PTUBA,56.71,,15,GPS,,6.00,F,F*21
$GPRMC,154615,A,2919.460000,N,11952.409000,E,63.00,246.71,20161023,,,D*43
$PTUBA,56.52,,15,GPS,,6.00,F,F*20
$GPRMC,154616,A,2919.455000,N,11952.394000,E,63.00,248.25,20161023,,,D*4A
$PTUBA,56.50,,15,GPS,,6.00,F,F*22
$GPRMC,154617,A,2919.451000,N,11952.379000,E,62.00,249.86,20161023,,,D*45
$PTUBA,56.70,,15,GPS,,6.00,F,F*20
$GPRMC,154618,A,2919.447000,N,11952.364000,E,62.00,251.16,20161023,,,D*41
$PTUBA,57.14,,15,GPS,,6.00,F,F*23
$GPRMC,154619,A,2919.442000,N,11952.349000,E,62.00,252.07,20161023,,,D*49
$PTUBA,57.59,,15,GPS,,8.00,F,F*24
$GPRMC,154620,A,2919.439000,N,11952.333000,E,62.00,252.90,20161023,,,D*4C
$PTUBA,58.24,,15,GPS,,8.00,F,F*21
$GPRMC,154621,A,2919.435000,N,11952.318000,E,62.00,252.48,20161023,,,D*4D
$PTUBA,58.75,,15,GPS,,6.00,F,F*2B
$GPRMC,154622,A,2919.431000,N,11952.302000,E,62.00,252.91,20161023,,,D*45
$PTUBA,59.28,,15,GPS,,6.00,F,F*22
$GPRMC,154623,A,2919.427000,N,11952.286000,E,62.00,252.36,20161023,,,D*43
$PTUBA,59.83,,15,GPS,,6.00,F,F*23
$GPRMC,154624,A,2919.424000,N,11952.271000,E,61.00,252.72,20161023,,,D*4C
$PTUBA,60.36,,15,GPS,,6.00,F,F*27
$GPRMC,154625,A,2919.420000,N,11952.255000,E,61.00,253.51,20161023,,,D*4F
$PTUBA,60.76,,15,GPS,,6.00,F,F*23
$GPRMC,154626,A,2919.416000,N,11952.240000,E,61.00,254.34,20161023,,,D*49
$PTUBA,61.05,,16,GPS,,12.00,F,F*10
$GPRMC,154627,A,2919.413000,N,11952.224000,E,61.00,255.00,20161023,,,D*49
$PTUBA,61.25,,16,GPS,,12.00,F,F*12
$GPRMC,154628,A,2919.409000,N,11952.208000,E,61.00,254.71,20161023,,,D*44
$PTUBA,61.26,,15,GPS,,12.00,F,F*12
$GPRMC,154629,A,2919.406000,N,11952.192000,E,61.00,254.00,20161023,,,D*4C
$PTUBA,61.02,,15,GPS,,8.00,F,F*2F
$GPRMC,154630,A,2919.402000,N,11952.175000,E,63.00,254.33,20161023,,,D*4B
$PTUBA,60.88,,15,GPS,,8.00,F,F*2C
$GPRMC,154631,A,2919.398000,N,11952.158000,E,63.00,254.62,20161023,,,D*45
$PTUBA,60.79,,15,GPS,,6.00,F,F*2C
$GPRMC,154632,A,2919.394000,N,11952.141000,E,63.00,254.20,20161023,,,D*44
$PTUBA,60.46,,15,GPS,,6.00,F,F*20
$GPRMC,154633,A,2919.390000,N,11952.123000,E,66.00,253.71,20161023,,,D*43
$PTUBA,60.13,,15,GPS,,6.00,F,F*20
$GPRMC,154634,A,2919.385000,N,11952.104000,E,66.00,253.22,20161023,,,D*43
$PTUBA,60.06,,15,GPS,,8.00,F,F*2A
$GPRMC,154635,A,2919.380000,N,11952.087000,E,73.00,252.63,20161023,,,D*4D
$PTUBA,60.10,,16,GPS,,6.00,F,F*20
$GPRMC,154636,A,2919.376000,N,11952.070000,E,73.00,252.13,20161023,,,D*48
$PTUBA,60.23,,16,GPS,,8.00,F,F*2E
$GPRMC,154637,A,2919.371000,N,11952.053000,E,70.00,252.24,20161023,,,D*48
$PTUBA,60.24,,15,GPS,,6.00,F,F*24
$GPRMC,154638,A,2919.367000,N,11952.035000,E,70.00,254.53,20161023,,,D*46
$PTUBA,60.16,,15,GPS,,6.00,F,F*25
$GPRMC,154639,A,2919.364000,N,11952.018000,E,68.00,259.98,20161023,,,D*48
$PTUBA,60.05,,15,GPS,,6.00,F,F*27
$GPRMC,154640,A,2919.362000,N,11952.000000,E,68.00,265.63,20161023,,,D*42
$PTUBA,60.02,,15,GPS,,6.00,F,F*20
$GPRMC,154641,A,2919.361000,N,11951.984000,E,65.00,268.18,20161023,,,D*4A
$PTUBA,60.04,,15,GPS,,6.00,F,F*26
$GPRMC,154642,A,2919.365000,N,11951.968000,E,65.00,282.86,20161023,,,D*4C
$PTUBA,60.03,,15,GPS,,6.00,F,F*21
$GPRMC,154643,A,2919.369000,N,11951.953000,E,65.00,285.77,20161023,,,D*40
$PTUBA,60.05,,15,GPS,,6.00,F,F*27
$GPRMC,154644,A,2919.375000,N,11951.940000,E,59.00,300.17,20161023,,,D*4D
$PTUBA,59.99,,15,GPS,,6.00,F,F*28
$GPRMC,154645,A,2919.382000,N,11951.928000,E,59.00,303.62,20161023,,,D*4B
$PTUBA,59.78,,15,GPS,,4.00,F,F*25
$GPRMC,154646,A,2919.391000,N,11951.918000,E,56.00,320.76,20161023,,,D*42
$PTUBA,59.47,,16,GPS,,4.00,F,F*2A
$GPRMC,154647,A,2919.402000,N,11951.909000,E,56.00,322.65,20161023,,,D*4E
$PTUBA,59.10,,16,GPS,,4.00,F,F*28
$GPRMC,154648,A,2919.412000,N,11951.901000,E,55.00,325.06,20161023,,,D*49
$PTUBA,58.63,,16,GPS,,4.00,F,F*2D
$GPRMC,154649,A,2919.424000,N,11951.893000,E,55.00,327.23,20161023,,,D*42
$PTUBA,58.13,,16,GPS,,4.00,F,F*2A
$GPRMC,154650,A,2919.436000,N,11951.885000,E,57.00,329.11,20161023,,,D*43
$PTUBA,57.67,,15,GPS,,4.00,F,F*25
$GPRMC,154651,A,2919.449000,N,11951.878000,E,57.00,330.40,20161023,,,D*44
$PTUBA,57.42,,15,GPS,,4.00,F,F*22
$GPRMC,154652,A,2919.463000,N,11951.870000,E,57.00,331.10,20161023,,,D*43
$PTUBA,57.44,,15,GPS,,4.00,F,F*24
$GPRMC,154653,A,2919.476000,N,11951.862000,E,63.00,331.89,20161023,,,D*42
$PTUBA,57.60,,15,GPS,,6.00,F,F*20
$GPRMC,154654,A,2919.491000,N,11951.854000,E,63.00,332.74,20161023,,,D*48
$PTUBA,57.58,,16,GPS,,6.00,F,F*28
$GPRMC,154655,A,2919.506000,N,11951.846000,E,69.00,334.29,20161023,,,D*41
$PTUBA,57.49,,15,GPS,,6.00,F,F*2B
$GPRMC,154656,A,2919.521000,N,11951.840000,E,69.00,333.70,20161023,,,D*4A
$PTUBA,57.44,,15,GPS,,6.00,F,F*26
$GPRMC,154657,A,2919.536000,N,11951.833000,E,69.00,333.88,20161023,,,D*4E
$PTUBA,57.33,,16,GPS,,4.00,F,F*27
$GPRMC,154658,A,2919.551000,N,11951.825000,E,69.00,333.86,20161023,,,D*49
$PTUBA,57.22,,16,GPS,,4.00,F,F*27
$GPRMC,154659,A,2919.565000,N,11951.817000,E,69.00,333.66,20161023,,,D*40
$PTUBA,57.34,,15,GPS,,4.00,F,F*23
$GPRMC,154700,A,2919.580000,N,11951.809000,E,69.00,333.48,20161023,,,D*45
$PTUBA,57.84,,15,GPS,,4.00,F,F*28
$GPRMC,154701,A,2919.595000,N,11951.800000,E,70.00,333.47,20161023,,,D*4E
$PTUBA,58.44,,15,GPS,,4.00,F,F*2B
$GPRMC,154702,A,2919.609000,N,11951.792000,E,70.00,333.42,20161023,,,D*4A
$PTUBA,59.16,,15,GPS,,4.00,F,F*2D
$GPRMC,154703,A,2919.624000,N,11951.784000,E,70.00,333.25,20161023,,,D*42
$PTUBA,59.93,,15,GPS,,4.00,F,F*20
$GPRMC,154704,A,2919.638000,N,11951.775000,E,70.00,333.15,20161023,,,D*45
$PTUBA,60.70,,15,GPS,,4.00,F,F*27
$GPRMC,154705,A,2919.653000,N,11951.767000,E,70.00,332.48,20161023,,,D*43
$PTUBA,61.45,,15,GPS,,4.00,F,F*20
$GPRMC,154706,A,2919.668000,N,11951.758000,E,72.00,332.31,20161023,,,D*48
$PTUBA,62.24,,15,GPS,,4.00,F,F*24
$GPRMC,154707,A,2919.682000,N,11951.750000,E,72.00,333.23,20161023,,,D*47
$PTUBA,63.07,,15,GPS,,4.00,F,F*24
$GPRMC,154708,A,2919.697000,N,11951.741000,E,72.00,333.08,20161023,,,D*45
$PTUBA,63.92,,15,GPS,,4.00,F,F*28
$GPRMC,154709,A,2919.711000,N,11951.732000,E,72.00,333.74,20161023,,,D*44
$PTUBA,64.84,,15,GPS,,4.00,F,F*28
$GPRMC,154710,A,2919.725000,N,11951.724000,E,70.00,334.08,20161023,,,D*42
$PTUBA,65.76,,16,GPS,,4.00,F,F*27
$GPRMC,154711,A,2919.740000,N,11951.716000,E,70.00,333.59,20161023,,,D*42
$PTUBA,66.64,,16,GPS,,4.00,F,F*27
$GPRMC,154712,A,2919.755000,N,11951.708000,E,70.00,332.70,20161023,,,D*40
$PTUBA,67.43,,16,GPS,,4.00,F,F*23
$GPRMC,154713,A,2919.769000,N,11951.699000,E,68.00,330.78,20161023,,,D*44
$PTUBA,67.88,,15,GPS,,8.00,F,F*2B
$GPRMC,154714,A,2919.783000,N,11951.691000,E,68.00,330.73,20161023,,,D*44
$PTUBA,68.02,,15,GPS,,8.00,F,F*26
$GPRMC,154715,A,2919.796000,N,11951.682000,E,68.00,332.37,20161023,,,D*41
$PTUBA,67.89,,15,GPS,,6.00,F,F*24
$GPRMC,154716,A,2919.810000,N,11951.674000,E,68.00,332.71,20161023,,,D*48
$PTUBA,67.67,,15,GPS,,6.00,F,F*24
$GPRMC,154717,A,2919.825000,N,11951.666000,E,69.00,333.07,20161023,,,D*4D
$PTUBA,67.75,,15,GPS,,6.00,F,F*27
$GPRMC,154718,A,2919.839000,N,11951.657000,E,69.00,332.96,20161023,,,D*44
$PTUBA,67.93,,15,GPS,,6.00,F,F*2F
$GPRMC,154719,A,2919.854000,N,11951.648000,E,69.00,333.10,20161023,,,D*4F
$PTUBA,68.24,,16,GPS,,4.00,F,F*2D
$GPRMC,154720,A,2919.869000,N,11951.640000,E,69.00,333.02,20161023,,,D*40
$PTUBA,68.71,,16,GPS,,4.00,F,F*2D
$GPRMC,154721,A,2919.884000,N,11951.631000,E,70.00,333.32,20161023,,,D*4F
$PTUBA,69.26,,16,GPS,,4.00,F,F*2E
$GPRMC,154722,A,2919.899000,N,11951.622000,E,70.00,333.20,20161023,,,D*41
$PTUBA,69.91,,16,GPS,,4.00,F,F*22
$GPRMC,154723,A,2919.914000,N,11951.614000,E,70.00,332.76,20161023,,,D*43
$PTUBA,70.62,,16,GPS,,4.00,F,F*26
$GPRMC,154724,A,2919.929000,N,11951.605000,E,72.00,332.68,20161023,,,D*47
$PTUBA,71.36,,15,GPS,,4.00,F,F*25
$GPRMC,154725,A,2919.944000,N,11951.597000,E,72.00,333.02,20161023,,,D*48
$PTUBA,72.16,,15,GPS,,4.00,F,F*24
$GPRMC,154726,A,2919.959000,N,11951.588000,E,73.00,332.81,20161023,,,D*42
$PTUBA,72.94,,15,GPS,,4.00,F,F*2E
$GPRMC,154727,A,2919.973000,N,11951.580000,E,73.00,333.20,20161023,,,D*49
$PTUBA,73.74,,15,GPS,,4.00,F,F*21
$GPRMC,154728,A,2919.988000,N,11951.572000,E,72.00,333.38,20161023,,,D*47
$PTUBA,74.53,,16,GPS,,4.00,F,F*20
$GPRMC,154729,A,2920.002000,N,11951.564000,E,72.00,333.46,20161023,,,D*49
$PTUBA,75.31,,16,GPS,,4.00,F,F*25
$GPRMC,154730,A,2920.017000,N,11951.556000,E,69.00,333.42,20161023,,,D*4A
$PTUBA,76.13,,16,GPS,,4.00,F,F*26
$GPRMC,154731,A,2920.031000,N,11951.548000,E,69.00,333.54,20161023,,,D*47
$PTUBA,76.66,,15,GPS,,8.00,F,F*2B
$GPRMC,154732,A,2920.045000,N,11951.540000,E,69.00,333.89,20161023,,,D*4F
$PTUBA,76.82,,15,GPS,,6.00,F,F*2F
$GPRMC,154733,A,2920.058000,N,11951.533000,E,68.00,333.30,20161023,,,D*45
$PTUBA,76.76,,15,GPS,,6.00,F,F*24
$GPRMC,154734,A,2920.072000,N,11951.526000,E,68.00,333.05,20161023,,,D*48
$PTUBA,76.73,,15,GPS,,6.00,F,F*21
$GPRMC,154735,A,2920.085000,N,11951.519000,E,64.00,334.03,20161023,,,D*40
$PTUBA,76.61,,15,GPS,,8.00,F,F*2C
$GPRMC,154736,A,2920.098000,N,11951.511000,E,64.00,334.92,20161023,,,D*4F
$PTUBA,76.31,,16,GPS,,16.00,F,F*15
$GPRMC,154737,A,2920.112000,N,11951.504000,E,64.00,334.95,20161023,,,D*4E
$PTUBA,75.91,,16,GPS,,6.00,F,F*2D
$GPRMC,154738,A,2920.126000,N,11951.497000,E,64.00,335.45,20161023,,,D*41
$PTUBA,75.45,,16,GPS,,6.00,F,F*24
$GPRMC,154739,A,2920.140000,N,11951.490000,E,65.00,335.81,20161023,,,D*4E
$PTUBA,74.84,,16,GPS,,6.00,F,F*28
$GPRMC,154740,A,2920.154000,N,11951.483000,E,65.00,336.50,20161023,,,D*48
$PTUBA,73.95,,16,GPS,,6.00,F,F*2F
$GPRMC,154741,A,2920.168000,N,11951.476000,E,65.00,337.43,20161023,,,D*4F
$PTUBA,73.02,,16,GPS,,6.00,F,F*21
$GPRMC,154742,A,2920.183000,N,11951.470000,E,65.00,340.22,20161023,,,D*48
$PTUBA,72.13,,16,GPS,,6.00,F,F*20
$GPRMC,154743,A,2920.198000,N,11951.464000,E,65.00,341.21,20161023,,,D*44
$PTUBA,71.30,,16,GPS,,6.00,F,F*22
$GPRMC,154744,A,2920.212000,N,11951.459000,E,66.00,342.28,20161023,,,D*45
$PTUBA,70.69,,16,GPS,,6.00,F,F*2F
$GPRMC,154745,A,2920.228000,N,11951.454000,E,66.00,344.39,20161023,,,D*46
$PTUBA,70.06,,16,GPS,,8.00,F,F*28
$GPRMC,154746,A,2920.243000,N,11951.449000,E,66.00,343.42,20161023,,,D*4F
$PTUBA,69.45,,15,GPS,,8.00,F,F*24
$GPRMC,154747,A,2920.258000,N,11951.444000,E,66.00,344.83,20161023,,,D*43
$PTUBA,68.82,,15,GPS,,8.00,F,F*2E
$GPRMC,154748,A,2920.273000,N,11951.439000,E,67.00,345.34,20161023,,,D*43
$PTUBA,68.25,,15,GPS,,6.00,F,F*2D
$GPRMC,154749,A,2920.288000,N,11951.435000,E,67.00,346.12,20161023,,,D*4D
$PTUBA,67.66,,15,GPS,,6.00,F,F*25
$GPRMC,154750,A,2920.303000,N,11951.430000,E,67.00,346.39,20161023,,,D*4B
$PTUBA,67.01,,16,GPS,,6.00,F,F*27
$GPRMC,154751,A,2920.317000,N,11951.426000,E,67.00,346.23,20161023,,,D*43
$PTUBA,66.34,,16,GPS,,6.00,F,F*20
$GPRMC,154752,A,2920.332000,N,11951.422000,E,67.00,346.61,20161023,,,D*45
$PTUBA,65.77,,16,GPS,,6.00,F,F*24
$GPRMC,154753,A,2920.346000,N,11951.417000,E,64.00,346.61,20161023,,,D*42
$PTUBA,65.30,,16,GPS,,6.00,F,F*27
$GPRMC,154754,A,2920.361000,N,11951.413000,E,64.00,346.86,20161023,,,D*4D
$PTUBA,64.87,,16,GPS,,6.00,F,F*2A
$GPRMC,154755,A,2920.375000,N,11951.409000,E,64.00,346.65,20161023,,,D*4F
$PTUBA,64.41,,16,GPS,,6.00,F,F*20
$GPRMC,154756,A,2920.391000,N,11951.404000,E,64.00,346.71,20161023,,,D*4E
$PTUBA,63.91,,16,GPS,,6.00,F,F*2A
$GPRMC,154757,A,2920.406000,N,11951.400000,E,67.00,346.01,20161023,,,D*46
$PTUBA,63.48,,16,GPS,,6.00,F,F*2E
$GPRMC,154758,A,2920.422000,N,11951.395000,E,67.00,344.31,20161023,,,D*45
$PTUBA,63.16,,16,GPS,,6.00,F,F*25
$GPRMC,154759,A,2920.437000,N,11951.390000,E,73.00,344.88,20161023,,,D*42
$PTUBA,62.92,,16,GPS,,6.00,F,F*28
$GPRMC,154800,A,2920.453000,N,11951.385000,E,73.00,345.55,20161023,,,D*46
$PTUBA,62.76,,16,GPS,,4.00,F,F*20
$GPRMC,154801,A,2920.469000,N,11951.381000,E,72.00,344.71,20161023,,,D*4C
$PTUBA,62.81,,15,GPS,,4.00,F,F*2B
$GPRMC,154802,A,2920.485000,N,11951.376000,E,72.00,345.03,20161023,,,D*41
$PTUBA,63.02,,16,GPS,,4.00,F,F*22
$GPRMC,154803,A,2920.500000,N,11951.371000,E,72.00,345.06,20161023,,,D*4E
$PTUBA,63.30,,16,GPS,,4.00,F,F*23
$GPRMC,154804,A,2920.516000,N,11951.367000,E,69.00,345.32,20161023,,,D*44
$PTUBA,63.64,,16,GPS,,4.00,F,F*22
$GPRMC,154805,A,2920.531000,N,11951.362000,E,69.00,345.28,20161023,,,D*4E
$PTUBA,64.08,,16,GPS,,4.00,F,F*2F
$GPRMC,154806,A,2920.546000,N,11951.358000,E,68.00,345.07,20161023,,,D*48
$PTUBA,64.47,,16,GPS,,6.00,F,F*26
$GPRMC,154807,A,2920.561000,N,11951.354000,E,68.00,345.22,20161023,,,D*47
$PTUBA,64.73,,16,GPS,,6.00,F,F*21
$GPRMC,154808,A,2920.575000,N,11951.349000,E,66.00,344.93,20161023,,,D*44
$PTUBA,64.95,,16,GPS,,6.00,F,F*29
$GPRMC,154809,A,2920.589000,N,11951.345000,E,66.00,344.97,20161023,,,D*4E
$PTUBA,65.12,,16,GPS,,6.00,F,F*27
$GPRMC,154810,A,2920.603000,N,11951.341000,E,63.00,345.49,20161023,,,D*44
$PTUBA,65.26,,16,GPS,,4.00,F,F*22
$GPRMC,154811,A,2920.616000,N,11951.337000,E,63.00,345.21,20161023,,,D*4E
$PTUBA,65.45,,16,GPS,,4.00,F,F*27
$GPRMC,154812,A,2920.629000,N,11951.335000,E,63.00,345.40,20161023,,,D*44
$PTUBA,65.79,,16,GPS,,4.00,F,F*28
$GPRMC,154813,A,2920.642000,N,11951.331000,E,63.00,345.26,20161023,,,D*4C
$PTUBA,66.21,,16,GPS,,4.00,F,F*26
$GPRMC,154814,A,2920.654000,N,11951.327000,E,63.00,345.13,20161023,,,D*4D
$PTUBA,66.60,,16,GPS,,4.00,F,F*23
$GPRMC,154815,A,2920.667000,N,11951.324000,E,59.00,345.46,20161023,,,D*46
$PTUBA,67.05,,16,GPS,,4.00,F,F*21
$GPRMC,154816,A,2920.678000,N,11951.320000,E,59.00,345.97,20161023,,,D*43
$PTUBA,67.52,,16,GPS,,4.00,F,F*23
$GPRMC,154817,A,2920.690000,N,11951.317000,E,54.00,345.52,20161023,,,D*44
$PTUBA,68.06,,16,GPS,,4.00,F,F*2D
$GPRMC,154818,A,2920.702000,N,11951.313000,E,54.00,345.34,20161023,,,D*45
$PTUBA,68.62,,16,GPS,,4.00,F,F*2F
$GPRMC,154819,A,2920.713000,N,11951.310000,E,51.00,344.97,20161023,,,D*4A
$PTUBA,69.17,,16,GPS,,4.00,F,F*2C
$GPRMC,154820,A,2920.725000,N,11951.306000,E,51.00,345.08,20161023,,,D*45
$PTUBA,69.71,,16,GPS,,4.00,F,F*2C
$GPRMC,154821,A,2920.738000,N,11951.303000,E,52.00,345.39,20161023,,,D*4C
$PTUBA,70.14,,16,GPS,,4.00,F,F*27
$GPRMC,154822,A,2920.751000,N,11951.299000,E,52.00,345.89,20161023,,,D*49
$PTUBA,70.48,,15,GPS,,4.00,F,F*2D
$GPRMC,154823,A,2920.765000,N,11951.295000,E,52.00,346.55,20161023,,,D*41
$PTUBA,70.88,,16,GPS,,4.00,F,F*22
$GPRMC,154824,A,2920.778000,N,11951.292000,E,56.00,347.17,20161023,,,D*4E
$PTUBA,71.26,,16,GPS,,4.00,F,F*27
$GPRMC,154825,A,2920.793000,N,11951.288000,E,56.00,347.96,20161023,,,D*48
$PTUBA,71.62,,16,GPS,,6.00,F,F*25
$GPRMC,154826,A,2920.808000,N,11951.285000,E,62.00,347.39,20161023,,,D*49
$PTUBA,72.00,,16,GPS,,6.00,F,F*22
$GPRMC,154827,A,2920.823000,N,11951.281000,E,62.00,346.88,20161023,,,D*4E
$PTUBA,72.48,,16,GPS,,6.00,F,F*2E
$GPRMC,154828,A,2920.838000,N,11951.277000,E,67.00,345.87,20161023,,,D*4B
$PTUBA,72.99,,15,GPS,,6.00,F,F*21
$GPRMC,154829,A,2920.854000,N,11951.272000,E,67.00,345.67,20161023,,,D*4B
$PTUBA,73.41,,15,GPS,,8.00,F,F*2B
$GPRMC,154830,A,2920.870000,N,11951.268000,E,69.00,345.20,20161023,,,D*43
$PTUBA,73.66,,15,GPS,,4.00,F,F*22
$GPRMC,154831,A,2920.887000,N,11951.263000,E,69.00,344.92,20161023,,,D*49
$PTUBA,73.91,,15,GPS,,8.00,F,F*26
$GPRMC,154832,A,2920.904000,N,11951.258000,E,73.00,344.82,20161023,,,D*42
$PTUBA,74.17,,15,GPS,,16.00,F,F*10
$GPRMC,154833,A,2920.920000,N,11951.253000,E,73.00,344.91,20161023,,,D*4C
$PTUBA,74.48,,14,GPS,,8.00,F,F*24
$GPRMC,154834,A,2920.936000,N,11951.248000,E,73.00,344.85,20161023,,,D*43
$PTUBA,74.83,,15,GPS,,6.00,F,F*2C
$GPRMC,154835,A,2920.951000,N,11951.243000,E,70.00,343.23,20161023,,,D*40
$PTUBA,75.15,,15,GPS,,6.00,F,F*22
$GPRMC,154836,A,2920.966000,N,11951.239000,E,70.00,342.38,20161023,,,D*41
$PTUBA,75.45,,14,GPS,,8.00,F,F*28
$GPRMC,154837,A,2920.981000,N,11951.233000,E,69.00,342.91,20161023,,,D*48
$PTUBA,75.84,,14,GPS,,8.00,F,F*25
$GPRMC,154838,A,2920.996000,N,11951.228000,E,69.00,344.33,20161023,,,D*45
$PTUBA,76.32,,14,GPS,,6.00,F,F*25
$GPRMC,154839,A,2921.011000,N,11951.223000,E,67.00,345.22,20161023,,,D*47
$PTUBA,76.89,,14,GPS,,6.00,F,F*25
$GPRMC,154840,A,2921.025000,N,11951.219000,E,67.00,345.81,20161023,,,D*4E
$PTUBA,77.60,,14,GPS,,6.00,F,F*23
$GPRMC,154841,A,2921.040000,N,11951.214000,E,66.00,345.18,20161023,,,D*40
$PTUBA,78.38,,14,GPS,,6.00,F,F*21
$GPRMC,154842,A,2921.055000,N,11951.210000,E,66.00,345.97,20161023,,,D*44
$PTUBA,79.15,,14,GPS,,6.00,F,F*2F
$GPRMC,154843,A,2921.070000,N,11951.205000,E,66.00,345.44,20161023,,,D*48
$PTUBA,79.86,,14,GPS,,6.00,F,F*25
$GPRMC,154844,A,2921.084000,N,11951.201000,E,65.00,344.42,20161023,,,D*44
$PTUBA,80.44,,14,GPS,,6.00,F,F*2D
$GPRMC,154845,A,2921.099000,N,11951.195000,E,65.00,342.75,20161023,,,D*45
$PTUBA,80.92,,15,GPS,,6.00,F,F*27
$GPRMC,154846,A,2921.113000,N,11951.189000,E,64.00,340.08,20161023,,,D*41
$PTUBA,81.39,,16,GPS,,4.00,F,F*26
$GPRMC,154847,A,2921.127000,N,11951.182000,E,64.00,336.82,20161023,,,D*4F
$PTUBA,81.90,,15,GPS,,4.00,F,F*26
$GPRMC,154848,A,2921.140000,N,11951.173000,E,65.00,333.24,20161023,,,D*47
$PTUBA,82.40,,15,GPS,,4.00,F,F*28
$GPRMC,154849,A,2921.152000,N,11951.162000,E,65.00,320.66,20161023,,,D*41
$PTUBA,82.88,,15,GPS,,6.00,F,F*2E
$GPRMC,154850,A,2921.164000,N,11951.149000,E,66.00,316.81,20161023,,,D*4A
$PTUBA,83.31,,15,GPS,,6.00,F,F*2D
$GPRMC,154851,A,2921.175000,N,11951.136000,E,66.00,315.51,20161023,,,D*4D
$PTUBA,83.73,,15,GPS,,6.00,F,F*2B
$GPRMC,154852,A,2921.186000,N,11951.123000,E,68.00,313.73,20161023,,,D*4E
$PTUBA,84.04,,15,GPS,,6.00,F,F*2C
$GPRMC,154853,A,2921.197000,N,11951.109000,E,68.00,312.96,20161023,,,D*4D
$PTUBA,84.25,,15,GPS,,6.00,F,F*2F
$GPRMC,154854,A,2921.209000,N,11951.095000,E,68.00,315.05,20161023,,,D*47
$PTUBA,84.46,,15,GPS,,6.00,F,F*2A
$GPRMC,154855,A,2921.222000,N,11951.082000,E,72.00,313.15,20161023,,,D*45
$PTUBA,84.67,,15,GPS,,6.00,F,F*29
$GPRMC,154856,A,2921.234000,N,11951.067000,E,72.00,312.46,20161023,,,D*4D
$PTUBA,84.86,,15,GPS,,6.00,F,F*26
$GPRMC,154857,A,2921.246000,N,11951.053000,E,74.00,313.37,20161023,,,D*4F
$PTUBA,85.02,,15,GPS,,4.00,F,F*29
$GPRMC,154858,A,2921.258000,N,11951.038000,E,74.00,314.36,20161023,,,D*44
$PTUBA,85.26,,15,GPS,,4.00,F,F*2F
$GPRMC,154859,A,2921.270000,N,11951.024000,E,77.00,313.72,20161023,,,D*46
$PTUBA,85.56,,15,GPS,,4.00,F,F*28
$GPRMC,154900,A,2921.281000,N,11951.010000,E,77.00,314.21,20161023,,,D*43
$PTUBA,85.81,,15,GPS,,4.00,F,F*22
$GPRMC,154901,A,2921.293000,N,11950.996000,E,74.00,314.27,20161023,,,D*42
$PTUBA,86.00,,15,GPS,,6.00,F,F*2A
$GPRMC,154902,A,2921.304000,N,11950.982000,E,74.00,313.00,20161023,,,D*49
$PTUBA,86.36,,15,GPS,,8.00,F,F*21
$GPRMC,154903,A,2921.315000,N,11950.968000,E,70.00,312.45,20161023,,,D*48
$PTUBA,86.69,,15,GPS,,6.00,F,F*25
$GPRMC,154904,A,2921.325000,N,11950.954000,E,70.00,308.57,20161023,,,D*4B
$PTUBA,86.90,,15,GPS,,6.00,F,F*23
$GPRMC,154905,A,2921.334000,N,11950.939000,E,70.00,305.57,20161023,,,D*4C
$PTUBA,87.07,,16,GPS,,12.00,F,F*1A
$GPRMC,154906,A,2921.342000,N,11950.924000,E,67.00,301.70,20161023,,,D*45
$PTUBA,87.23,,16,GPS,,8.00,F,F*27
$GPRMC,154907,A,2921.350000,N,11950.909000,E,67.00,297.68,20161023,,,D*4F
$PTUBA,87.42,,16,GPS,,8.00,F,F*20
$GPRMC,154908,A,2921.356000,N,11950.893000,E,66.00,291.75,20161023,,,D*4F
$PTUBA,87.71,,15,GPS,,8.00,F,F*23
$GPRMC,154909,A,2921.361000,N,11950.877000,E,66.00,289.53,20161023,,,D*4D
$PTUBA,88.08,,15,GPS,,8.00,F,F*22
$GPRMC,154910,A,2921.366000,N,11950.860000,E,66.00,286.37,20161023,,,D*49
$PTUBA,88.19,,15,GPS,,8.00,F,F*22
$GPRMC,154911,A,2921.369000,N,11950.843000,E,66.00,283.69,20161023,,,D*48
$PTUBA,88.09,,15,GPS,,12.00,F,F*18
$GPRMC,154912,A,2921.371000,N,11950.826000,E,67.00,281.86,20161023,,,D*43
$PTUBA,87.63,,15,GPS,,8.00,F,F*20
$GPRMC,154913,A,2921.373000,N,11950.808000,E,67.00,280.56,20161023,,,D*40
$PTUBA,86.89,,15,GPS,,8.00,F,F*25
$GPRMC,154914,A,2921.376000,N,11950.790000,E,70.00,278.90,20161023,,,D*47
$PTUBA,86.15,,15,GPS,,8.00,F,F*20
$GPRMC,154915,A,2921.378000,N,11950.771000,E,70.00,281.01,20161023,,,D*49
$PTUBA,85.27,,15,GPS,,8.00,F,F*22
$GPRMC,154916,A,2921.381000,N,11950.753000,E,70.00,282.16,20161023,,,D*49
$PTUBA,84.55,,15,GPS,,6.00,F,F*28
$GPRMC,154917,A,2921.385000,N,11950.735000,E,70.00,286.52,20161023,,,D*48
$PTUBA,84.05,,16,GPS,,6.00,F,F*2E
$GPRMC,154918,A,2921.391000,N,11950.718000,E,70.00,293.40,20161023,,,D*4A
$PTUBA,83.51,,16,GPS,,6.00,F,F*28
$GPRMC,154919,A,2921.398000,N,11950.702000,E,70.00,296.35,20161023,,,D*4E
$PTUBA,82.83,,16,GPS,,6.00,F,F*26
$GPRMC,154920,A,2921.405000,N,11950.686000,E,70.00,300.81,20161023,,,D*4B
$PTUBA,82.22,,16,GPS,,6.00,F,F*2D
$GPRMC,154921,A,2921.414000,N,11950.673000,E,68.00,306.77,20161023,,,D*46
$PTUBA,81.67,,15,GPS,,6.00,F,F*2C
$GPRMC,154922,A,2921.423000,N,11950.658000,E,68.00,307.66,20161023,,,D*49
$PTUBA,81.23,,15,GPS,,6.00,F,F*2C
$GPRMC,154923,A,2921.432000,N,11950.645000,E,62.00,309.15,20161023,,,D*44
$PTUBA,80.60,,15,GPS,,6.00,F,F*2A
$GPRMC,154924,A,2921.442000,N,11950.632000,E,62.00,310.35,20161023,,,D*4E
$PTUBA,79.93,,15,GPS,,6.00,F,F*20
$GPRMC,154925,A,2921.452000,N,11950.619000,E,62.00,311.17,20161023,,,D*46
$PTUBA,79.27,,15,GPS,,6.00,F,F*2F
$GPRMC,154926,A,2921.463000,N,11950.606000,E,65.00,312.01,20161023,,,D*4A
$PTUBA,78.49,,16,GPS,,6.00,F,F*25
$GPRMC,154927,A,2921.475000,N,11950.592000,E,65.00,316.46,20161023,,,D*45
$PTUBA,77.61,,16,GPS,,6.00,F,F*20
$GPRMC,154928,A,2921.488000,N,11950.580000,E,73.00,315.21,20161023,,,D*4E
$PTUBA,76.92,,15,GPS,,6.00,F,F*2E
$GPRMC,154929,A,2921.500000,N,11950.566000,E,73.00,316.87,20161023,,,D*49
$PTUBA,76.49,,16,GPS,,6.00,F,F*2B
$GPRMC,154930,A,2921.512000,N,11950.554000,E,74.00,318.61,20161023,,,D*42
$PTUBA,76.29,,16,GPS,,6.00,F,F*2D
$GPRMC,154931,A,2921.522000,N,11950.540000,E,74.00,310.98,20161023,,,D*4B
$PTUBA,76.32,,15,GPS,,6.00,F,F*24
$GPRMC,154932,A,2921.533000,N,11950.528000,E,69.00,314.32,20161023,,,D*4E
$PTUBA,76.49,,15,GPS,,6.00,F,F*28
$GPRMC,154933,A,2921.544000,N,11950.515000,E,69.00,315.59,20161023,,,D*4D
$PTUBA,76.87,,15,GPS,,6.00,F,F*2A
$GPRMC,154934,A,2921.555000,N,11950.503000,E,66.00,316.21,20161023,,,D*4E
$PTUBA,77.48,,15,GPS,,6.00,F,F*28
$GPRMC,154935,A,2921.566000,N,11950.491000,E,66.00,315.19,20161023,,,D*4D
$PTUBA,78.16,,15,GPS,,6.00,F,F*2C
$GPRMC,154936,A,2921.577000,N,11950.479000,E,66.00,314.76,20161023,,,D*40
$PTUBA,78.75,,15,GPS,,6.00,F,F*29
$GPRMC,154937,A,2921.587000,N,11950.467000,E,65.00,313.63,20161023,,,D*41
$PTUBA,79.33,,15,GPS,,6.00,F,F*2A
$GPRMC,154938,A,2921.596000,N,11950.454000,E,65.00,311.93,20161023,,,D*43
$PTUBA,79.99,,15,GPS,,6.00,F,F*2A
$GPRMC,154939,A,2921.604000,N,11950.442000,E,61.00,310.26,20161023,,,D*46
$PTUBA,80.69,,15,GPS,,6.00,F,F*23
$GPRMC,154940,A,2921.613000,N,11950.429000,E,61.00,308.38,20161023,,,D*45
$PTUBA,81.44,,15,GPS,,6.00,F,F*2D
$GPRMC,154941,A,2921.620000,N,11950.417000,E,59.00,306.49,20161023,,,D*4A
$PTUBA,82.21,,15,GPS,,6.00,F,F*2D
$GPRMC,154942,A,2921.628000,N,11950.404000,E,59.00,304.06,20161023,,,D*4A
$PTUBA,82.92,,16,GPS,,6.00,F,F*26
$GPRMC,154943,A,2921.634000,N,11950.391000,E,56.00,301.13,20161023,,,D*43
$PTUBA,83.69,,16,GPS,,6.00,F,F*23
$GPRMC,154944,A,2921.640000,N,11950.378000,E,56.00,298.16,20161023,,,D*44
$PTUBA,84.53,,16,GPS,,6.00,F,F*2D
$GPRMC,154945,A,2921.645000,N,11950.365000,E,56.00,296.02,20161023,,,D*47
$PTUBA,85.30,,16,GPS,,6.00,F,F*29
$GPRMC,154946,A,2921.650000,N,11950.351000,E,53.00,293.54,20161023,,,D*44
$PTUBA,86.17,,15,GPS,,6.00,F,F*2C
$GPRMC,154947,A,2921.654000,N,11950.337000,E,53.00,291.67,20161023,,,D*43
$PTUBA,86.96,,15,GPS,,6.00,F,F*25
$GPRMC,154948,A,2921.658000,N,11950.323000,E,55.00,290.18,20161023,,,D*4A
$PTUBA,87.67,,15,GPS,,8.00,F,F*24
$GPRMC,154949,A,2921.662000,N,11950.309000,E,55.00,289.39,20161023,,,D*41
$PTUBA,88.36,,15,GPS,,8.00,F,F*2F
$GPRMC,154950,A,2921.666000,N,11950.295000,E,59.00,288.98,20161023,,,D*4F
$PTUBA,88.90,,15,GPS,,6.00,F,F*2D
$GPRMC,154951,A,2921.669000,N,11950.280000,E,59.00,288.19,20161023,,,D*4C
$PTUBA,89.45,,15,GPS,,6.00,F,F*24
$GPRMC,154952,A,2921.673000,N,11950.265000,E,60.00,288.88,20161023,,,D*4D
$PTUBA,89.99,,16,GPS,,6.00,F,F*26
$GPRMC,154953,A,2921.676000,N,11950.252000,E,60.00,288.34,20161023,,,D*4A
$PTUBA,90.58,,16,GPS,,6.00,F,F*23
$GPRMC,154954,A,2921.680000,N,11950.238000,E,60.00,288.41,20161023,,,D*4A
$PTUBA,91.09,,15,GPS,,8.00,F,F*2B
$GPRMC,154955,A,2921.683000,N,11950.224000,E,55.00,288.07,20161023,,,D*41
$PTUBA,91.49,,15,GPS,,6.00,F,F*21
$GPRMC,154956,A,2921.687000,N,11950.211000,E,55.00,287.46,20161023,,,D*4A
$PTUBA,91.68,,15,GPS,,8.00,F,F*2C
$GPRMC,154957,A,2921.691000,N,11950.197000,E,53.00,286.47,20161023,,,D*47
