$GPGGA,150934.00,2913.211118,N,11926.847231,E,1,10,0.8,49.3,M,6.2,M,,*60
$PGLOR,6,STA,150934.00,-0.003,0.000,-378,1,8,1,P,F,L,0,C,2,S,0002,0,2,R,33F4,TPEF,21,24413,LC,,*6A
$PGLOR,1,UNC,150934.00,0.014,8.0,3.4,0.26,180.00,7.0,3.8,-15.1*34
$PGLOR,2,SAT,2,1,G14,011,1F,R04,031,3F,G26,024,1F,G32,021,1F,G31,015,13,R15,030,3F*46
$PGLOR,2,SAT,2,2,G16,036,1F,Q01,022,3F,R03,013,33,G03,032,1F,R16,021,33*0E
$PGLOR,2,SIO,TxERR,0,RxERR,0,TxCNT,362,RxCNT,2549,MLFRMPKT,0,DTMS,1002,DTIN,34,50,DTOUT,688,950,HATMD,17*25
$PGLOR,2,SIO,TxERR,0,RxERR,0,TxCNT,362,RxCNT,2549,MLFRMPKT,0,DTMS,1002,DTIN,34,50,DTOUT,688,950,HATMD,17*25
$PGLOR,3,PWR,mA,36.1,RFTm,1000,OscTm,1000,MeasTm,1000,UTC,150934.00*39
$GPGSV,3,1,10,14,79,038,11,26,59,233,30,32,57,124,21,31,56,351,22*72
$GPGSV,3,2,10,16,29,222,37,03,17,309,32,29,30,079,,22,26,292,*76
$GPGSV,3,3,10,25,24,040,,10,12,179,*70
$GLGSV,3,1,10,68,66,229,32,79,44,303,31,67,23,173,23,80,05,257,24*63
$GLGSV,3,2,10,78,44,006,,69,38,318,,88,18,093,,87,10,046,*6D
$GLGSV,3,3,10,77,07,051,,81,07,142,*6E
$QZGSV,1,1,01,01,24,176,23*52
$GPGSA,A,3,03,16,26,31,32,,,,,,,,2.2,1.4,1.7*32
$GNGSA,A,3,03,16,26,31,32,,,,,,,,2.2,1.4,1.7*2C
$GNGSA,A,3,67,68,79,80,,,,,,,,,2.2,1.4,1.7*26
$QZGSA,A,3,01,,,,,,,,,,,,2.2,1.4,1.7*2C
$IMGSA,A,3,,,,,,,,,,,,,2.2,1.4,1.7*22
$PGLOR,1,FIX,1.0,1.0*20
$GPRMC,150934.00,A,2913.211118,N,11926.847231,E,000.0,,221016,,,A*79
$PGLOR,SPL,20161022230933.7,POS,20161022150934.000,29.220185,119.447454,8,8,0,55,3,1.100000*61
$GPGGA,150935.00,2913.211227,N,11926.847410,E,1,10,0.8,50.1,M,6.2,M,,*61
$PGLOR,6,STA,150935.00,-0.003,0.000,-380,1,8,1,P,F,L,0,C,2,S,0002,0,2,R,33F4,TPEF,21,25413,LC,,*6D
$PGLOR,1,UNC,150935.00,0.013,8.0,3.3,0.25,180.00,7.0,3.9,-15.4*32
$PGLOR,2,SAT,2,1,G14,010,1F,R04,031,3F,G26,026,1F,G32,023,1F,G31,015,1F,R15,029,3F*3A
$PGLOR,2,SAT,2,2,G16,037,1F,Q01,021,3F,R03,013,33,G03,031,1F,R16,020,33*0E
$PGLOR,2,SIO,TxERR,0,RxERR,0,TxCNT,361,RxCNT,2561,MLFRMPKT,0,DTMS,986,DTIN,61,68,DTOUT,741,931,HATMD,3*25
$PGLOR,2,SIO,TxERR,0,RxERR,0,TxCNT,361,RxCNT,2561,MLFRMPKT,0,DTMS,986,DTIN,61,68,DTOUT,741,931,HATMD,3*25
$PGLOR,3,PWR,mA,36.1,RFTm,1000,OscTm,1000,MeasTm,1000,UTC,150935.00*38
$GPGSV,3,1,10,14,79,038,11,26,59,233,30,32,57,124,23,31,56,351,21*73
$GPGSV,3,2,10,16,29,222,37,03,17,309,32,29,30,079,,22,26,292,*76
$GPGSV,3,3,10,25,24,040,,10,12,179,*70
$GLGSV,3,1,10,68,66,229,32,79,44,303,31,67,23,173,22,80,05,257,23*65
$GLGSV,3,2,10,78,44,006,,69,38,318,,88,18,093,,87,10,046,*6D
$GLGSV,3,3,10,77,07,051,,81,07,142,*6E
$QZGSV,1,1,01,01,24,176,23*52
$GPGSA,A,3,03,16,26,31,32,,,,,,,,2.2,1.3,1.7*35
$GNGSA,A,3,03,16,26,31,32,,,,,,,,2.2,1.3,1.7*2B
$GNGSA,A,3,67,68,79,80,,,,,,,,,2.2,1.3,1.7*21
$QZGSA,A,3,01,,,,,,,,,,,,2.2,1.3,1.7*2B
$IMGSA,A,3,,,,,,,,,,,,,2.2,1.3,1.7*25
$PGLOR,1,FIX,1.0,1.0*20
$GPRMC,150935.00,A,2913.211227,N,11926.847410,E,000.0,,221016,,,A*72
$PGLOR,SPL,20161022230934.7,POS,20161022150935.000,29.220187,119.447457,8,8,0,56,3,1.100000*65
$GPGGA,150936.00,2913.211276,N,11926.847387,E,1,09,0.8,50.6,M,6.2,M,,*60
$PGLOR,6,STA,150936.00,-0.003,0.000,-380,1,8,1,P,F,L,0,C,2,S,0002,0,2,R,33F4,TPEF,21,26413,LC,,*6D
$PGLOR,1,UNC,150936.00,0.013,8.0,3.1,0.26,180.00,6.9,4.0,-16.3*32
$PGLOR,2,SAT,2,1,G14,011,1F,R04,032,3F,G26,024,1F,G32,022,1F,G31,014,1F,R15,028,3F*3B
$PGLOR,2,SAT,2,2,G16,037,1F,Q01,020,3F,R03,012,33,G03,031,1F,R16,020,33*0E
$PGLOR,2,SIO,TxERR,0,RxERR,0,TxCNT,329,RxCNT,2696,MLFRMPKT,0,DTMS,1015,DTIN,17,33,DTOUT,288,966,HATMD,18*27
$PGLOR,2,SIO,TxERR,0,RxERR,0,TxCNT,329,RxCNT,2696,MLFRMPKT,0,DTMS,1015,DTIN,17,33,DTOUT,288,966,HATMD,18*27
$PGLOR,3,PWR,mA,36.1,RFTm,1001,OscTm,1000,MeasTm,1000,UTC,150936.00*3A
$GPGSV,3,1,10,14,79,038,11,26,59,233,29,32,57,124,23,31,56,351,21*7B
$GPGSV,3,2,10,16,29,222,37,03,17,309,32,29,30,079,,22,26,292,*76
$GPGSV,3,3,10,25,24,040,,10,12,179,*70
$GLGSV,3,1,10,68,66,229,32,79,44,303,30,67,23,173,21,80,05,257,23*67
$GLGSV,3,2,10,78,44,006,,69,38,318,,88,18,093,,87,10,046,*6D
$GLGSV,3,3,10,77,07,051,,81,07,142,*6E
$QZGSV,1,1,01,01,24,176,23*52
$GPGSA,A,3,03,16,26,31,32,,,,,,,,2.2,1.3,1.7*35
$GNGSA,A,3,03,16,26,31,32,,,,,,,,2.2,1.3,1.7*2B
$GNGSA,A,3,68,79,80,,,,,,,,,,2.2,1.3,1.7*20
$QZGSA,A,3,01,,,,,,,,,,,,2.2,1.3,1.7*2B
$IMGSA,A,3,,,,,,,,,,,,,2.2,1.3,1.7*25
$PGLOR,1,FIX,1.0,1.0*20
$GPRMC,150936.00,A,2913.211276,N,11926.847387,E,000.0,,221016,,,A*7C
$PGLOR,SPL,20161022230935.7,POS,20161022150936.000,29.220188,119.447456,8,8,0,57,3,1.100000*68
$GPGGA,150937.00,2913.211179,N,11926.847309,E,1,10,0.8,49.6,M,6.2,M,,*6B
$PGLOR,6,STA,150937.00,-0.003,0.000,-379,1,8,1,P,F,L,0,C,2,S,0002,0,2,R,33F4,TPEF,21,27413,LC,,*6B
$PGLOR,1,UNC,150937.00,0.013,8.0,3.1,0.21,180.00,6.9,4.1,-17.0*37
$PGLOR,2,SAT,2,1,G14,013,1F,R04,033,3F,G26,024,1F,G32,023,1F,G31,013,1F,R15,028,3F*3E
$PGLOR,2,SAT,2,2,G16,037,1F,Q01,021,3F,R03,011,3F,G03,031,1F,R16,022,33*7B
$PGLOR,2,SIO,TxERR,0,RxERR,0,TxCNT,328,RxCNT,2611,MLFRMPKT,0,DTMS,1024,DTIN,41,54,DTOUT,272,946,HATMD,42*21
$PGLOR,2,SIO,TxERR,0,RxERR,0,TxCNT,328,RxCNT,2611,MLFRMPKT,0,DTMS,1024,DTIN,41,54,DTOUT,272,946,HATMD,42*21
$PGLOR,3,PWR,mA,35.0,RFTm,1002,OscTm,1000,MeasTm,1000,UTC,150937.00*3A
$GPGSV,3,1,10,14,79,038,13,26,59,233,29,32,57,124,23,31,56,351,20*78
$GPGSV,3,2,10,16,29,222,37,03,17,309,32,29,30,079,,22,26,292,*76
$GPGSV,3,3,10,25,24,040,,10,12,179,*70
$GLGSV,3,1,10,68,66,229,33,79,44,303,30,67,23,173,20,80,05,257,23*67
$GLGSV,3,2,10,78,44,006,,69,38,318,,88,18,092,,87,10,046,*6C
$GLGSV,3,3,10,77,07,051,,81,07,142,*6E
$QZGSV,1,1,01,01,24,176,22*53
$GPGSA,A,3,03,14,16,26,31,32,,,,,,,2.0,1.3,1.6*33
$GNGSA,A,3,03,14,16,26,31,32,,,,,,,2.0,1.3,1.6*2D
$GNGSA,A,3,68,79,80,,,,,,,,,,2.0,1.3,1.6*23
$QZGSA,A,3,01,,,,,,,,,,,,2.0,1.3,1.6*28
$IMGSA,A,3,,,,,,,,,,,,,2.0,1.3,1.6*26
$PGLOR,1,FIX,1.0,1.0*20
$GPRMC,150937.00,A,2913.211179,N,11926.847309,E,000.0,,221016,,,A*77
$PGLOR,SPL,20161022230936.7,POS,20161022150937.000,29.220186,119.447455,8,8,0,56,3,1.100000*66
