$GPGGA,060622.00,2912.684319,N,11932.220032,E,1,14,0.6,163.9,M,6.2,M,,*56
$PGLOR,6,STA,060622.00,-0.641,0.000,-341,1,6,1,P,F,L,0,C,3,S,0002,12,5,R,33F4,TPEF,22,1142785,LC,,*5E
$PGLOR,1,UNC,060622.00,0.009,6.0,3.1,0.22,9.59,4.2,4.2,0.0*25
$PGLOR,2,SAT,3,1,Q01,036,1F,R24,025,1F,G02,033,1F,G13,027,13,G05,039,1F,R01,035,1F*5B
$PGLOR,2,SAT,3,2,R23,025,1B,G29,028,1F,G15,026,1F,R02,013,13,G20,021,13,G06,025,1F*30
$PGLOR,2,SAT,3,3,R08,027,1F,G30,025,1F,R17,027,1F*14
$PGLOR,2,SIO,TxERR,0,RxERR,0,TxCNT,455,RxCNT,3135,MLFRMPKT,0,DTMS,1009,DTIN,113,125,DTOUT,787,876,HATMD,35*2F
$PGLOR,2,SIO,TxERR,0,RxERR,0,TxCNT,455,RxCNT,3135,MLFRMPKT,0,DTMS,1009,DTIN,113,125,DTOUT,787,876,HATMD,35*2F
$PGLOR,3,PWR,mA,26.7,RFTm,1002,OscTm,1000,MeasTm,1000,UTC,060622.00*36
$GPGSV,3,1,12,02,64,091,37,13,63,183,32,05,59,357,39,29,36,305,32*73
$GPGSV,3,2,12,15,33,215,27,20,30,282,24,06,27,114,35,30,18,084,27*71
$GPGSV,3,3,12,07,09,055,,19,03,159,,12,02,225,,25,01,259,*7E
$GLGSV,3,1,09,88,66,321,25,65,58,334,35,87,58,163,26,66,30,255,20*64
$GLGSV,3,2,09,72,25,031,31,81,13,331,35,74,04,074,,86,04,155,*6C
$GLGSV,3,3,09,75,00,120,*5D
$QZGSV,1,1,01,01,69,048,36*53
$GPGSA,A,3,02,05,06,13,15,20,29,30,,,,,1.5,0.9,1.2*31
$GNGSA,A,3,02,05,06,13,15,20,29,30,,,,,1.5,0.9,1.2*2F
$GNGSA,A,3,65,72,81,87,88,,,,,,,,1.5,0.9,1.2*22
$QZGSA,A,3,01,,,,,,,,,,,,1.5,0.9,1.2*21
$IMGSA,A,3,,,,,,,,,,,,,1.5,0.9,1.2*2F
$PGLOR,1,FIX,1.0,1.0*20
$GPRMC,060622.00,A,2912.684319,N,11932.220032,E,000.0,335.3,231016,,,A*5F
$PGLOR,SPL,20161023140621.1,POS,20161023060622.000,29.211405,119.537001,6,6,0,170,3,1.100000*5E
$PGLOR,SPL,20161023140621.9,STATUS,2*3D
$PGLOR,SPL,20161023140621.9,ERR,5*6B
$GPGGA,060623.00,2912.684319,N,11932.220032,E,1,14,0.6,163.9,M,6.2,M,,*57
$PGLOR,6,STA,060623.00,-0.641,0.000,-341,1,6,0,P,F,L,0,C,3,S,0002,12,5,R,33F4,TPEF,22,1143785,LC,,*5F
$PGLOR,1,UNC,060623.00,0.009,6.0,3.0,0.23,12.00,4.4,4.0,-17.2*0F
$PGLOR,2,SAT,3,1,Q01,035,1F,R24,026,1F,G02,030,1F,G13,023,13,G05,040,1F,R01,037,1F*50
$PGLOR,2,SAT,3,2,R23,026,13,G29,034,1F,G15,024,1F,R02,019,13,G20,021,1B,G06,024,1F*37
$PGLOR,2,SAT,3,3,R08,025,1F,G30,023,1F,R17,029,1F*1E
$PGLOR,2,SIO,TxERR,0,RxERR,0,TxCNT,469,RxCNT,3163,MLFRMPKT,0,DTMS,991,DTIN,30,39,DTOUT,644,959,HATMD,26*16
$PGLOR,2,SIO,TxERR,0,RxERR,0,TxCNT,469,RxCNT,3163,MLFRMPKT,0,DTMS,991,DTIN,30,39,DTOUT,644,959,HATMD,26*16
$PGLOR,3,PWR,mA,26.7,RFTm,999,OscTm,1000,MeasTm,1000,UTC,060623.00*0D
$GPGSV,3,1,12,02,64,091,36,13,63,183,31,05,59,357,40,29,36,305,34*79
$GPGSV,3,2,12,15,33,215,26,20,30,282,24,06,27,114,34,30,18,084,27*71
$GPGSV,3,3,12,07,09,055,,19,03,159,,12,02,225,,25,01,259,*7E
$GLGSV,3,1,09,88,66,321,26,65,58,335,37,87,58,163,26,66,30,255,19*6E
$GLGSV,3,2,09,72,25,031,30,81,13,331,34,74,04,074,,86,04,155,*6C
$GLGSV,3,3,09,75,00,120,*5D
$QZGSV,1,1,01,01,69,048,36*53
$GPGSA,A,3,02,05,06,13,15,20,29,30,,,,,1.5,0.9,1.2*31
$GNGSA,A,3,02,05,06,13,15,20,29,30,,,,,1.5,0.9,1.2*2F
$GNGSA,A,3,65,72,81,87,88,,,,,,,,1.5,0.9,1.2*22
$QZGSA,A,3,01,,,,,,,,,,,,1.5,0.9,1.2*21
$IMGSA,A,3,,,,,,,,,,,,,1.5,0.9,1.2*2F
$PGLOR,1,FIX,1.0,1.0*20
$GPRMC,060623.00,A,2912.684319,N,11932.220032,E,000.0,335.3,231016,,,A*5E
$PGLOR,SPL,20161023140622.1,POS,20161023060623.000,29.211405,119.537001,6,6,0,170,3,1.100000*5C
$GPGGA,060624.00,2912.683184,N,11932.223272,E,1,15,0.4,163.9,M,6.2,M,,*57
$PGLOR,6,STA,060624.00,-0.641,0.000,-341,1,4,0,P,F,L,0,C,3,S,0002,12,5,R,33F4,TPEF,22,1144785,LC,,*5D
$PGLOR,1,UNC,060624.00,0.009,4.0,3.0,0.24,11.35,2.9,2.7,-24.6*06
$PGLOR,2,SAT,3,1,Q01,035,1F,R24,027,1F,G02,030,1F,G13,026,1F,G05,040,1F,R01,037,1F*21
$PGLOR,2,SAT,3,2,R23,024,13,G29,034,1F,G15,023,1F,R02,019,13,G20,022,1B,G06,028,1F*3D
$PGLOR,2,SAT,3,3,R08,024,1F,G30,023,17,R17,032,1F*64
$PGLOR,2,SIO,TxERR,0,RxERR,0,TxCNT,491,RxCNT,3146,MLFRMPKT,0,DTMS,1019,DTIN,19,42,DTOUT,882,959,HATMD,45*28
$PGLOR,2,SIO,TxERR,0,RxERR,0,TxCNT,491,RxCNT,3146,MLFRMPKT,0,DTMS,1019,DTIN,19,42,DTOUT,882,959,HATMD,45*28
$PGLOR,3,PWR,mA,26.7,RFTm,1001,OscTm,1000,MeasTm,1000,UTC,060624.00*33
$GPGSV,3,1,12,02,64,091,35,13,63,183,30,05,59,357,40,29,36,305,34*7B
$GPGSV,3,2,12,15,33,215,26,20,30,282,23,06,27,114,34,30,18,084,26*77
$GPGSV,3,3,12,07,09,055,,19,03,159,,12,02,225,,25,01,259,*7E
$GLGSV,3,1,09,88,66,321,27,65,58,335,37,87,58,163,26,66,30,255,19*6F
$GLGSV,3,2,09,72,25,031,30,81,13,331,34,74,04,074,,86,04,155,*6C
$GLGSV,3,3,09,75,00,120,*5D
$QZGSV,1,1,01,01,69,048,36*53
$GPGSA,A,3,02,05,06,12,13,15,20,29,30,,,,1.5,0.9,1.2*32
$GNGSA,A,3,02,05,06,12,13,15,20,29,30,,,,1.5,0.9,1.2*2C
$GNGSA,A,3,65,72,81,87,88,,,,,,,,1.5,0.9,1.2*22
$QZGSA,A,3,01,,,,,,,,,,,,1.5,0.9,1.2*21
$IMGSA,A,3,,,,,,,,,,,,,1.5,0.9,1.2*2F
$PGLOR,1,FIX,1.0,1.0*20
$GPRMC,060624.00,A,2912.683184,N,11932.223272,E,000.0,335.3,231016,,,A*5D
$PGLOR,SPL,20161023140623.1,POS,20161023060624.000,29.211386,119.537055,4,4,0,170,3,1.100000*57
$GPGGA,060625.00,2912.683184,N,11932.223272,E,1,14,0.4,163.9,M,6.2,M,,*57
$PGLOR,6,STA,060625.00,-0.641,0.000,-341,1,4,0,P,F,L,0,C,3,S,0002,12,5,R,33F4,TPEF,22,1145785,LC,,*5D
$PGLOR,1,UNC,060625.00,0.009,4.0,3.0,0.19,10.73,2.9,2.7,-36.3*0C
$PGLOR,2,SAT,3,1,Q01,035,1F,R24,026,17,G02,027,1F,G13,028,1F,G05,041,1F,R01,037,1F*58
$PGLOR,2,SAT,3,2,R23,022,13,G29,032,1F,G15,025,1F,R02,018,13,G20,020,1B,G06,030,1F*31
$PGLOR,2,SAT,3,3,R08,025,1F,G30,023,1F,R17,031,1F*17
$PGLOR,2,SIO,TxERR,0,RxERR,0,TxCNT,482,RxCNT,3109,MLFRMPKT,0,DTMS,981,DTIN,43,50,DTOUT,831,948,HATMD,26*19
$PGLOR,2,SIO,TxERR,0,RxERR,0,TxCNT,482,RxCNT,3109,MLFRMPKT,0,DTMS,981,DTIN,43,50,DTOUT,831,948,HATMD,26*19
$PGLOR,3,PWR,mA,26.7,RFTm,999,OscTm,1000,MeasTm,1000,UTC,060625.00*0B
$GPGSV,3,1,12,02,64,091,35,13,63,183,30,05,59,357,41,29,36,305,34*7A
$GPGSV,3,2,12,15,33,215,26,20,30,282,23,06,27,114,33,30,18,084,26*70
$GPGSV,3,3,12,07,09,055,,19,03,159,,12,02,225,,25,01,259,*7E
$GLGSV,3,1,09,88,66,321,27,65,58,335,37,87,58,163,25,66,30,255,19*6C
$GLGSV,3,2,09,72,25,031,29,81,13,331,34,74,04,074,,86,04,155,*64
$GLGSV,3,3,09,75,00,120,*5D
$QZGSV,1,1,01,01,69,048,36*53
$GPGSA,A,3,02,05,06,13,15,20,29,30,,,,,1.5,0.9,1.2*31
$GNGSA,A,3,02,05,06,13,15,20,29,30,,,,,1.5,0.9,1.2*2F
$GNGSA,A,3,65,72,81,87,88,,,,,,,,1.5,0.9,1.2*22
$QZGSA,A,3,01,,,,,,,,,,,,1.5,0.9,1.2*21
$IMGSA,A,3,,,,,,,,,,,,,1.5,0.9,1.2*2F
$PGLOR,1,FIX,1.0,1.0*20
$GPRMC,060625.00,A,2912.683184,N,11932.223272,E,000.0,335.3,231016,,,A*5C
$PGLOR,SPL,20161023140624.1,POS,20161023060625.000,29.211386,119.537055,4,4,0,170,3,1.100000*51
$PGLOR,NET,,,,,2.6,SSF,,A,4*00
$PGLOR,SPL,20161023140838.5,STATUS,2*37
$PGLOR,SPL,20161023140838.5,ERR,5*61
$PGLOR,2,NEW,PERFIX,0,PER,1000,QOP,-1,H,LTECO,*29
$PGLOR,0,RID,4752,37,19,16,232725*09
$GPGGA,060839.59,,,,,0,00,999.9,,M,,M,,*6E
$PGLOR,6,STA,060839.59,0.000,0.000,-343,98,9999,0,P,F,L,1,C,0,S,0000,0,1,R,0000,TPEF,22,14,LC,,*01
$PGLOR,1,UNC,060839.59,1000000.000,9999.0,9999.0,0.00,0.00,7070.4,7070.4,0.0*24
$PGLOR,2,SAT*32
$PGLOR,2,SIO,TxERR,0,RxERR,0,TxCNT,0,RxCNT,0,MLFRMPKT,0,DTMS,369,DTIN,83,86,DTOUT,62,275,HATMD,0*28
$PGLOR,2,SIO,TxERR,0,RxERR,0,TxCNT,0,RxCNT,0,MLFRMPKT,0,DTMS,369,DTIN,83,86,DTOUT,62,275,HATMD,0*28
$PGLOR,3,PWR,mA,0.0,RFTm,0,OscTm,0,MeasTm,0,UTC,060839.59*3E
$PGLOR,2,PFM,HAL,-,0,0,0,0,RF,-,-180,0.0,0,RTC,,P,STO,P,LTO,P,SW,P,,,OSC,,,*75
$PGLOR,0,NVM,aeopt,AEOPT*03
$GPGSV,3,1,12,13,64,183,,02,63,093,,05,59,359,,29,36,304,*70
$GPGSV,3,2,12,15,34,215,,20,30,283,,06,26,115,,30,18,083,*70
$GPGSV,3,3,12,07,09,055,,19,02,159,,12,01,225,,25,00,259,*7D
$GLGSV,3,1,09,88,67,319,,65,58,337,,87,56,164,,66,30,257,*61
$GLGSV,3,2,09,72,24,032,,81,14,331,,74,05,073,,86,03,156,*6F
$GLGSV,3,3,09,75,01,119,*56
$QZGSV,1,1,01,01,69,048,*56
$GPGSA,A,1,,,,,,,,,,,,,140.0,99.0,99.0*35
$GNGSA,A,1,,,,,,,,,,,,,140.0,99.0,99.0*2B
$GNGSA,A,1,,,,,,,,,,,,,140.0,99.0,99.0*2B
$QZGSA,A,1,,,,,,,,,,,,,140.0,99.0,99.0*29
$IMGSA,A,1,,,,,,,,,,,,,140.0,99.0,99.0*26
$GPRMC,060839.59,V,,,,,,,231016,,,N*72
$GPGGA,060840.59,,,,,0,00,999.9,,M,,M,,*60
$PGLOR,6,STA,060840.59,0.000,0.000,-343,98,9999,0,P,F,L,1,C,0,S,0000,0,1,R,0000,TPEF,22,1014,LC,,*0E
$PGLOR,1,UNC,060840.59,1000000.000,9999.0,9999.0,0.00,0.00,7070.4,7070.4,0.0*2A
$PGLOR,2,SAT,1,1,G13,022,11,G02,030,11,R01,036,10,G29,034,11,G15,026,11,G20,029,11*24
$PGLOR,2,SIO,TxERR,0,RxERR,0,TxCNT,16811,RxCNT,3354,MLFRMPKT,0,DTMS,921,DTIN,7,20,DTOUT,243,891,HATMD,-79*02
$PGLOR,2,SIO,TxERR,0,RxERR,0,TxCNT,16811,RxCNT,3354,MLFRMPKT,0,DTMS,921,DTIN,7,20,DTOUT,243,891,HATMD,-79*02
$PGLOR,3,PWR,mA,27.4,RFTm,1005,OscTm,1014,MeasTm,1014,UTC,060840.59*35
$GPGSV,3,1,12,13,64,183,22,02,63,093,30,29,36,304,34,15,34,215,26*73
$GPGSV,3,2,12,20,30,283,29,05,59,359,,06,26,115,,30,18,083,*78
$GPGSV,3,3,12,07,09,055,,19,02,159,,12,01,225,,25,00,259,*7D
$GLGSV,3,1,09,65,58,337,36,88,67,319,,87,56,164,,66,30,257,*64
$GLGSV,3,2,09,72,24,032,,81,14,331,,74,05,073,,86,03,156,*6F
$GLGSV,3,3,09,75,01,119,*56
$QZGSV,1,1,01,01,69,048,*56
$GPGSA,A,1,,,,,,,,,,,,,140.0,99.0,99.0*35
$GNGSA,A,1,,,,,,,,,,,,,140.0,99.0,99.0*2B
$GNGSA,A,1,,,,,,,,,,,,,140.0,99.0,99.0*2B
$QZGSA,A,1,,,,,,,,,,,,,140.0,99.0,99.0*29
$IMGSA,A,1,,,,,,,,,,,,,140.0,99.0,99.0*26
$GPRMC,060840.59,V,,,,,,,231016,,,N*7C
$GPGGA,060841.61,2912.690208,N,11932.242907,E,1,08,4.8,129.3,M,6.5,M,,*51
$PGLOR,6,STA,060841.61,-0.012,0.500,-341,98,48,0,P,F,L,0,C,0,S,0000,0,1,R,0000,TPEF,22,2014,LC,,*23
$PGLOR,1,UNC,060841.61,500000.142,48.0,9999.0,0.21,8.02,33.9,33.9,0.0*16
$PGLOR,2,SAT,2,1,Q01,034,17,G13,029,17,G02,032,17,G05,039,17,R01,035,17,G29,033,17*3D
$PGLOR,2,SAT,2,2,G15,025,10,R02,023,10,G20,032,17,G06,026,17*26
$PGLOR,2,SIO,TxERR,0,RxERR,0,TxCNT,568,RxCNT,3659,MLFRMPKT,0,DTMS,1080,DTIN,45,60,DTOUT,257,1006,HATMD,1*2F
$PGLOR,2,SIO,TxERR,0,RxERR,0,TxCNT,568,RxCNT,3659,MLFRMPKT,0,DTMS,1080,DTIN,45,60,DTOUT,257,1006,HATMD,1*2F
$PGLOR,3,PWR,mA,38.5,RFTm,1066,OscTm,1000,MeasTm,1000,UTC,060841.61*35
$GPGSV,3,1,12,13,64,183,29,02,63,093,32,05,59,359,39,29,36,304,34*77
$GPGSV,3,2,12,15,34,215,26,20,30,283,32,06,26,115,26,30,18,083,*71
$GPGSV,3,3,12,07,09,055,,19,02,159,,12,01,224,,25,00,258,*7D
$GLGSV,3,1,09,65,58,337,35,66,30,257,23,88,67,319,,87,56,164,*66
$GLGSV,3,2,09,72,24,032,,81,14,331,,74,05,073,,86,03,156,*6F
$GLGSV,3,3,09,75,01,119,*56
$QZGSV,1,1,01,01,69,048,34*51
$GPGSA,A,3,02,05,06,13,20,29,,,,,,,4.0,3.0,2.7*3A
$GNGSA,A,3,02,05,06,13,20,29,,,,,,,4.0,3.0,2.7*24
$GNGSA,A,3,65,,,,,,,,,,,,4.0,3.0,2.7*2D
$QZGSA,A,3,01,,,,,,,,,,,,4.0,3.0,2.7*2D
$IMGSA,A,3,,,,,,,,,,,,,4.0,3.0,2.7*23
$PGLOR,1,FIX,2.5,2.1*24
$GPRMC,060841.61,A,2912.690208,N,11932.242907,E,002.1,139.2,231016,,,A*50
$PGLOR,SPL,20161023140840.9,POS,20161023060841.606,29.211503,119.537382,48,48,0,136,9999,2.100000*69
$GPGGA,060842.60,2912.678883,N,11932.234101,E,1,11,3.2,175.7,M,6.5,M,,*5B
$PGLOR,6,STA,060842.60,-0.008,0.500,-343,98,32,0,P,F,L,0,C,0,S,0000,0,3,R,0000,TPEF,22,3014,LC,,*26
$PGLOR,1,UNC,060842.60,500000.034,32.0,9999.0,0.20,7.96,22.6,22.6,0.0*1A
$PGLOR,2,SAT,2,1,Q01,032,17,R24,032,17,G13,033,17,G02,031,17,G05,035,17,R01,033,17*20
$PGLOR,2,SAT,2,2,G29,037,17,G15,023,17,R02,030,13,G20,035,17,G06,023,17,R17,033,17*38
$PGLOR,2,SIO,TxERR,0,RxERR,0,TxCNT,802,RxCNT,3622,MLFRMPKT,0,DTMS,1080,DTIN,41,61,DTOUT,326,947,HATMD,81*25
$PGLOR,2,SIO,TxERR,0,RxERR,0,TxCNT,802,RxCNT,3622,MLFRMPKT,0,DTMS,1080,DTIN,41,61,DTOUT,326,947,HATMD,81*25
$PGLOR,3,PWR,mA,34.5,RFTm,1008,OscTm,1000,MeasTm,1000,UTC,060842.60*33
$GPGSV,3,1,12,13,64,183,33,02,63,093,31,05,59,359,38,29,36,304,37*7D
$GPGSV,3,2,12,15,34,215,25,20,30,283,35,06,26,115,25,30,18,083,*76
$GPGSV,3,3,12,07,09,055,,19,02,159,,12,01,224,,25,00,258,*7D
$GLGSV,3,1,09,88,67,319,32,65,58,337,35,66,30,257,30,81,14,331,33*67
$GLGSV,3,2,09,87,56,164,,72,24,032,,74,05,073,,86,03,156,*6D
$GLGSV,3,3,09,75,01,119,*56
$QZGSV,1,1,01,01,69,048,34*51
$GPGSA,A,3,02,05,06,13,15,20,29,,,,,,1.9,1.3,1.5*32
$GNGSA,A,3,02,05,06,13,15,20,29,,,,,,1.9,1.3,1.5*2C
$GNGSA,A,3,65,81,88,,,,,,,,,,1.9,1.3,1.5*28
$QZGSA,A,3,01,,,,,,,,,,,,1.9,1.3,1.5*21
$IMGSA,A,3,,,,,,,,,,,,,1.9,1.3,1.5*2F
$PGLOR,1,FIX,1.0,1.0*20
$GPRMC,060842.60,A,2912.678883,N,11932.234101,E,001.9,116.4,231016,,,A*52
$PGLOR,SPL,20161023140841.9,POS,20161023060842.603,29.211315,119.537235,32,32,0,182,9999,1.100000*6E
$GPGGA,060843.61,2912.677731,N,11932.234769,E,1,12,1.6,177.4,M,6.5,M,,*5E
$PGLOR,6,STA,060843.61,-0.020,0.009,-343,98,16,0,P,F,L,0,C,3,S,0002,0,3,R,33F4,TPEF,22,4014,LC,,*52
$PGLOR,1,UNC,060843.61,12000.000,16.0,10.0,0.15,180.00,11.5,11.1,-47.5*34
$PGLOR,2,SAT,3,1,Q01,031,1F,R24,032,1F,G13,031,1F,G02,031,1F,G05,034,1F,R01,034,1F*26
$PGLOR,2,SAT,3,2,R23,027,1B,G29,035,1F,G15,025,1F,R02,031,13,G20,038,1F,G06,021,1B*40
$PGLOR,2,SAT,3,3,R17,034,1F*0A
$PGLOR,2,SIO,TxERR,0,RxERR,0,TxCNT,560,RxCNT,3085,MLFRMPKT,0,DTMS,933,DTIN,98,116,DTOUT,809,885,HATMD,14*27
$PGLOR,2,SIO,TxERR,0,RxERR,0,TxCNT,560,RxCNT,3085,MLFRMPKT,0,DTMS,933,DTIN,98,116,DTOUT,809,885,HATMD,14*27
$PGLOR,3,PWR,mA,34.5,RFTm,1001,OscTm,1000,MeasTm,1000,UTC,060843.61*3A
$GPGSV,3,1,12,13,64,183,33,02,63,093,31,05,59,359,38,29,36,304,37*7D
$GPGSV,3,2,12,15,34,215,25,20,30,283,38,06,26,115,25,30,18,083,*7B
$GPGSV,3,3,12,07,09,055,,19,02,159,,12,01,224,,25,00,258,*7D
$GLGSV,3,1,09,88,67,319,32,65,58,337,35,87,56,164,27,66,30,257,31*61
$GLGSV,3,2,09,81,14,331,34,72,24,032,,74,05,073,,86,03,156,*68
$GLGSV,3,3,09,75,01,119,*56
$QZGSV,1,1,01,01,69,048,33*56
$GPGSA,A,3,02,05,06,13,15,20,29,,,,,,3.5,1.5,3.1*3C
$GNGSA,A,3,02,05,06,13,15,20,29,,,,,,3.5,1.5,3.1*22
$GNGSA,A,3,65,81,87,88,,,,,,,,,3.5,1.5,3.1*29
$QZGSA,A,3,01,,,,,,,,,,,,3.5,1.5,3.1*2F
$IMGSA,A,3,,,,,,,,,,,,,3.5,1.5,3.1*21
$PGLOR,1,FIX,1.0,1.0*20
$GPRMC,060843.61,A,2912.677731,N,11932.234769,E,,,231016,,,A*59
$PGLOR,SPL,20161023140842.9,POS,20161023060843.614,29.211296,119.537246,16,16,0,184,10,1.100000*63
$GPGGA,060844.60,2912.676796,N,11932.234228,E,1,12,1.2,176.5,M,6.5,M,,*50
$PGLOR,6,STA,060844.60,-0.010,0.000,-340,1,12,0,P,F,L,0,C,3,S,0002,0,3,R,33F4,TPEF,22,5014,LC,,*68
$PGLOR,1,UNC,060844.60,0.021,12.0,10.0,0.16,34.00,8.8,8.2,-74.4*04
$PGLOR,2,SAT,3,1,Q01,031,1F,R24,031,1F,G13,030,1F,G02,030,1F,G05,032,1F,R01,034,13*56
$PGLOR,2,SAT,3,2,R23,027,1B,G29,035,17,G15,024,1F,R02,031,13,G20,037,1F,G06,019,1B*34
$PGLOR,2,SAT,3,3,R17,033,1F*0D
$PGLOR,2,SIO,TxERR,0,RxERR,0,TxCNT,371,RxCNT,3284,MLFRMPKT,0,DTMS,1006,DTIN,39,55,DTOUT,451,943,HATMD,20*2C
$PGLOR,2,SIO,TxERR,0,RxERR,0,TxCNT,371,RxCNT,3284,MLFRMPKT,0,DTMS,1006,DTIN,39,55,DTOUT,451,943,HATMD,20*2C
$PGLOR,3,PWR,mA,33.9,RFTm,999,OscTm,1000,MeasTm,1000,UTC,060844.60*0E
$GPGSV,3,1,12,13,64,183,32,02,63,093,31,05,59,359,37,29,36,304,36*72
$GPGSV,3,2,12,15,34,215,25,20,30,283,38,06,26,115,24,30,18,083,*7A
$GPGSV,3,3,12,07,09,055,,19,02,159,,12,01,224,,25,00,258,*7D
$GLGSV,3,1,09,88,68,319,32,65,58,337,35,87,56,164,27,66,30,257,31*6E
$GLGSV,3,2,09,81,14,331,34,72,24,032,,74,05,073,,86,03,156,*68
$GLGSV,3,3,09,75,01,119,*56
$QZGSV,1,1,01,01,69,048,33*56
$GPGSA,A,3,02,05,06,13,15,20,29,,,,,,2.7,1.5,2.3*3C
$GNGSA,A,3,02,05,06,13,15,20,29,,,,,,2.7,1.5,2.3*22
$GNGSA,A,3,65,81,87,88,,,,,,,,,2.7,1.5,2.3*29
$QZGSA,A,3,01,,,,,,,,,,,,2.7,1.5,2.3*2F
$IMGSA,A,3,,,,,,,,,,,,,2.7,1.5,2.3*21
$PGLOR,1,FIX,1.0,1.0*20
$GPRMC,060844.60,A,2912.676796,N,11932.234228,E,000.0,,231016,,,A*7D
$PGLOR,SPL,20161023140843.9,POS,20161023060844.604,29.211280,119.537237,12,12,0,183,10,1.100000*62
$GPGGA,060845.60,2912.676999,N,11932.233777,E,1,12,0.6,171.9,M,6.5,M,,*56
$PGLOR,6,STA,060845.60,-0.010,0.000,-342,1,6,1,P,F,L,0,C,3,S,0002,0,3,R,33F4,TPEF,22,6014,LC,,*5C
$PGLOR,1,UNC,060845.60,0.023,6.0,10.0,0.17,180.00,4.4,4.1,-45.1*05
$PGLOR,2,SAT,3,1,Q01,026,1B,R24,031,1F,G13,033,1F,G02,030,1F,G05,029,1F,R01,032,1F*2E
$PGLOR,2,SAT,3,2,R23,031,1F,G29,038,1F,G15,022,1F,R02,030,13,G20,038,1F,G06,017,13*3C
$PGLOR,2,SAT,3,3,R17,033,1F*0D
$PGLOR,2,SIO,TxERR,0,RxERR,0,TxCNT,567,RxCNT,2970,MLFRMPKT,0,DTMS,976,DTIN,40,45,DTOUT,866,952,HATMD,-4*0F
$PGLOR,2,SIO,TxERR,0,RxERR,0,TxCNT,567,RxCNT,2970,MLFRMPKT,0,DTMS,976,DTIN,40,45,DTOUT,866,952,HATMD,-4*0F
$PGLOR,3,PWR,mA,35.6,RFTm,998,OscTm,1000,MeasTm,1000,UTC,060845.60*07
$GPGSV,3,1,12,13,64,183,33,02,63,093,31,05,59,359,37,29,36,304,38*7D
$GPGSV,3,2,12,15,34,215,25,20,30,283,38,06,26,115,24,30,18,083,*7A
$GPGSV,3,3,12,07,09,055,,19,02,159,,12,01,224,,25,00,258,*7D
$GLGSV,3,1,09,88,68,319,32,65,58,337,35,87,56,164,31,66,30,257,31*69
$GLGSV,3,2,09,81,14,331,34,72,24,032,,74,05,073,,86,03,156,*68
$GLGSV,3,3,09,75,01,119,*56
$QZGSV,1,1,01,01,69,048,32*57
$GPGSA,A,3,02,05,06,13,15,20,29,,,,,,2.5,1.4,2.1*3D
$GNGSA,A,3,02,05,06,13,15,20,29,,,,,,2.5,1.4,2.1*23
$GNGSA,A,3,65,81,87,88,,,,,,,,,2.5,1.4,2.1*28
$QZGSA,A,3,01,,,,,,,,,,,,2.5,1.4,2.1*2E
$IMGSA,A,3,,,,,,,,,,,,,2.5,1.4,2.1*20
$PGLOR,1,FIX,1.0,1.0*20
$GPRMC,060845.60,A,2912.676999,N,11932.233777,E,000.0,,231016,,,A*75
$PGLOR,SPL,20161023140844.8,POS,20161023060845.604,29.211283,119.537230,6,6,0,178,10,1.100000*65
$GPGGA,060847.00,2912.677958,N,11932.234155,E,1,12,0.8,168.5,M,6.5,M,,*55
$PGLOR,6,STA,060847.00,-0.010,0.000,-344,1,8,1,P,F,L,0,C,3,S,0002,0,3,R,33F4,TPEF,22,7409,LC,,*59
$PGLOR,1,UNC,060847.00,0.025,8.0,7.1,0.18,180.00,6.1,5.2,-44.4*30
$PGLOR,2,SAT,3,1,Q01,024,1F,R24,030,1F,G13,034,1F,G02,032,1F,G05,026,1F,R01,031,1F*20
$PGLOR,2,SAT,3,2,R23,030,1F,G29,037,1F,G15,021,1F,R02,027,13,G20,037,1F,G06,016,13*39
$PGLOR,2,SAT,3,3,R17,036,1F*08
$PGLOR,2,SIO,TxERR,0,RxERR,0,TxCNT,373,RxCNT,3093,MLFRMPKT,0,DTMS,1324,DTIN,16,27,DTOUT,884,1295,HATMD,-75*39
$PGLOR,2,SIO,TxERR,0,RxERR,0,TxCNT,373,RxCNT,3093,MLFRMPKT,0,DTMS,1324,DTIN,16,27,DTOUT,884,1295,HATMD,-75*39
$PGLOR,3,PWR,mA,35.7,RFTm,1323,OscTm,1320,MeasTm,1320,UTC,060847.00*39
$GPGSV,3,1,12,13,64,183,34,02,63,093,32,05,59,359,35,29,36,304,38*7B
$GPGSV,3,2,12,15,34,215,25,20,30,283,38,06,26,115,23,30,18,083,*7D
$GPGSV,3,3,12,07,09,055,,19,02,159,,12,01,224,,25,00,258,*7D
$GLGSV,3,1,09,88,68,319,31,65,58,337,34,87,56,164,31,66,30,257,31*6B
$GLGSV,3,2,09,81,14,331,36,72,24,032,,74,05,073,,86,03,156,*6A
$GLGSV,3,3,09,75,01,119,*56
$QZGSV,1,1,01,01,69,048,32*57
$GPGSA,A,3,02,05,06,13,15,20,29,,,,,,2.5,1.3,2.1*3A
$GNGSA,A,3,02,05,06,13,15,20,29,,,,,,2.5,1.3,2.1*24
$GNGSA,A,3,65,81,87,88,,,,,,,,,2.5,1.3,2.1*2F
$QZGSA,A,3,01,,,,,,,,,,,,2.5,1.3,2.1*29
$IMGSA,A,3,,,,,,,,,,,,,2.5,1.3,2.1*27
$PGLOR,1,FIX,1.4,1.4*20
$GPRMC,060847.00,A,2912.677958,N,11932.234155,E,000.0,,231016,,,A*7C
$PGLOR,SPL,20161023140846.2,POS,20161023060846.999,29.211299,119.537236,8,8,0,175,7,1.495000*5A
$GPGGA,060848.00,2912.677860,N,11932.234499,E,1,12,0.8,164.7,M,6.5,M,,*5B
$PGLOR,6,STA,060848.00,-0.010,0.000,-341,1,8,1,P,F,L,0,C,3,S,0002,0,3,R,33F4,TPEF,22,8409,LC,,*5C
$PGLOR,1,UNC,060848.00,0.026,8.0,6.1,0.15,180.00,6.0,5.3,-40.5*35
$PGLOR,2,SAT,3,1,Q01,024,1F,R24,029,1F,G13,034,1F,G02,033,1F,G05,027,1F,R01,030,1B*2D
$PGLOR,2,SAT,3,2,R23,030,1F,G29,037,1F,G15,019,1F,R02,025,13,G20,037,1F,G06,015,13*33
$PGLOR,2,SAT,3,3,R17,034,1F*0A
$PGLOR,2,SIO,TxERR,0,RxERR,0,TxCNT,421,RxCNT,2982,MLFRMPKT,0,DTMS,1057,DTIN,18,24,DTOUT,846,1033,HATMD,-18*30
$PGLOR,2,SIO,TxERR,0,RxERR,0,TxCNT,421,RxCNT,2982,MLFRMPKT,0,DTMS,1057,DTIN,18,24,DTOUT,846,1033,HATMD,-18*30
$PGLOR,3,PWR,mA,35.6,RFTm,1058,OscTm,1060,MeasTm,1060,UTC,060848.00*38
$GPGSV,3,1,12,13,64,183,34,02,63,093,33,05,59,359,34,29,36,304,37*74
$GPGSV,3,2,12,15,34,215,24,20,30,283,38,06,26,115,22,30,18,083,*7D
$GPGSV,3,3,12,07,09,054,,19,02,159,,12,01,224,,25,00,258,*7C
$GLGSV,3,1,09,88,68,319,31,65,58,337,34,87,56,164,31,66,30,257,30*6A
$GLGSV,3,2,09,81,14,331,36,72,24,032,,74,05,073,,86,03,156,*6A
$GLGSV,3,3,09,75,01,119,*56
$QZGSV,1,1,01,01,69,048,31*54
$GPGSA,A,3,02,05,06,13,15,20,29,,,,,,2.6,1.4,2.2*3D
$GNGSA,A,3,02,05,06,13,15,20,29,,,,,,2.6,1.4,2.2*23
$GNGSA,A,3,65,81,87,88,,,,,,,,,2.6,1.4,2.2*28
$QZGSA,A,3,01,,,,,,,,,,,,2.6,1.4,2.2*2E
$IMGSA,A,3,,,,,,,,,,,,,2.6,1.4,2.2*20
$PGLOR,1,FIX,1.0,1.0*20
$GPRMC,060848.00,A,2912.677860,N,11932.234499,E,000.0,,231016,,,A*7C
$PGLOR,SPL,20161023140847.2,POS,20161023060847.999,29.211298,119.537242,8,8,0,171,6,1.100000*54
$GPGGA,060849.00,2912.678077,N,11932.234998,E,1,12,0.8,162.6,M,6.5,M,,*50
$PGLOR,6,STA,060849.00,-0.010,0.000,-341,1,8,1,P,F,L,0,C,3,S,0002,0,3,R,33F4,TPEF,22,9409,LC,,*5C
$PGLOR,1,UNC,060849.00,0.025,8.0,5.9,0.16,180.00,5.9,5.4,-25.0*34
$PGLOR,2,SAT,3,1,Q01,021,1F,R24,029,1F,G13,035,1F,G02,032,1F,G05,029,1F,R01,030,1F*22
$PGLOR,2,SAT,3,2,R23,031,1F,G29,037,1F,G15,019,1B,R02,029,13,G20,037,1F,G06,012,13*3D
$PGLOR,2,SAT,3,3,R17,035,1F*0B
$PGLOR,2,SIO,TxERR,0,RxERR,0,TxCNT,391,RxCNT,2958,MLFRMPKT,0,DTMS,1033,DTIN,21,41,DTOUT,815,975,HATMD,15*2C
$PGLOR,2,SIO,TxERR,0,RxERR,0,TxCNT,391,RxCNT,2958,MLFRMPKT,0,DTMS,1033,DTIN,21,41,DTOUT,815,975,HATMD,15*2C
$PGLOR,3,PWR,mA,35.7,RFTm,1016,OscTm,1015,MeasTm,1015,UTC,060849.00*32
$GPGSV,3,1,12,13,64,183,35,02,63,093,33,05,59,359,34,29,36,304,37*75
$GPGSV,3,2,12,15,34,215,23,20,30,283,38,06,26,115,21,30,18,083,*79
$GPGSV,3,3,12,07,09,054,,19,02,159,,12,01,224,,25,00,258,*7C
$GLGSV,3,1,09,88,68,319,31,65,58,337,33,87,56,164,31,66,30,257,30*6D
$GLGSV,3,2,09,81,14,331,35,72,24,032,,74,05,073,,86,03,156,*69
$GLGSV,3,3,09,75,01,119,*56
$QZGSV,1,1,01,01,69,048,30*55
$GPGSA,A,3,02,05,06,13,15,20,29,,,,,,2.7,1.5,2.2*3D
$GNGSA,A,3,02,05,06,13,15,20,29,,,,,,2.7,1.5,2.2*23
$GNGSA,A,3,65,81,87,88,,,,,,,,,2.7,1.5,2.2*28
$QZGSA,A,3,01,,,,,,,,,,,,2.7,1.5,2.2*2E
$IMGSA,A,3,,,,,,,,,,,,,2.7,1.5,2.2*20
$PGLOR,1,FIX,1.0,1.0*20
$GPRMC,060849.00,A,2912.678077,N,11932.234998,E,000.0,,231016,,,A*70
$PGLOR,SPL,20161023140848.3,POS,20161023060848.999,29.211301,119.537250,8,8,0,169,6,1.100000*5E
$GPGGA,060850.00,2912.677985,N,11932.235186,E,1,12,0.8,160.2,M,6.5,M,,*53
$PGLOR,6,STA,060850.00,-0.010,0.000,-342,1,8,1,P,F,L,0,C,3,S,0002,0,3,R,33F4,TPEF,22,10409,LC,,*6F
$PGLOR,1,UNC,060850.00,0.024,8.0,5.8,0.14,180.00,6.0,5.3,-10.7*32
$PGLOR,2,SAT,3,1,Q01,021,1F,R24,031,1F,G13,036,1F,G02,033,1F,G05,030,1F,R01,032,1F*23
$PGLOR,2,SAT,3,2,R23,032,1F,G29,035,1F,G15,024,1B,R02,032,13,G20,038,1F,G06,016,13*33
$PGLOR,2,SAT,3,3,R17,033,1F*0D
$PGLOR,2,SIO,TxERR,0,RxERR,0,TxCNT,404,RxCNT,2911,MLFRMPKT,0,DTMS,1000,DTIN,35,51,DTOUT,833,946,HATMD,15*2A
$PGLOR,2,SIO,TxERR,0,RxERR,0,TxCNT,404,RxCNT,2911,MLFRMPKT,0,DTMS,1000,DTIN,35,51,DTOUT,833,946,HATMD,15*2A
$PGLOR,3,PWR,mA,35.6,RFTm,999,OscTm,1000,MeasTm,1000,UTC,060850.00*04
$GPGSV,3,1,12,13,64,183,36,02,63,093,33,05,59,359,33,29,36,304,37*71
$GPGSV,3,2,12,15,34,215,24,20,30,283,38,06,26,115,20,30,18,083,*7F
$GPGSV,3,3,12,07,09,054,,19,02,159,,12,01,224,,25,00,258,*7C
$GLGSV,3,1,09,88,68,319,31,65,58,337,33,87,56,164,32,66,30,257,32*6C
$GLGSV,3,2,09,81,14,331,35,72,24,032,,74,05,073,,86,03,156,*69
$GLGSV,3,3,09,75,01,119,*56
$QZGSV,1,1,01,01,69,048,29*5D
$GPGSA,A,3,02,05,06,13,15,20,29,,,,,,2.7,1.5,2.2*3D
$GNGSA,A,3,02,05,06,13,15,20,29,,,,,,2.7,1.5,2.2*23
$GNGSA,A,3,65,81,87,88,,,,,,,,,2.7,1.5,2.2*28
$QZGSA,A,3,01,,,,,,,,,,,,2.7,1.5,2.2*2E
$IMGSA,A,3,,,,,,,,,,,,,2.7,1.5,2.2*20
$PGLOR,1,FIX,1.0,1.0*20
$GPRMC,060850.00,A,2912.677985,N,11932.235186,E,000.0,,231016,,,A*75
$PGLOR,SPL,20161023140849.3,POS,20161023060849.999,29.211300,119.537253,8,8,0,167,6,1.100000*52
$GPGGA,060851.00,2912.678229,N,11932.235286,E,1,12,0.8,161.1,M,6.5,M,,*51
$PGLOR,6,STA,060851.00,-0.010,0.000,-342,1,8,0,P,F,L,0,C,3,S,0002,0,3,R,33F4,TPEF,22,11409,LC,,*6E
$PGLOR,1,UNC,060851.00,0.023,8.0,5.8,0.15,180.00,6.1,5.2,-3.4*04
$PGLOR,2,SAT,3,1,Q01,024,1F,R24,031,1F,G13,035,1F,G02,033,1F,G05,028,1F,R01,035,1B*2F
$PGLOR,2,SAT,3,2,R23,030,1F,G29,035,1F,G15,026,1B,R02,033,13,G20,038,1F,G06,018,13*3C
$PGLOR,2,SAT,3,3,R17,033,1F*0D
$PGLOR,2,SIO,TxERR,0,RxERR,0,TxCNT,390,RxCNT,2904,MLFRMPKT,0,DTMS,999,DTIN,75,86,DTOUT,835,914,HATMD,14*12
$PGLOR,2,SIO,TxERR,0,RxERR,0,TxCNT,390,RxCNT,2904,MLFRMPKT,0,DTMS,999,DTIN,75,86,DTOUT,835,914,HATMD,14*12
$PGLOR,3,PWR,mA,35.7,RFTm,1002,OscTm,1000,MeasTm,1000,UTC,060851.00*3E
$PGLOR,2,PFM,HAL,-,0,0,0,0,RF,-,-180,17.4,0,RTC,,P,STO,P,LTO,P,SW,P,,,OSC,,,*47
$GPGSV,3,1,12,13,64,183,36,02,63,093,33,05,59,359,33,29,36,304,37*71
$GPGSV,3,2,12,15,34,215,26,20,30,283,38,06,26,115,20,30,18,083,*7D
$GPGSV,3,3,12,07,09,054,,19,02,159,,12,01,224,,25,00,258,*7C
$GLGSV,3,1,09,88,68,319,31,65,58,337,35,87,56,164,32,66,30,257,33*6B
$GLGSV,3,2,09,81,14,331,35,72,24,032,,74,05,073,,86,03,156,*69
$GLGSV,3,3,09,75,01,119,*56
$QZGSV,1,1,01,01,69,048,28*5C
$GPGSA,A,3,02,05,06,13,15,20,29,,,,,,2.8,1.5,2.4*34
$GNGSA,A,3,02,05,06,13,15,20,29,,,,,,2.8,1.5,2.4*2A
$GNGSA,A,3,65,81,87,88,,,,,,,,,2.8,1.5,2.4*21
$QZGSA,A,3,01,,,,,,,,,,,,2.8,1.5,2.4*27
$IMGSA,A,3,,,,,,,,,,,,,2.8,1.5,2.4*29
$PGLOR,1,FIX,1.0,1.0*20
$GPRMC,060851.00,A,2912.678229,N,11932.235286,E,000.0,,231016,,,A*75
$PGLOR,SPL,20161023140850.3,POS,20161023060850.999,29.211304,119.537255,8,8,0,168,6,1.100000*5F
$GPGGA,060852.00,2912.678519,N,11932.235038,E,1,12,0.8,162.5,M,6.5,M,,*56
$PGLOR,6,STA,060852.00,-0.010,0.000,-342,1,8,1,P,F,L,0,C,3,S,0002,0,3,R,33F4,TPEF,22,12409,LC,,*6F
$PGLOR,1,UNC,060852.00,0.024,8.0,5.8,0.19,180.00,6.0,5.3,-2.8*01
$PGLOR,2,SAT,3,1,Q01,029,1F,R24,031,1F,G13,033,1F,G02,032,1F,G05,030,1F,R01,037,1B*2E
$PGLOR,2,SAT,3,2,R23,026,1F,G29,035,1F,G15,028,1B,R02,032,13,G20,037,1F,G06,017,13*34
$PGLOR,2,SAT,3,3,R17,035,1F*0B
$PGLOR,2,SIO,TxERR,0,RxERR,0,TxCNT,358,RxCNT,2943,MLFRMPKT,0,DTMS,984,DTIN,34,45,DTOUT,876,953,HATMD,-2*0D
$PGLOR,2,SIO,TxERR,0,RxERR,0,TxCNT,358,RxCNT,2943,MLFRMPKT,0,DTMS,984,DTIN,34,45,DTOUT,876,953,HATMD,-2*0D
$PGLOR,3,PWR,mA,35.6,RFTm,999,OscTm,1000,MeasTm,1000,UTC,060852.00*06
$GPGSV,3,1,12,13,64,183,35,02,63,093,33,05,59,359,33,29,36,304,37*72
$GPGSV,3,2,12,15,34,215,28,20,30,283,38,06,26,115,20,30,18,083,*73
$GPGSV,3,3,12,07,09,054,,19,02,159,,12,01,224,,25,00,258,*7C
$GLGSV,3,1,09,88,68,319,31,65,58,337,37,87,56,164,31,66,30,257,33*6A
$GLGSV,3,2,09,81,14,331,35,72,24,032,,74,05,073,,86,03,156,*69
$GLGSV,3,3,09,75,01,119,*56
$QZGSV,1,1,01,01,69,048,29*5D
$GPGSA,A,3,02,05,06,13,15,20,29,,,,,,2.8,1.5,2.4*34
$GNGSA,A,3,02,05,06,13,15,20,29,,,,,,2.8,1.5,2.4*2A
$GNGSA,A,3,65,81,87,88,,,,,,,,,2.8,1.5,2.4*21
$QZGSA,A,3,01,,,,,,,,,,,,2.8,1.5,2.4*27
$IMGSA,A,3,,,,,,,,,,,,,2.8,1.5,2.4*29
$PGLOR,1,FIX,1.0,1.0*20
$GPRMC,060852.00,A,2912.678519,N,11932.235038,E,000.0,,231016,,,A*75
$PGLOR,SPL,20161023140851.2,POS,20161023060851.999,29.211309,119.537251,8,8,0,169,6,1.100000*56
$GPGGA,060853.00,2912.678855,N,11932.235050,E,1,12,0.8,164.0,M,6.5,M,,*5F
$PGLOR,6,STA,060853.00,-0.010,0.000,-342,1,8,1,P,F,L,0,C,3,S,0002,0,3,R,33F4,TPEF,22,13409,LC,,*6F
$PGLOR,1,UNC,060853.00,0.023,8.0,5.2,0.14,180.00,6.1,5.2,1.2*24
$PGLOR,2,SAT,3,1,Q01,029,1F,R24,031,1F,G13,034,1F,G02,031,1F,G05,029,1F,R01,036,1B*23
$PGLOR,2,SAT,3,2,R23,024,1F,G29,034,1F,G15,028,1B,R02,030,13,G20,037,1F,G06,015,13*37
$PGLOR,2,SAT,3,3,R17,035,1F*0B
$PGLOR,2,SIO,TxERR,0,RxERR,0,TxCNT,390,RxCNT,2971,MLFRMPKT,0,DTMS,1000,DTIN,17,25,DTOUT,875,974,HATMD,-2*3D
$PGLOR,2,SIO,TxERR,0,RxERR,0,TxCNT,390,RxCNT,2971,MLFRMPKT,0,DTMS,1000,DTIN,17,25,DTOUT,875,974,HATMD,-2*3D
$PGLOR,3,PWR,mA,35.7,RFTm,1000,OscTm,1000,MeasTm,1000,UTC,060853.00*3E
$GPGSV,3,1,12,13,64,183,35,02,63,093,33,05,59,359,32,29,36,304,36*72
$GPGSV,3,2,12,15,34,215,28,20,30,283,38,06,26,115,19,30,18,083,*79
$GPGSV,3,3,12,07,09,054,,19,02,159,,12,01,224,,25,00,258,*7C
$GLGSV,3,1,09,88,68,319,31,65,58,337,37,87,56,164,31,66,30,257,33*6A
$GLGSV,3,2,09,81,14,331,35,72,24,032,,74,05,073,,86,03,156,*69
$GLGSV,3,3,09,75,01,119,*56
$QZGSV,1,1,01,01,69,048,29*5D
$GPGSA,A,3,02,05,06,13,15,20,29,,,,,,2.8,1.5,2.4*34
$GNGSA,A,3,02,05,06,13,15,20,29,,,,,,2.8,1.5,2.4*2A
$GNGSA,A,3,65,81,87,88,,,,,,,,,2.8,1.5,2.4*21
$QZGSA,A,3,01,,,,,,,,,,,,2.8,1.5,2.4*27
$IMGSA,A,3,,,,,,,,,,,,,2.8,1.5,2.4*29
$PGLOR,1,FIX,1.0,1.0*20
$GPRMC,060853.00,A,2912.678855,N,11932.235050,E,000.0,,231016,,,A*7F
$PGLOR,SPL,20161023140852.2,POS,20161023060852.999,29.211314,119.537251,8,8,0,170,5,1.100000*51
$GPGGA,060854.00,2912.679361,N,11932.235040,E,1,12,0.8,165.7,M,6.5,M,,*52
$PGLOR,6,STA,060854.00,-0.010,0.000,-343,1,8,1,P,F,L,0,C,3,S,0002,0,3,R,33F4,TPEF,22,14409,LC,,*6E
$PGLOR,1,UNC,060854.00,0.022,8.0,4.8,0.13,180.00,6.2,5.1,3.2*2C
$PGLOR,2,SAT,3,1,Q01,028,1F,R24,030,1F,G13,034,1F,G02,033,1F,G05,025,1F,R01,035,1B*2E
$PGLOR,2,SAT,3,2,R23,026,1F,G29,035,1F,G15,028,1B,R02,031,13,G20,038,1F,G06,014,13*3B
$PGLOR,2,SAT,3,3,R17,035,1F*0B
$PGLOR,2,SIO,TxERR,0,RxERR,0,TxCNT,391,RxCNT,3176,MLFRMPKT,0,DTMS,1001,DTIN,18,29,DTOUT,283,971,HATMD,-1*35
$PGLOR,2,SIO,TxERR,0,RxERR,0,TxCNT,391,RxCNT,3176,MLFRMPKT,0,DTMS,1001,DTIN,18,29,DTOUT,283,971,HATMD,-1*35
$PGLOR,3,PWR,mA,35.7,RFTm,1001,OscTm,1000,MeasTm,1000,UTC,060854.00*38
$PGLOR,2,PFM,HAL,-,0,0,0,0,RF,-,-180,12.8,0,RTC,,P,STO,P,LTO,P,SW,P,,,OSC,P,*32
$GPGSV,3,1,12,13,64,183,35,02,63,093,33,05,59,359,31,29,36,304,36*71
$GPGSV,3,2,12,15,34,215,28,20,30,283,38,06,26,115,19,30,18,083,*79
$GPGSV,3,3,12,07,09,054,,19,02,159,,12,01,224,,25,00,258,*7C
$GLGSV,3,1,09,88,68,319,31,65,58,337,37,87,56,164,30,66,30,257,32*6A
$GLGSV,3,2,09,81,14,331,35,72,24,032,,74,05,073,,86,03,156,*69
$GLGSV,3,3,09,75,01,119,*56
$QZGSV,1,1,01,01,69,048,29*5D
$GPGSA,A,3,02,05,06,13,15,20,29,,,,,,2.8,1.5,2.4*34
$GNGSA,A,3,02,05,06,13,15,20,29,,,,,,2.8,1.5,2.4*2A
$GNGSA,A,3,65,81,87,88,,,,,,,,,2.8,1.5,2.4*21
$QZGSA,A,3,01,,,,,,,,,,,,2.8,1.5,2.4*27
$IMGSA,A,3,,,,,,,,,,,,,2.8,1.5,2.4*29
$PGLOR,1,FIX,1.0,1.0*20
$GPRMC,060854.00,A,2912.679361,N,11932.235040,E,000.0,,231016,,,A*74
$PGLOR,SPL,20161023140853.2,POS,20161023060853.999,29.211323,119.537251,8,8,0,172,5,1.100000*57
$GPGGA,060855.00,2912.679715,N,11932.235025,E,1,12,0.8,165.9,M,6.5,M,,*59
$PGLOR,6,STA,060855.00,-0.010,0.000,-343,1,8,1,P,F,L,0,C,3,S,0002,0,3,R,33F4,TPEF,22,15409,LC,,*6E
$PGLOR,1,UNC,060855.00,0.021,8.0,4.6,0.14,180.00,6.2,5.0,4.6*25
$PGLOR,2,SAT,3,1,Q01,026,1F,R24,030,1F,G13,035,1F,G02,032,1F,G05,022,1F,R01,034,1B*26
$PGLOR,2,SAT,3,2,R23,028,1F,G29,036,1F,G15,027,1B,R02,032,13,G20,038,1F,G06,014,13*3A
$PGLOR,2,SAT,3,3,R17,035,1F*0B
$PGLOR,2,SIO,TxERR,0,RxERR,0,TxCNT,392,RxCNT,2974,MLFRMPKT,0,DTMS,1011,DTIN,19,30,DTOUT,720,969,HATMD,10*2D
$PGLOR,2,SIO,TxERR,0,RxERR,0,TxCNT,392,RxCNT,2974,MLFRMPKT,0,DTMS,1011,DTIN,19,30,DTOUT,720,969,HATMD,10*2D
$PGLOR,3,PWR,mA,35.6,RFTm,999,OscTm,1000,MeasTm,1000,UTC,060855.00*01
$GPGSV,3,1,12,13,64,183,35,02,63,093,33,05,59,359,31,29,36,304,36*71
$GPGSV,3,2,12,15,34,215,28,20,30,283,38,06,26,115,18,30,18,083,*78
$GPGSV,3,3,12,07,09,054,,19,02,159,,12,01,224,,25,00,258,*7C
$GLGSV,3,1,09,88,68,319,31,65,57,337,37,87,56,164,30,66,30,257,32*65
$GLGSV,3,2,09,81,14,331,35,72,24,032,,74,05,073,,86,03,156,*69
$GLGSV,3,3,09,75,01,119,*56
$QZGSV,1,1,01,01,69,048,29*5D
$GPGSA,A,3,02,05,06,13,15,20,29,,,,,,2.8,1.5,2.4*34
$GNGSA,A,3,02,05,06,13,15,20,29,,,,,,2.8,1.5,2.4*2A
$GNGSA,A,3,65,81,87,88,,,,,,,,,2.8,1.5,2.4*21
$QZGSA,A,3,01,,,,,,,,,,,,2.8,1.5,2.4*27
$IMGSA,A,3,,,,,,,,,,,,,2.8,1.5,2.4*29
$PGLOR,1,FIX,1.0,1.0*20
$GPRMC,060855.00,A,2912.679715,N,11932.235025,E,000.0,,231016,,,A*71
$PGLOR,SPL,20161023140854.3,POS,20161023060854.999,29.211329,119.537250,8,8,0,172,5,1.100000*5D
$GPGGA,060856.00,2912.679992,N,11932.235073,E,1,12,0.8,166.5,M,6.5,M,,*57
$PGLOR,6,STA,060856.00,-0.010,0.000,-344,1,8,1,P,F,L,0,C,3,S,0002,0,3,R,33F4,TPEF,22,16409,LC,,*69
$PGLOR,1,UNC,060856.00,0.020,8.0,4.4,0.14,180.00,6.2,5.0,6.2*23
$PGLOR,2,SAT,3,1,Q01,025,1F,R24,029,1F,G13,035,1F,G02,032,1F,G05,018,1B,R01,034,1B*20
$PGLOR,2,SAT,3,2,R23,029,1F,G29,036,1F,G15,027,1B,R02,031,13,G20,037,1F,G06,014,13*37
$PGLOR,2,SAT,3,3,R17,035,1F*0B
$PGLOR,2,SIO,TxERR,0,RxERR,0,TxCNT,404,RxCNT,2934,MLFRMPKT,0,DTMS,1003,DTIN,32,48,DTOUT,698,951,HATMD,13*2E
$PGLOR,2,SIO,TxERR,0,RxERR,0,TxCNT,404,RxCNT,2934,MLFRMPKT,0,DTMS,1003,DTIN,32,48,DTOUT,698,951,HATMD,13*2E
$PGLOR,3,PWR,mA,35.7,RFTm,1000,OscTm,1000,MeasTm,1000,UTC,060856.00*3B
$GPGSV,3,1,12,13,64,183,35,02,63,093,33,05,59,359,29,29,36,304,36*78
$GPGSV,3,2,12,15,34,215,28,20,30,284,38,06,26,115,18,30,18,083,*7F
$GPGSV,3,3,12,07,09,054,,19,02,159,,12,01,224,,25,00,258,*7C
$GLGSV,3,1,09,88,68,319,31,65,57,337,36,87,56,164,30,66,30,257,32*64
$GLGSV,3,2,09,81,14,331,35,72,24,032,,74,05,073,,86,03,156,*69
$GLGSV,3,3,09,75,01,119,*56
$QZGSV,1,1,01,01,69,048,29*5D
$GPGSA,A,3,02,05,06,13,15,20,29,,,,,,3.0,1.6,2.5*3F
$GNGSA,A,3,02,05,06,13,15,20,29,,,,,,3.0,1.6,2.5*21
$GNGSA,A,3,65,81,87,88,,,,,,,,,3.0,1.6,2.5*2A
$QZGSA,A,3,01,,,,,,,,,,,,3.0,1.6,2.5*2C
$IMGSA,A,3,,,,,,,,,,,,,3.0,1.6,2.5*22
$PGLOR,1,FIX,1.0,1.0*20
$GPRMC,060856.00,A,2912.679992,N,11932.235073,E,000.0,,231016,,,A*70
$PGLOR,SPL,20161023140855.3,POS,20161023060855.999,29.211333,119.537251,8,8,0,173,4,1.100000*57
$GPGGA,060857.00,2912.680222,N,11932.235166,E,1,12,0.8,166.1,M,6.5,M,,*51
$PGLOR,6,STA,060857.00,-0.010,0.000,-343,1,8,1,P,F,L,0,C,3,S,0002,0,3,R,33F4,TPEF,22,17409,LC,,*6E
$PGLOR,1,UNC,060857.00,0.020,8.0,4.3,0.16,180.00,6.2,5.1,7.9*2C
$PGLOR,2,SAT,3,1,Q01,025,1F,R24,029,1F,G13,033,1F,G02,030,1F,G05,017,13,R01,033,1B*5D
$PGLOR,2,SAT,3,2,R23,028,1F,G29,035,1F,G15,026,1B,R02,030,13,G20,037,1F,G06,013,13*32
$PGLOR,2,SAT,3,3,R17,035,1F*0B
$PGLOR,2,SIO,TxERR,0,RxERR,0,TxCNT,391,RxCNT,2960,MLFRMPKT,0,DTMS,985,DTIN,39,47,DTOUT,687,954,HATMD,-2*00
$PGLOR,2,SIO,TxERR,0,RxERR,0,TxCNT,391,RxCNT,2960,MLFRMPKT,0,DTMS,985,DTIN,39,47,DTOUT,687,954,HATMD,-2*00
$PGLOR,3,PWR,mA,33.9,RFTm,1001,OscTm,1000,MeasTm,1000,UTC,060857.00*33
$GPGSV,3,1,12,13,64,183,35,02,63,094,32,05,59,359,28,29,36,304,36*7F
$GPGSV,3,2,12,15,34,215,28,20,30,284,38,06,26,115,17,30,18,083,*70
$GPGSV,3,3,12,07,09,054,,19,02,159,,12,01,224,,25,00,258,*7C
$GLGSV,3,1,09,88,68,319,31,65,57,337,36,87,56,164,30,66,30,257,32*64
$GLGSV,3,2,09,81,14,331,35,72,24,032,,74,05,073,,86,03,156,*69
$GLGSV,3,3,09,75,01,119,*56
$QZGSV,1,1,01,01,69,048,28*5C
$GPGSA,A,3,02,05,06,13,15,20,29,,,,,,3.0,1.6,2.5*3F
$GNGSA,A,3,02,05,06,13,15,20,29,,,,,,3.0,1.6,2.5*21
$GNGSA,A,3,65,81,87,88,,,,,,,,,3.0,1.6,2.5*2A
$QZGSA,A,3,01,,,,,,,,,,,,3.0,1.6,2.5*2C
$IMGSA,A,3,,,,,,,,,,,,,3.0,1.6,2.5*22
$PGLOR,1,FIX,1.0,1.0*20
$GPRMC,060857.00,A,2912.680222,N,11932.235166,E,000.0,,231016,,,A*72
$PGLOR,SPL,20161023140856.2,POS,20161023060856.999,29.211337,119.537253,8,8,0,173,4,1.100000*50
$GPGGA,060858.00,2912.680451,N,11932.235196,E,1,12,0.8,166.2,M,6.5,M,,*50
$PGLOR,6,STA,060858.00,-0.010,0.000,-342,1,8,1,P,F,L,0,C,3,S,0002,0,3,R,33F4,TPEF,22,18409,LC,,*6F
$PGLOR,1,UNC,060858.00,0.019,8.0,4.2,0.16,180.00,6.1,5.2,12.0*15
$PGLOR,2,SAT,3,1,Q01,027,1F,R24,028,1F,G13,032,1F,G02,028,1F,G05,018,13,R01,032,1B*58
$PGLOR,2,SAT,3,2,R23,028,1F,G29,035,1F,G15,026,1B,R02,029,13,G20,037,1F,G06,012,13*3B
$PGLOR,2,SAT,3,3,R17,035,1F*0B
$PGLOR,2,SIO,TxERR,0,RxERR,0,TxCNT,390,RxCNT,2938,MLFRMPKT,0,DTMS,1003,DTIN,18,36,DTOUT,893,965,HATMD,1*18
$PGLOR,2,SIO,TxERR,0,RxERR,0,TxCNT,390,RxCNT,2938,MLFRMPKT,0,DTMS,1003,DTIN,18,36,DTOUT,893,965,HATMD,1*18
$PGLOR,3,PWR,mA,35.7,RFTm,1000,OscTm,1000,MeasTm,1000,UTC,060858.00*35
$GPGSV,3,1,12,13,64,183,35,02,63,094,32,05,59,359,27,29,36,304,36*70
$GPGSV,3,2,12,15,34,215,27,20,30,284,38,06,26,115,17,30,18,083,*7F
$GPGSV,3,3,12,07,09,054,,19,02,159,,12,01,224,,25,00,258,*7C
$GLGSV,3,1,09,88,68,319,31,65,57,337,35,87,56,164,29,66,30,257,32*6F
$GLGSV,3,2,09,81,14,331,35,72,24,032,,74,05,073,,86,03,156,*69
$GLGSV,3,3,09,75,01,119,*56
$QZGSV,1,1,01,01,69,048,28*5C
$GPGSA,A,3,02,05,06,13,15,20,29,,,,,,3.0,1.6,2.5*3F
$GNGSA,A,3,02,05,06,13,15,20,29,,,,,,3.0,1.6,2.5*21
$GNGSA,A,3,65,81,87,88,,,,,,,,,3.0,1.6,2.5*2A
$QZGSA,A,3,01,,,,,,,,,,,,3.0,1.6,2.5*2C
$IMGSA,A,3,,,,,,,,,,,,,3.0,1.6,2.5*22
$PGLOR,1,FIX,1.0,1.0*20
$GPRMC,060858.00,A,2912.680451,N,11932.235196,E,000.0,,231016,,,A*70
$PGLOR,SPL,20161023140857.3,POS,20161023060857.999,29.211341,119.537253,8,8,0,173,4,1.100000*50
$GPGGA,060859.00,2912.680628,N,11932.235247,E,1,11,0.8,166.3,M,6.5,M,,*50
$PGLOR,6,STA,060859.00,-0.010,0.000,-344,1,8,1,P,F,L,0,C,3,S,0002,0,3,R,33F4,TPEF,22,19409,LC,,*69
$PGLOR,1,UNC,060859.00,0.019,8.0,4.1,0.15,180.00,6.0,5.3,18.4*1A
$PGLOR,2,SAT,3,1,Q01,027,1F,R24,029,1F,G13,032,1F,G02,028,1F,G05,018,1F,R01,031,1B*2F
$PGLOR,2,SAT,3,2,R23,029,1F,G29,036,1F,G15,026,1B,R02,029,13,G20,037,1F,G06,011,13*3A
$PGLOR,2,SAT,3,3,R17,035,1F*0B
$PGLOR,2,SIO,TxERR,0,RxERR,0,TxCNT,357,RxCNT,3008,MLFRMPKT,0,DTMS,998,DTIN,28,32,DTOUT,773,967,HATMD,-1*0B
$PGLOR,2,SIO,TxERR,0,RxERR,0,TxCNT,357,RxCNT,3008,MLFRMPKT,0,DTMS,998,DTIN,28,32,DTOUT,773,967,HATMD,-1*0B
$PGLOR,3,PWR,mA,33.9,RFTm,1000,OscTm,1000,MeasTm,1000,UTC,060859.00*3C
$GPGSV,3,1,12,13,64,183,34,02,63,094,31,05,59,359,26,29,36,304,36*73
$GPGSV,3,2,12,15,34,215,27,20,30,284,38,06,26,115,16,30,18,083,*7E
$GPGSV,3,3,12,07,09,054,,19,02,159,,12,01,224,,25,00,258,*7C
$GLGSV,3,1,09,88,68,319,30,65,57,337,35,87,56,164,29,66,30,257,31*6D
$GLGSV,3,2,09,81,14,331,35,72,24,032,,74,05,073,,86,03,156,*69
$GLGSV,3,3,09,75,01,119,*56
$QZGSV,1,1,01,01,69,048,28*5C
$GPGSA,A,3,02,05,13,15,20,29,,,,,,,2.8,1.5,2.4*32
$GNGSA,A,3,02,05,13,15,20,29,,,,,,,2.8,1.5,2.4*2C
$GNGSA,A,3,65,81,87,88,,,,,,,,,2.8,1.5,2.4*21
$QZGSA,A,3,01,,,,,,,,,,,,2.8,1.5,2.4*27
$IMGSA,A,3,,,,,,,,,,,,,2.8,1.5,2.4*29
$PGLOR,1,FIX,1.0,1.0*20
$GPRMC,060859.00,A,2912.680628,N,11932.235247,E,000.0,,231016,,,A*72
$PGLOR,SPL,20161023140858.2,POS,20161023060858.999,29.211344,119.537254,8,8,0,173,4,1.100000*53
$PGLOR,SPL,20161023140858.5,STATUS,2*31
$PGLOR,NET,2.4,,2.5,,20.1,SSD,,A,0*30
$PGLOR,SPL,20161023140858.5,ERR,5*67
$GPGGA,060900.00,2912.680822,N,11932.235335,E,1,11,0.8,167.0,M,6.5,M,,*5F
$PGLOR,6,STA,060900.00,-0.010,0.000,-344,1,8,1,P,F,L,0,C,3,S,0002,0,3,R,33F4,TPEF,22,20409,LC,,*6E
$PGLOR,1,UNC,060900.00,0.018,8.0,4.0,0.16,180.00,5.9,5.4,30.4*13
$PGLOR,2,SAT,3,1,Q01,025,1F,R24,028,1F,G13,032,1F,G02,027,1F,G05,022,1F,R01,029,1B*23
$PGLOR,2,SAT,3,2,R23,029,1F,G29,035,1F,G15,026,1B,R02,026,13,G20,037,1F,G06,011,10*35
$PGLOR,2,SAT,3,3,R17,034,1F*0A
$PGLOR,2,SIO,TxERR,0,RxERR,0,TxCNT,520,RxCNT,3005,MLFRMPKT,0,DTMS,1000,DTIN,18,26,DTOUT,618,974,HATMD,-1*31
$PGLOR,2,SIO,TxERR,0,RxERR,0,TxCNT,520,RxCNT,3005,MLFRMPKT,0,DTMS,1000,DTIN,18,26,DTOUT,618,974,HATMD,-1*31
$PGLOR,3,PWR,mA,35.1,RFTm,1000,OscTm,1000,MeasTm,1000,UTC,060900.00*3F
$GPGSV,3,1,12,13,64,183,34,02,63,094,31,05,59,359,26,29,36,304,36*73
$GPGSV,3,2,12,15,34,215,27,20,30,284,38,06,26,115,16,30,18,083,*7E
$GPGSV,3,3,12,07,09,054,,19,02,159,,12,01,224,,25,00,258,*7C
$GLGSV,3,1,09,88,68,319,30,65,57,337,34,87,56,164,29,66,31,257,31*6D
$GLGSV,3,2,09,81,14,331,35,72,24,032,,74,05,073,,86,03,156,*69
$GLGSV,3,3,09,75,01,119,*56
$QZGSV,1,1,01,01,69,048,28*5C
$GPGSA,A,3,02,05,13,15,20,29,,,,,,,2.8,1.5,2.4*32
$GNGSA,A,3,02,05,13,15,20,29,,,,,,,2.8,1.5,2.4*2C
$GNGSA,A,3,65,81,87,88,,,,,,,,,2.8,1.5,2.4*21
$QZGSA,A,3,01,,,,,,,,,,,,2.8,1.5,2.4*27
$IMGSA,A,3,,,,,,,,,,,,,2.8,1.5,2.4*29
$PGLOR,1,FIX,1.0,1.0*20
$GPRMC,060900.00,A,2912.680822,N,11932.235335,E,000.0,,231016,,,A*7F
$PGLOR,SPL,20161023140859.2,POS,20161023060859.999,29.211347,119.537256,8,8,0,173,4,1.100000*52
$GPGGA,060901.00,2912.681053,N,11932.235605,E,1,11,0.8,168.3,M,6.5,M,,*5B
$PGLOR,6,STA,060901.00,-0.010,0.000,-344,1,8,0,P,F,L,0,C,3,S,0002,0,3,R,33F4,TPEF,22,21409,LC,,*6F
$PGLOR,1,UNC,060901.00,0.021,8.0,4.2,0.33,10.71,5.8,5.5,31.0*26
$PGLOR,2,SAT,3,1,Q01,024,1F,R24,028,1F,G13,034,1F,G02,029,1F,G05,025,1F,R01,029,1B*2D
$PGLOR,2,SAT,3,2,R23,032,1F,G29,036,17,G15,026,13,R02,028,13,G20,038,17,G06,010,10*4D
$PGLOR,2,SAT,3,3,R17,035,13*7E
$PGLOR,2,SIO,TxERR,0,RxERR,0,TxCNT,427,RxCNT,2975,MLFRMPKT,0,DTMS,1000,DTIN,18,26,DTOUT,887,973,HATMD,-1*37
$PGLOR,2,SIO,TxERR,0,RxERR,0,TxCNT,427,RxCNT,2975,MLFRMPKT,0,DTMS,1000,DTIN,18,26,DTOUT,887,973,HATMD,-1*37
$PGLOR,3,PWR,mA,35.9,RFTm,1000,OscTm,1000,MeasTm,1000,UTC,060901.00*36
$GPGSV,3,1,12,13,64,183,34,02,63,094,31,05,59,359,26,29,36,304,36*73
$GPGSV,3,2,12,15,34,215,27,20,30,284,38,06,26,115,15,30,18,083,*7D
$GPGSV,3,3,12,07,09,054,,19,02,159,,12,01,224,,25,00,258,*7C
$GLGSV,3,1,09,88,68,319,30,65,57,337,34,87,56,164,32,66,31,257,31*67
$GLGSV,3,2,09,81,14,331,35,72,24,032,,74,05,073,,86,03,156,*69
$GLGSV,3,3,09,75,01,119,*56
$QZGSV,1,1,01,01,69,048,27*53
$GPGSA,A,3,02,05,13,15,20,29,,,,,,,5.0,2.0,4.6*3F
$GNGSA,A,3,02,05,13,15,20,29,,,,,,,5.0,2.0,4.6*21
$GNGSA,A,3,65,81,87,88,,,,,,,,,5.0,2.0,4.6*2C
$QZGSA,A,3,01,,,,,,,,,,,,5.0,2.0,4.6*2A
$IMGSA,A,3,,,,,,,,,,,,,5.0,2.0,4.6*24
$PGLOR,1,FIX,1.0,1.0*20
$GPRMC,060901.00,A,2912.681053,N,11932.235605,E,000.0,,231016,,,A*77
$PGLOR,SPL,20161023140900.2,POS,20161023060900.999,29.211351,119.537260,8,8,0,175,4,1.100000*56
$GPGGA,060902.00,2912.680247,N,11932.237585,E,1,11,1.2,169.8,M,6.5,M,,*56
$PGLOR,6,STA,060902.00,-0.010,0.000,-349,1,12,0,P,F,L,0,C,2,S,0002,0,3,R,33F4,TPEF,22,22409,LC,,*58
$PGLOR,1,UNC,060902.00,0.022,12.0,4.5,0.17,15.13,9.4,7.5,-81.5*3C
$PGLOR,2,SAT,3,1,Q01,022,1F,R24,027,1F,G13,034,13,G02,029,1F,G05,027,1F,R01,027,1B*5D
$PGLOR,2,SAT,3,2,R23,032,13,G29,036,17,G15,026,1B,R02,026,13,G20,038,1F,G06,009,10*3E
$PGLOR,2,SAT,3,3,R17,034,1F*0A
$PGLOR,2,SIO,TxERR,0,RxERR,0,TxCNT,390,RxCNT,2928,MLFRMPKT,0,DTMS,1000,DTIN,18,25,DTOUT,892,975,HATMD,-1*35
$PGLOR,2,SIO,TxERR,0,RxERR,0,TxCNT,390,RxCNT,2928,MLFRMPKT,0,DTMS,1000,DTIN,18,25,DTOUT,892,975,HATMD,-1*35
$PGLOR,3,PWR,mA,35.9,RFTm,1000,OscTm,1000,MeasTm,1000,UTC,060902.00*35
$GPGSV,3,1,12,13,64,183,34,02,63,094,31,05,59,359,27,29,36,304,36*72
$GPGSV,3,2,12,15,34,215,27,20,30,284,38,06,26,115,15,30,18,083,*7D
$GPGSV,3,3,12,07,09,054,,19,02,159,,12,01,224,,25,00,258,*7C
$GLGSV,3,1,09,88,68,319,30,65,57,337,33,87,56,164,32,66,31,257,30*61
$GLGSV,3,2,09,81,14,331,35,72,24,032,,74,05,073,,86,03,156,*69
$GLGSV,3,3,09,75,01,119,*56
$QZGSV,1,1,01,01,69,048,27*53
$GPGSA,A,3,02,05,13,15,20,29,,,,,,,3.6,2.3,2.7*3B
$GNGSA,A,3,02,05,13,15,20,29,,,,,,,3.6,2.3,2.7*25
$GNGSA,A,3,65,81,87,88,,,,,,,,,3.6,2.3,2.7*28
$QZGSA,A,3,01,,,,,,,,,,,,3.6,2.3,2.7*2E
$IMGSA,A,3,,,,,,,,,,,,,3.6,2.3,2.7*20
$PGLOR,1,FIX,1.0,1.0*20
$GPRMC,060902.00,A,2912.680247,N,11932.237585,E,000.0,,231016,,,A*7B
$PGLOR,SPL,20161023140901.2,POS,20161023060901.999,29.211337,119.537293,12,12,0,176,4,1.100000*59
$GPGGA,060903.00,2912.679869,N,11932.238091,E,1,11,1.2,172.3,M,6.5,M,,*59
$PGLOR,6,STA,060903.00,-0.010,0.000,-350,1,12,1,P,F,L,0,C,2,S,0002,0,3,R,33F4,TPEF,22,23409,LC,,*51
$PGLOR,1,UNC,060903.00,0.023,12.0,4.7,0.21,180.00,10.0,6.6,-79.4*3C
$PGLOR,2,SAT,3,1,Q01,021,1F,R24,027,1F,G13,034,1B,G02,030,1F,G05,027,1F,R01,026,1B*26
$PGLOR,2,SAT,3,2,R23,032,1B,G29,036,1F,G15,025,1B,R02,028,13,G20,037,1F,G06,008,10*3D
$PGLOR,2,SAT,3,3,R17,034,1F*0A
$PGLOR,2,SIO,TxERR,0,RxERR,0,TxCNT,358,RxCNT,3075,MLFRMPKT,0,DTMS,1013,DTIN,21,41,DTOUT,811,959,HATMD,12*21
$PGLOR,2,SIO,TxERR,0,RxERR,0,TxCNT,358,RxCNT,3075,MLFRMPKT,0,DTMS,1013,DTIN,21,41,DTOUT,811,959,HATMD,12*21
$PGLOR,3,PWR,mA,37.0,RFTm,1000,OscTm,1000,MeasTm,1000,UTC,060903.00*3F
$GPGSV,3,1,12,13,64,183,34,02,63,094,31,05,59,359,27,29,36,304,36*72
$GPGSV,3,2,12,15,34,215,27,20,30,284,38,06,26,115,14,30,18,083,*7C
$GPGSV,3,3,12,07,09,054,,19,02,159,,12,01,224,,25,00,258,*7C
$GLGSV,3,1,09,88,68,319,29,65,57,337,33,87,56,164,32,66,31,257,30*69
$GLGSV,3,2,09,81,14,331,35,72,24,032,,74,05,073,,86,03,156,*69
$GLGSV,3,3,09,75,01,119,*56
$QZGSV,1,1,01,01,69,048,26*52
$GPGSA,A,3,02,05,13,15,20,29,,,,,,,3.6,2.3,2.7*3B
$GNGSA,A,3,02,05,13,15,20,29,,,,,,,3.6,2.3,2.7*25
$GNGSA,A,3,65,81,87,88,,,,,,,,,3.6,2.3,2.7*28
$QZGSA,A,3,01,,,,,,,,,,,,3.6,2.3,2.7*2E
$IMGSA,A,3,,,,,,,,,,,,,3.6,2.3,2.7*20
$PGLOR,1,FIX,1.0,1.0*20
$GPRMC,060903.00,A,2912.679869,N,11932.238091,E,000.0,,231016,,,A*75
$PGLOR,SPL,20161023140902.3,POS,20161023060902.999,29.211331,119.537302,12,12,0,179,5,1.100000*59
$GPGGA,060904.00,2912.682240,N,11932.240618,E,1,11,1.2,175.3,M,6.5,M,,*54
$PGLOR,6,STA,060904.00,-0.010,0.000,-346,1,12,0,P,F,L,0,C,3,S,0002,12,3,R,33F4,TPEF,22,24409,LC,,*65
$PGLOR,1,UNC,060904.00,0.025,12.0,4.9,3.01,180.00,9.0,7.9,-60.8*00
$PGLOR,2,SAT,3,1,Q01,020,1F,R24,027,1F,G13,035,1B,G02,030,17,G05,028,1F,R01,027,17*2C
$PGLOR,2,SAT,3,2,R23,034,13,G29,036,17,G15,026,1F,R02,031,13,G20,038,17,G06,007,10*45
$PGLOR,2,SAT,3,3,G30,011,11,R17,035,17*22
$PGLOR,2,SIO,TxERR,0,RxERR,0,TxCNT,495,RxCNT,3266,MLFRMPKT,0,DTMS,992,DTIN,39,50,DTOUT,688,954,HATMD,4*2B
$PGLOR,2,SIO,TxERR,0,RxERR,0,TxCNT,495,RxCNT,3266,MLFRMPKT,0,DTMS,992,DTIN,39,50,DTOUT,688,954,HATMD,4*2B
$PGLOR,3,PWR,mA,36.6,RFTm,1005,OscTm,1000,MeasTm,1000,UTC,060904.00*3A
$PGLOR,2,PFM,HAL,-,0,0,0,0,RF,-,-180,14.3,0,RTC,,P,STO,P,LTO,P,SW,P,,,OSC,PPP*13
$GPGSV,3,1,12,13,64,183,35,02,63,094,31,05,59,359,28,29,36,304,36*7C
$GPGSV,3,2,12,15,34,215,27,20,30,284,38,06,26,115,13,30,18,083,11*7B
$GPGSV,3,3,12,07,09,054,,19,02,159,,12,01,224,,25,00,258,*7C
$GLGSV,3,1,09,88,68,319,29,65,57,337,32,87,56,164,34,66,31,257,31*6F
$GLGSV,3,2,09,81,14,331,35,72,24,032,,74,05,073,,86,03,156,*69
$GLGSV,3,3,09,75,01,118,*57
$QZGSV,1,1,01,01,69,048,26*52
$GPGSA,A,3,02,05,13,15,20,29,,,,,,,2.6,1.5,2.2*3A
$GNGSA,A,3,02,05,13,15,20,29,,,,,,,2.6,1.5,2.2*24
$GNGSA,A,3,65,81,87,88,,,,,,,,,2.6,1.5,2.2*29
$QZGSA,A,3,01,,,,,,,,,,,,2.6,1.5,2.2*2F
$IMGSA,A,3,,,,,,,,,,,,,2.6,1.5,2.2*21
$PGLOR,1,FIX,1.0,1.0*20
$GPRMC,060904.00,A,2912.682240,N,11932.240618,E,000.0,,231016,,,A*7F
$PGLOR,SPL,20161023140903.3,POS,20161023060903.999,29.211371,119.537344,12,12,0,182,5,1.100000*5B
$GPGGA,060905.00,2912.682700,N,11932.241587,E,1,11,1.2,178.5,M,6.5,M,,*5B
$PGLOR,6,STA,060905.00,-0.010,0.000,-352,1,12,1,P,F,L,0,C,3,S,0002,12,3,R,33F4,TPEF,22,25409,LC,,*61
$PGLOR,1,UNC,060905.00,0.026,12.0,5.4,0.17,180.00,8.9,8.1,-37.7*08
$PGLOR,2,SAT,3,1,Q01,021,1B,R24,028,1F,G13,034,1B,G02,029,1F,G05,027,1F,R01,028,1F*2F
$PGLOR,2,SAT,3,2,R23,033,1B,G29,035,1F,G15,025,1F,R02,031,13,G20,038,1F,G06,011,10*34
$PGLOR,2,SAT,3,3,R17,034,1F*0A
$PGLOR,2,SIO,TxERR,0,RxERR,0,TxCNT,584,RxCNT,3369,MLFRMPKT,0,DTMS,1012,DTIN,18,39,DTOUT,253,959,HATMD,16*24
$PGLOR,2,SIO,TxERR,0,RxERR,0,TxCNT,584,RxCNT,3369,MLFRMPKT,0,DTMS,1012,DTIN,18,39,DTOUT,253,959,HATMD,16*24
$PGLOR,3,PWR,mA,38.2,RFTm,999,OscTm,1000,MeasTm,1000,UTC,060905.00*0C
$PGLOR,2,PFM,HAL,-,0,0,0,0,RF,-,-180,14.1,0,RTC,,P,STO,P,LTO,P,SW,P,,,OSC,PFF*11
$GPGSV,3,1,12,13,64,183,35,02,63,094,30,05,59,359,28,29,36,304,36*7D
$GPGSV,3,2,12,15,34,215,26,20,30,284,38,06,26,115,13,30,18,083,10*7B
$GPGSV,3,3,12,07,09,054,,19,02,159,,12,01,224,,25,00,258,*7C
$GLGSV,3,1,09,88,68,319,29,65,57,337,32,87,56,164,34,66,31,257,31*6F
$GLGSV,3,2,09,81,14,331,35,72,24,032,,74,05,073,,86,03,156,*69
$GLGSV,3,3,09,75,01,118,*57
$QZGSV,1,1,01,01,69,048,25*51
$GPGSA,A,3,02,05,13,15,20,29,,,,,,,2.6,1.5,2.2*3A
$GNGSA,A,3,02,05,13,15,20,29,,,,,,,2.6,1.5,2.2*24
$GNGSA,A,3,65,81,87,88,,,,,,,,,2.6,1.5,2.2*29
$QZGSA,A,3,01,,,,,,,,,,,,2.6,1.5,2.2*2F
$IMGSA,A,3,,,,,,,,,,,,,2.6,1.5,2.2*21
$PGLOR,1,FIX,1.0,1.0*20
$GPRMC,060905.00,A,2912.682700,N,11932.241587,E,000.0,,231016,,,A*7B
$PGLOR,SPL,20161023140904.3,POS,20161023060904.999,29.211378,119.537360,12,12,0,185,5,1.100000*53
$GPGGA,060906.00,2912.684781,N,11932.240502,E,1,12,0.8,178.8,M,6.5,M,,*5E
$PGLOR,6,STA,060906.00,-0.010,0.000,-350,1,8,1,P,F,L,0,C,3,S,0002,12,3,R,33F4,TPEF,22,26409,LC,,*58
$PGLOR,1,UNC,060906.00,0.024,8.0,5.1,0.15,180.00,6.4,4.8,-19.6*3E
$PGLOR,2,SAT,3,1,Q01,025,1B,R24,031,1F,G13,035,1F,G02,029,1F,G05,024,1F,R01,029,1F*24
$PGLOR,2,SAT,3,2,R23,032,1F,G29,033,1F,G15,029,1F,R02,033,13,G20,038,1F,G06,014,10*3C
$PGLOR,2,SAT,3,3,R17,032,1F*0C
$PGLOR,2,SIO,TxERR,0,RxERR,0,TxCNT,405,RxCNT,3152,MLFRMPKT,0,DTMS,989,DTIN,33,41,DTOUT,838,961,HATMD,5*24
$PGLOR,2,SIO,TxERR,0,RxERR,0,TxCNT,405,RxCNT,3152,MLFRMPKT,0,DTMS,989,DTIN,33,41,DTOUT,838,961,HATMD,5*24
$PGLOR,3,PWR,mA,35.2,RFTm,1002,OscTm,1000,MeasTm,1000,UTC,060906.00*38
$GPGSV,3,1,12,13,64,183,35,02,63,094,30,05,59,359,27,29,36,304,36*72
$GPGSV,3,2,12,15,34,215,29,20,30,284,38,06,26,115,14,30,18,083,08*7A
$GPGSV,3,3,12,07,09,054,,19,02,159,,12,01,224,,25,00,258,*7C
$GLGSV,3,1,09,88,68,319,31,65,57,337,31,87,56,164,34,66,31,257,33*67
$GLGSV,3,2,09,81,14,331,34,72,24,032,,74,05,073,,86,03,156,*68
$GLGSV,3,3,09,75,01,118,*57
$QZGSV,1,1,01,01,69,048,25*51
$GPGSA,A,3,02,05,06,13,15,20,29,,,,,,2.5,1.4,2.1*3D
$GNGSA,A,3,02,05,06,13,15,20,29,,,,,,2.5,1.4,2.1*23
$GNGSA,A,3,65,81,87,88,,,,,,,,,2.5,1.4,2.1*28
$QZGSA,A,3,01,,,,,,,,,,,,2.5,1.4,2.1*2E
$IMGSA,A,3,,,,,,,,,,,,,2.5,1.4,2.1*20
$PGLOR,1,FIX,1.0,1.0*20
$GPRMC,060906.00,A,2912.684781,N,11932.240502,E,000.0,,231016,,,A*7B
$PGLOR,SPL,20161023140905.3,POS,20161023060905.999,29.211413,119.537342,8,8,0,185,5,1.100000*59
$GPGGA,060907.00,2912.686132,N,11932.239770,E,1,12,0.8,178.3,M,6.5,M,,*51
$PGLOR,6,STA,060907.00,-0.010,0.000,-349,1,8,1,P,F,L,0,C,2,S,0002,12,3,R,33F4,TPEF,22,27409,LC,,*51
$PGLOR,1,UNC,060907.00,0.025,8.0,5.1,0.16,180.00,6.6,4.5,-17.3*39
$PGLOR,2,SAT,3,1,Q01,030,1F,R24,033,1F,G13,036,1F,G02,030,1F,G05,030,1F,R01,031,1F*21
$PGLOR,2,SAT,3,2,R23,031,1F,G29,033,1F,G15,029,1F,R02,032,13,G20,037,1F,G06,018,1B*4F
$PGLOR,2,SAT,3,3,R17,027,13*7D
$PGLOR,2,SIO,TxERR,0,RxERR,0,TxCNT,386,RxCNT,3103,MLFRMPKT,0,DTMS,1012,DTIN,17,38,DTOUT,888,958,HATMD,17*2C
$PGLOR,2,SIO,TxERR,0,RxERR,0,TxCNT,386,RxCNT,3103,MLFRMPKT,0,DTMS,1012,DTIN,17,38,DTOUT,888,958,HATMD,17*2C
$PGLOR,3,PWR,mA,35.8,RFTm,999,OscTm,1000,MeasTm,1000,UTC,060907.00*09
$GPGSV,3,1,12,13,64,183,36,02,63,094,30,05,59,359,30,29,36,304,36*77
$GPGSV,3,2,12,15,34,215,29,20,30,284,38,06,26,115,18,30,18,083,*7E
$GPGSV,3,3,12,07,09,054,,19,02,159,,12,01,224,,25,00,258,*7C
$GLGSV,3,1,09,88,68,318,33,65,57,337,31,87,56,164,34,66,31,257,33*64
$GLGSV,3,2,09,81,14,331,34,72,24,032,,74,05,073,,86,03,156,*68
$GLGSV,3,3,09,75,01,118,*57
$QZGSV,1,1,01,01,69,048,30*55
$GPGSA,A,3,02,05,06,13,15,20,29,,,,,,4.7,1.9,4.3*30
$GNGSA,A,3,02,05,06,13,15,20,29,,,,,,4.7,1.9,4.3*2E
$GNGSA,A,3,65,81,87,88,,,,,,,,,4.7,1.9,4.3*25
$QZGSA,A,3,01,,,,,,,,,,,,4.7,1.9,4.3*23
$IMGSA,A,3,,,,,,,,,,,,,4.7,1.9,4.3*2D
$PGLOR,1,FIX,1.0,1.0*20
$GPRMC,060907.00,A,2912.686132,N,11932.239770,E,000.0,,231016,,,A*7F
$PGLOR,SPL,20161023140906.3,POS,20161023060906.999,29.211436,119.537330,8,8,0,185,5,1.100000*5B
$GPGGA,060908.00,2912.686406,N,11932.239769,E,1,12,0.8,178.1,M,6.5,M,,*56
$PGLOR,6,STA,060908.00,-0.010,0.000,-346,1,8,0,P,F,L,0,C,2,S,0002,12,3,R,33F4,TPEF,22,28409,LC,,*5F
$PGLOR,1,UNC,060908.00,0.025,8.0,5.1,0.15,180.00,6.8,4.3,-14.7*3A
$PGLOR,2,SAT,3,1,Q01,030,1B,R24,033,1F,G13,035,1F,G02,030,1F,G05,028,1F,R01,030,1F*2E
$PGLOR,2,SAT,3,2,R23,030,1F,G29,032,1F,G15,029,1F,R02,032,13,G20,038,1F,G06,019,1B*41
$PGLOR,2,SAT,3,3,R17,024,13*7E
$PGLOR,2,SIO,TxERR,0,RxERR,0,TxCNT,387,RxCNT,3161,MLFRMPKT,0,DTMS,1001,DTIN,32,46,DTOUT,841,954,HATMD,18*23
$PGLOR,2,SIO,TxERR,0,RxERR,0,TxCNT,387,RxCNT,3161,MLFRMPKT,0,DTMS,1001,DTIN,32,46,DTOUT,841,954,HATMD,18*23
$PGLOR,3,PWR,mA,38.2,RFTm,1001,OscTm,1000,MeasTm,1000,UTC,060908.00*38
$GPGSV,3,1,12,13,64,183,36,02,63,094,30,05,59,359,30,29,36,304,35*74
$GPGSV,3,2,12,15,34,215,29,20,30,284,38,06,26,115,19,30,18,083,*7F
$GPGSV,3,3,12,07,09,054,,19,02,159,,12,01,224,,25,00,258,*7C
$GLGSV,3,1,09,88,68,318,33,65,57,337,31,87,56,164,33,66,31,257,33*63
$GLGSV,3,2,09,81,14,331,33,72,24,032,,74,05,073,,86,03,156,*6F
$GLGSV,3,3,09,75,01,118,*57
$QZGSV,1,1,01,01,69,048,30*55
$GPGSA,A,3,02,05,06,13,15,20,29,,,,,,4.7,2.0,4.3*3A
$GNGSA,A,3,02,05,06,13,15,20,29,,,,,,4.7,2.0,4.3*24
$GNGSA,A,3,65,81,87,88,,,,,,,,,4.7,2.0,4.3*2F
$QZGSA,A,3,01,,,,,,,,,,,,4.7,2.0,4.3*29
$IMGSA,A,3,,,,,,,,,,,,,4.7,2.0,4.3*27
$PGLOR,1,FIX,1.0,1.0*20
$GPRMC,060908.00,A,2912.686406,N,11932.239769,E,000.0,,231016,,,A*7A
$PGLOR,SPL,20161023140907.3,POS,20161023060907.999,29.211440,119.537329,8,8,0,185,5,1.100000*52
$GPGGA,060909.00,2912.686450,N,11932.239533,E,1,12,0.8,178.1,M,6.5,M,,*59
$PGLOR,6,STA,060909.00,-0.010,0.000,-348,1,8,1,P,F,L,0,C,2,S,0002,12,3,R,33F4,TPEF,22,29409,LC,,*50
$PGLOR,1,UNC,060909.00,0.025,8.0,5.1,0.22,180.00,6.6,4.5,-15.0*31
$PGLOR,2,SAT,3,1,Q01,027,1B,R24,032,1F,G13,036,1F,G02,030,1F,G05,026,1F,R01,028,1B*29
$PGLOR,2,SAT,3,2,R23,034,1F,G29,034,1F,G15,029,1F,R02,035,13,G20,040,1F,G06,021,1B*40
$PGLOR,2,SAT,3,3,R17,029,1B*02
$PGLOR,2,SIO,TxERR,0,RxERR,0,TxCNT,385,RxCNT,3142,MLFRMPKT,0,DTMS,985,DTIN,111,120,DTOUT,792,877,HATMD,3*2E
$PGLOR,2,SIO,TxERR,0,RxERR,0,TxCNT,385,RxCNT,3142,MLFRMPKT,0,DTMS,985,DTIN,111,120,DTOUT,792,877,HATMD,3*2E
$PGLOR,3,PWR,mA,38.0,RFTm,998,OscTm,1000,MeasTm,1000,UTC,060909.00*03
$GPGSV,3,1,12,13,64,183,36,02,63,094,30,05,59,359,29,29,36,304,35*7C
$GPGSV,3,2,12,15,34,215,29,20,30,284,40,06,26,115,21,30,18,083,*7B
$GPGSV,3,3,12,07,09,054,,19,02,159,,12,01,224,,25,00,258,*7C
$GLGSV,3,1,09,88,68,318,33,65,57,337,31,87,56,164,34,66,31,257,35*62
$GLGSV,3,2,09,81,14,331,32,72,24,032,,74,05,073,,86,03,156,*6E
$GLGSV,3,3,09,75,01,118,*57
$QZGSV,1,1,01,01,69,048,30*55
$GPGSA,A,3,02,05,06,13,15,20,29,,,,,,4.8,2.0,4.3*35
$GNGSA,A,3,02,05,06,13,15,20,29,,,,,,4.8,2.0,4.3*2B
$GNGSA,A,3,65,81,87,88,,,,,,,,,4.8,2.0,4.3*20
$QZGSA,A,3,01,,,,,,,,,,,,4.8,2.0,4.3*26
$IMGSA,A,3,,,,,,,,,,,,,4.8,2.0,4.3*28
$PGLOR,1,FIX,1.0,1.0*20
$GPRMC,060909.00,A,2912.686450,N,11932.239533,E,000.0,,231016,,,A*75
$PGLOR,SPL,20161023140908.3,POS,20161023060908.999,29.211441,119.537326,8,8,0,185,5,1.100000*5C
$GPGGA,060910.00,2912.686450,N,11932.239533,E,1,12,1.2,177.4,M,6.5,M,,*50
$PGLOR,6,STA,060910.00,-0.010,0.000,-350,1,12,1,P,F,L,0,C,3,S,0002,12,3,R,33F4,TPEF,22,30409,LC,,*63
$PGLOR,1,UNC,060910.00,0.025,12.0,5.1,0.17,180.00,10.0,6.7,-12.4*36
$PGLOR,2,SAT,3,1,Q01,029,1B,R24,029,1F,G13,034,1F,G02,027,1F,G05,035,1F,R01,032,1B*20
$PGLOR,2,SAT,3,2,R23,032,1F,G29,038,1F,G15,027,1F,R02,031,13,G20,040,1F,G06,020,1B*41
$PGLOR,2,SAT,3,3,R17,033,1B*09
$PGLOR,2,SIO,TxERR,0,RxERR,0,TxCNT,421,RxCNT,3266,MLFRMPKT,0,DTMS,1017,DTIN,24,44,DTOUT,544,955,HATMD,20*2C
$PGLOR,2,SIO,TxERR,0,RxERR,0,TxCNT,421,RxCNT,3266,MLFRMPKT,0,DTMS,1017,DTIN,24,44,DTOUT,544,955,HATMD,20*2C
$PGLOR,3,PWR,mA,38.1,RFTm,1001,OscTm,1000,MeasTm,1000,UTC,060910.00*32
$GPGSV,3,1,12,13,64,183,36,02,63,094,30,05,59,359,35,29,36,304,38*7C
$GPGSV,3,2,12,15,34,215,29,20,31,284,40,06,26,115,21,30,18,083,*7A
$GPGSV,3,3,12,07,09,054,,19,02,159,,12,01,224,,25,00,258,*7C
$GLGSV,3,1,09,88,68,318,32,65,57,337,32,87,56,164,33,66,31,257,35*67
$GLGSV,3,2,09,81,14,331,33,72,24,032,,74,05,073,,86,03,156,*6F
$GLGSV,3,3,09,75,01,118,*57
$QZGSV,1,1,01,01,69,048,30*55
$GPGSA,A,3,02,05,06,13,15,20,29,,,,,,4.8,2.0,4.3*35
$GNGSA,A,3,02,05,06,13,15,20,29,,,,,,4.8,2.0,4.3*2B
$GNGSA,A,3,65,81,87,88,,,,,,,,,4.8,2.0,4.3*20
$QZGSA,A,3,01,,,,,,,,,,,,4.8,2.0,4.3*26
$IMGSA,A,3,,,,,,,,,,,,,4.8,2.0,4.3*28
$PGLOR,1,FIX,1.0,1.0*20
$GPRMC,060910.00,A,2912.686450,N,11932.239533,E,000.0,,231016,,,A*7D
$PGLOR,SPL,20161023140909.3,POS,20161023060909.999,29.211441,119.537326,12,12,0,184,5,1.100000*5D
$GPGGA,060911.00,2912.686450,N,11932.239533,E,1,12,0.6,175.5,M,6.5,M,,*57
$PGLOR,6,STA,060911.00,-0.010,0.000,-347,1,6,0,P,F,L,0,C,3,S,0002,12,3,R,33F4,TPEF,22,31409,LC,,*51
$PGLOR,1,UNC,060911.00,0.023,6.0,5.0,0.15,180.00,5.0,3.4,-8.1*0B
$PGLOR,2,SAT,3,1,Q01,032,1B,R24,025,1B,G13,032,1F,G02,030,1F,G05,038,1F,R01,034,1B*29
$PGLOR,2,SAT,3,2,R23,029,1F,G29,036,1F,G15,025,1F,R02,026,13,G20,036,1F,G06,019,1F*4E
$PGLOR,2,SAT,3,3,R17,035,1F*0B
$PGLOR,2,SIO,TxERR,0,RxERR,0,TxCNT,798,RxCNT,3512,MLFRMPKT,0,DTMS,1010,DTIN,36,60,DTOUT,835,948,HATMD,30*2D
$PGLOR,2,SIO,TxERR,0,RxERR,0,TxCNT,798,RxCNT,3512,MLFRMPKT,0,DTMS,1010,DTIN,36,60,DTOUT,835,948,HATMD,30*2D
$PGLOR,3,PWR,mA,38.1,RFTm,1010,OscTm,1000,MeasTm,1000,UTC,060911.00*33
$GPGSV,3,1,12,13,64,183,35,02,63,094,30,05,59,359,38,29,36,304,38*72
$GPGSV,3,2,12,15,34,215,28,20,31,284,40,06,26,115,21,30,18,083,*7B
$GPGSV,3,3,12,07,09,054,,19,02,159,,12,01,224,,25,00,258,*7C
$GLGSV,3,1,09,88,68,318,32,65,57,337,34,87,56,164,33,66,31,257,34*60
$GLGSV,3,2,09,81,14,331,35,72,24,032,,74,05,073,,86,03,156,*69
$GLGSV,3,3,09,75,01,118,*57
$QZGSV,1,1,01,01,69,048,32*57
$GPGSA,A,3,02,05,06,13,15,20,29,,,,,,2.0,1.0,1.7*39
$GNGSA,A,3,02,05,06,13,15,20,29,,,,,,2.0,1.0,1.7*27
$GNGSA,A,3,65,81,87,88,,,,,,,,,2.0,1.0,1.7*2C
$QZGSA,A,3,01,,,,,,,,,,,,2.0,1.0,1.7*2A
$IMGSA,A,3,,,,,,,,,,,,,2.0,1.0,1.7*24
$PGLOR,1,FIX,1.0,1.0*20
$GPRMC,060911.00,A,2912.686450,N,11932.239533,E,000.0,,231016,,,A*7C
$PGLOR,SPL,20161023140910.3,POS,20161023060910.999,29.211441,119.537326,6,6,0,182,5,1.100000*5B
$GPGGA,060912.00,2912.686450,N,11932.239533,E,1,14,0.8,172.1,M,6.5,M,,*5F
$PGLOR,6,STA,060912.00,-0.010,0.000,-350,1,8,0,P,F,L,0,C,2,S,0002,12,3,R,33F4,TPEF,22,32409,LC,,*58
$PGLOR,1,UNC,060912.00,0.023,8.0,4.9,0.20,180.00,6.6,4.6,-3.8*0A
$PGLOR,2,SAT,3,1,Q01,027,1F,R24,024,1B,G13,032,1F,G02,036,1F,G05,033,1F,R01,030,1B*21
$PGLOR,2,SAT,3,2,R23,032,1F,G29,032,1F,G15,026,1F,R02,022,10,G20,032,1F,G06,017,1F*4E
$PGLOR,2,SAT,3,3,R17,030,1B,R10,014,30*43
$PGLOR,2,SIO,TxERR,0,RxERR,0,TxCNT,546,RxCNT,3270,MLFRMPKT,0,DTMS,999,DTIN,46,65,DTOUT,845,934,HATMD,29*10
$PGLOR,2,SIO,TxERR,0,RxERR,0,TxCNT,546,RxCNT,3270,MLFRMPKT,0,DTMS,999,DTIN,46,65,DTOUT,845,934,HATMD,29*10
$PGLOR,3,PWR,mA,38.1,RFTm,999,OscTm,1000,MeasTm,1000,UTC,060912.00*09
$GPGSV,3,1,12,13,64,183,35,02,63,094,36,05,59,359,37,29,36,304,37*74
$GPGSV,3,2,12,15,34,215,28,20,31,284,39,06,26,115,20,30,18,083,*74
$GPGSV,3,3,12,07,09,054,,19,02,159,,12,01,224,,25,00,258,*7C
$GLGSV,3,1,09,88,68,318,31,65,57,337,34,87,56,164,33,66,31,257,33*64
$GLGSV,3,2,09,81,14,331,35,74,05,073,14,72,24,032,,86,03,156,*6C
$GLGSV,3,3,09,75,01,118,*57
$QZGSV,1,1,01,01,69,048,31*54
$GPGSA,A,3,02,05,06,12,13,15,20,29,,,,,2.3,1.1,2.0*3C
$GNGSA,A,3,02,05,06,12,13,15,20,29,,,,,2.3,1.1,2.0*22
$GNGSA,A,3,65,74,81,87,88,,,,,,,,2.3,1.1,2.0*29
$QZGSA,A,3,01,,,,,,,,,,,,2.3,1.1,2.0*2C
$IMGSA,A,3,,,,,,,,,,,,,2.3,1.1,2.0*22
$PGLOR,1,FIX,1.0,1.0*20
$GPRMC,060912.00,A,2912.686450,N,11932.239533,E,000.0,,231016,,,A*7F
$PGLOR,SPL,20161023140911.3,POS,20161023060911.999,29.211441,119.537326,8,8,0,179,5,1.100000*5F
$GPGGA,060913.00,2912.683594,N,11932.239031,E,1,12,0.8,168.4,M,6.5,M,,*5D
$PGLOR,6,STA,060913.00,-0.010,0.000,-349,1,8,1,P,F,L,0,C,3,S,0002,12,3,R,33F4,TPEF,22,33409,LC,,*50
$PGLOR,1,UNC,060913.00,0.022,8.0,4.8,0.25,180.00,6.5,4.6,-3.2*07
$PGLOR,2,SAT,3,1,Q01,024,1F,R24,023,1F,G13,032,1F,G02,038,1F,G05,028,1F,R01,027,1B*23
$PGLOR,2,SAT,3,2,R23,035,1F,G29,028,1B,G15,026,1F,R02,019,13,G20,029,1F,G06,020,1F*43
$PGLOR,2,SAT,3,3,R08,012,10,R17,025,10,R10,011,30*74
$PGLOR,2,SIO,TxERR,0,RxERR,0,TxCNT,516,RxCNT,3227,MLFRMPKT,0,DTMS,988,DTIN,44,49,DTOUT,844,950,HATMD,17*15
$PGLOR,2,SIO,TxERR,0,RxERR,0,TxCNT,516,RxCNT,3227,MLFRMPKT,0,DTMS,988,DTIN,44,49,DTOUT,844,950,HATMD,17*15
$PGLOR,3,PWR,mA,38.1,RFTm,1000,OscTm,1000,MeasTm,1000,UTC,060913.00*30
$GPGSV,3,1,12,13,64,183,35,02,63,094,38,05,59,359,36,29,36,304,36*7A
$GPGSV,3,2,12,15,34,215,28,20,31,284,38,06,26,115,20,30,18,083,*75
$GPGSV,3,3,12,07,09,054,,19,02,159,,12,01,224,,25,00,258,*7C
$GLGSV,3,1,09,88,68,318,30,65,57,337,33,87,56,164,35,66,31,257,31*66
$GLGSV,3,2,09,72,24,032,12,81,14,331,34,74,05,072,14,86,03,156,*6F
$GLGSV,3,3,09,75,01,118,*57
$QZGSV,1,1,01,01,69,048,31*54
$GPGSA,A,3,02,05,06,13,15,20,29,,,,,,2.3,1.2,2.0*3C
$GNGSA,A,3,02,05,06,13,15,20,29,,,,,,2.3,1.2,2.0*22
$GNGSA,A,3,65,81,87,88,,,,,,,,,2.3,1.2,2.0*29
$QZGSA,A,3,01,,,,,,,,,,,,2.3,1.2,2.0*2F
$IMGSA,A,3,,,,,,,,,,,,,2.3,1.2,2.0*21
$PGLOR,1,FIX,1.0,1.0*20
$GPRMC,060913.00,A,2912.683594,N,11932.239031,E,000.0,,231016,,,A*75
$PGLOR,SPL,20161023140912.3,POS,20161023060912.999,29.211393,119.537317,8,8,0,175,5,1.100000*59
$GPGGA,060914.00,2912.683164,N,11932.238610,E,1,13,1.2,168.2,M,6.5,M,,*59
$PGLOR,6,STA,060914.00,-0.010,0.000,-350,1,12,1,P,F,L,0,C,3,S,0002,16,3,R,33F4,TPEF,22,34409,LC,,*67
$PGLOR,1,UNC,060914.00,0.024,12.0,4.7,0.23,180.00,10.6,5.6,-32.4*35
$PGLOR,2,SAT,3,1,Q01,025,1F,R24,023,1B,G13,032,1F,G02,037,1F,G05,027,1F,R01,026,1B*27
$PGLOR,2,SAT,3,2,R23,037,1F,G29,023,10,G15,026,1F,R02,015,13,G20,028,1F,G06,021,1F*34
$PGLOR,2,SAT,3,3,R08,013,10,R17,021,13*3E
$PGLOR,2,SIO,TxERR,0,RxERR,0,TxCNT,503,RxCNT,3305,MLFRMPKT,0,DTMS,998,DTIN,29,43,DTOUT,724,957,HATMD,15*1C
