$GPGGA,003408.00,2913.222008,N,11926.852203,E,1,11,1.2,61.4,M,6.2,M,,*67
$PGLOR,6,STA,003408.00,-0.322,0.000,-384,1,12,1,P,F,L,0,C,3,S,0002,7,5,R,33F4,TPEF,23,98805,LC,,*58
$PGLOR,1,UNC,003408.00,0.031,12.0,8.5,0.98,26.92,10.9,5.0,83.3*25
$PGLOR,2,SAT,2,1,G03,018,1F,G17,024,1F,R21,028,1F,G22,024,1F,G19,021,1F,G06,014,1F*29
$PGLOR,2,SAT,2,2,R22,021,3F,G01,027,1F,R05,020,3F,R20,014,3F,G11,009,10*71
$PGLOR,2,SIO,TxERR,0,RxERR,0,TxCNT,575,RxCNT,3439,MLFRMPKT,0,DTMS,986,DTIN,35,45,DTOUT,853,952,HATMD,46*1D
$PGLOR,2,SIO,TxERR,0,RxERR,0,TxCNT,575,RxCNT,3439,MLFRMPKT,0,DTMS,986,DTIN,35,45,DTOUT,853,952,HATMD,46*1D
$PGLOR,3,PWR,mA,26.9,RFTm,998,OscTm,1000,MeasTm,1000,UTC,003408.00*0C
$GPGSV,4,1,13,28,83,202,11,03,49,074,19,17,48,331,25,22,34,056,25*75
$GPGSV,4,2,13,19,33,311,23,06,33,253,17,01,24,045,29,11,14,064,13*7B
$GPGSV,4,3,13,30,14,202,,23,04,122,,02,02,244,,08,01,101,*75
$GPGSV,4,4,13,09,01,153,*44
$GLGSV,3,1,09,85,44,003,28,86,24,300,24,69,23,047,21,76,21,320,08*62
$GLGSV,3,2,09,74,20,196,13,84,19,058,16,71,16,163,,75,46,252,*6E
$GLGSV,3,3,09,70,40,112,*5D
$QZGSV,1,1,01,01,62,125,*57
$GPGSA,A,3,01,02,03,06,17,19,22,,,,,,2.6,1.4,2.2*3B
$GNGSA,A,3,01,02,03,06,17,19,22,,,,,,2.6,1.4,2.2*25
$GNGSA,A,3,69,84,85,86,,,,,,,,,2.6,1.4,2.2*2D
$QZGSA,A,3,,,,,,,,,,,,,2.6,1.4,2.2*2F
$IMGSA,A,3,,,,,,,,,,,,,2.6,1.4,2.2*20
$PGLOR,1,FIX,1.0,1.0*20
$GPRMC,003408.00,A,2913.222008,N,11926.852203,E,000.9,349.7,231016,,,A*56
$PGLOR,SPL,20161023083407.4,POS,20161023003407.999,29.220367,119.447537,12,12,0,68,8,1.100000*6E
$GPGGA,003409.00,2913.222865,N,11926.851664,E,1,13,1.6,63.6,M,6.2,M,,*65
$PGLOR,6,STA,003409.00,-0.322,0.000,-385,1,16,1,P,F,L,0,C,3,S,0002,8,5,R,33F4,TPEF,23,99805,LC,,*52
$PGLOR,1,UNC,003409.00,0.031,16.0,8.5,0.90,34.69,14.6,6.5,83.4*25
$PGLOR,2,SAT,3,1,Q01,015,30,G03,016,1F,G17,022,1F,R11,009,30,R21,025,1B,G22,025,1F*2F
$PGLOR,2,SAT,3,2,G06,015,1F,G19,024,1F,R22,022,3F,G01,029,1F,R05,021,3F,R12,018,30*58
$PGLOR,2,SAT,3,3,R20,015,3F,G11,009,10*5C
$PGLOR,2,SIO,TxERR,0,RxERR,0,TxCNT,527,RxCNT,3357,MLFRMPKT,0,DTMS,1004,DTIN,17,26,DTOUT,864,969,HATMD,50*29
$PGLOR,2,SIO,TxERR,0,RxERR,0,TxCNT,527,RxCNT,3357,MLFRMPKT,0,DTMS,1004,DTIN,17,26,DTOUT,864,969,HATMD,50*29
$PGLOR,3,PWR,mA,26.9,RFTm,999,OscTm,1000,MeasTm,1000,UTC,003409.00*0C
$GPGSV,4,1,13,28,83,202,09,03,49,073,18,17,48,331,24,22,34,056,25*7B
$GPGSV,4,2,13,06,33,253,17,19,33,311,24,01,24,045,29,11,14,064,13*7C
$GPGSV,4,3,13,30,14,202,,23,04,122,,02,02,244,,09,01,153,*73
$GPGSV,4,4,13,08,01,101,*42
$GLGSV,3,1,09,75,46,252,09,85,44,003,28,86,24,300,23,69,23,047,21*62
$GLGSV,3,2,09,76,21,320,18,74,20,196,11,84,19,058,16,70,40,112,*67
$GLGSV,3,3,09,71,16,163,*59
$QZGSV,1,1,01,01,62,125,15*53
$GPGSA,A,3,01,02,03,06,17,19,22,,,,,,2.8,1.5,2.4*32
$GNGSA,A,3,01,02,03,06,17,19,22,,,,,,2.8,1.5,2.4*2C
$GNGSA,A,3,69,76,84,85,86,,,,,,,,2.8,1.5,2.4*25
$QZGSA,A,3,01,,,,,,,,,,,,2.8,1.5,2.4*27
$IMGSA,A,3,,,,,,,,,,,,,2.8,1.5,2.4*29
$PGLOR,1,FIX,1.0,1.0*20
$GPRMC,003409.00,A,2913.222865,N,11926.851664,E,000.7,349.7,231016,,,A*5C
$PGLOR,SPL,20161023083408.4,POS,20161023003408.999,29.220381,119.447528,16,16,0,70,9,1.100000*60
$GPGGA,003410.00,2913.223425,N,11926.851390,E,1,15,1.6,65.5,M,6.2,M,,*69
$PGLOR,6,STA,003410.00,-0.322,0.000,-385,1,16,1,P,F,L,0,C,3,S,0002,8,5,R,33F4,TPEF,23,100805,LC,,*6B
$PGLOR,1,UNC,003410.00,0.032,16.0,8.6,0.81,40.51,14.7,6.3,84.5*24
$PGLOR,2,SAT,3,1,G28,009,10,Q01,017,30,G03,012,1F,G17,022,1F,R11,015,30,R21,025,1F*52
$PGLOR,2,SAT,3,2,G22,026,1F,G06,016,1F,G19,026,1F,R22,024,3F,G01,029,1F,R05,023,3F*32
$PGLOR,2,SAT,3,3,R12,015,30,R20,018,3F,R07,012,30,G30,014,10,G11,009,10*0E
$PGLOR,2,SIO,TxERR,0,RxERR,0,TxCNT,520,RxCNT,3499,MLFRMPKT,0,DTMS,1003,DTIN,24,42,DTOUT,705,959,HATMD,53*26
$PGLOR,2,SIO,TxERR,0,RxERR,0,TxCNT,520,RxCNT,3499,MLFRMPKT,0,DTMS,1003,DTIN,24,42,DTOUT,705,959,HATMD,53*26
$PGLOR,3,PWR,mA,27.0,RFTm,1003,OscTm,1000,MeasTm,1000,UTC,003410.00*37
$GPGSV,4,1,13,28,83,202,09,03,49,073,18,17,48,331,24,22,34,056,26*78
$GPGSV,4,2,13,06,33,253,17,19,33,311,26,01,24,045,29,30,14,202,14*78
$GPGSV,4,3,13,11,14,064,12,23,04,121,,02,02,244,,08,01,101,*74
$GPGSV,4,4,13,09,01,153,*44
$GLGSV,3,1,09,75,46,252,15,85,44,003,27,86,24,300,24,69,23,047,23*65
$GLGSV,3,2,09,76,21,320,17,84,19,058,18,71,16,163,12,74,20,196,*61
$GLGSV,3,3,09,70,40,112,*5D
$QZGSV,1,1,01,01,62,125,17*51
$GPGSA,A,3,01,02,06,17,19,22,30,,,,,,2.6,1.4,2.2*3B
$GNGSA,A,3,01,02,06,17,19,22,30,,,,,,2.6,1.4,2.2*25
$GNGSA,A,3,69,71,75,76,84,85,86,,,,,,2.6,1.4,2.2*28
$QZGSA,A,3,01,,,,,,,,,,,,2.6,1.4,2.2*2E
$IMGSA,A,3,,,,,,,,,,,,,2.6,1.4,2.2*20
$PGLOR,1,FIX,1.0,1.0*20
$GPRMC,003410.00,A,2913.223425,N,11926.851390,E,000.2,349.7,231016,,,A*56
$PGLOR,SPL,20161023083409.4,POS,20161023003409.999,29.220390,119.447523,16,16,0,72,9,1.100000*69
$GPGGA,003411.00,2913.223855,N,11926.850900,E,1,15,1.6,64.8,M,6.2,M,,*6D
$PGLOR,6,STA,003411.00,-0.322,0.000,-385,1,16,3,P,F,L,0,C,3,S,0002,10,5,R,33F4,TPEF,23,101805,LC,,*50
$PGLOR,1,UNC,003411.00,0.032,16.0,8.5,0.83,30.84,14.9,5.9,85.7*2F
$PGLOR,2,SAT,3,1,G28,013,10,Q01,010,30,G03,015,1F,G17,022,1F,R11,016,30,R21,024,1F*5B
$PGLOR,2,SAT,3,2,G22,026,1F,G06,017,1F,G19,026,1F,R22,022,3F,G01,030,1F,R05,023,3F*3D
$PGLOR,2,SAT,3,3,R12,016,30,R20,018,3F,G30,008,10*1A
$PGLOR,2,SIO,TxERR,0,RxERR,0,TxCNT,559,RxCNT,3443,MLFRMPKT,0,DTMS,995,DTIN,20,29,DTOUT,863,967,HATMD,48*19
$PGLOR,2,SIO,TxERR,0,RxERR,0,TxCNT,559,RxCNT,3443,MLFRMPKT,0,DTMS,995,DTIN,20,29,DTOUT,863,967,HATMD,48*19
$PGLOR,3,PWR,mA,27.0,RFTm,999,OscTm,1000,MeasTm,1000,UTC,003411.00*0D
$GPGSV,4,1,13,28,82,202,13,03,49,073,18,17,48,331,24,22,34,056,26*72
$GPGSV,4,2,13,06,33,253,17,19,33,311,26,01,24,045,30,30,14,202,14*70
$GPGSV,4,3,13,11,14,064,11,23,04,121,,02,02,244,,08,01,101,*77
$GPGSV,4,4,13,09,01,153,*44
$GLGSV,3,1,09,75,46,252,16,85,44,003,27,86,24,300,24,69,23,047,23*66
$GLGSV,3,2,09,76,21,320,17,84,19,058,18,71,16,163,11,70,40,112,*6C
$GLGSV,3,3,09,74,20,196,*53
$QZGSV,1,1,01,01,62,125,17*51
$GPGSA,A,3,01,02,03,06,09,17,19,22,28,,,,2.6,1.4,2.2*38
$GNGSA,A,3,01,02,03,06,09,17,19,22,28,,,,2.6,1.4,2.2*26
$GNGSA,A,3,69,75,76,84,85,86,,,,,,,2.6,1.4,2.2*2E
$QZGSA,A,3,,,,,,,,,,,,,2.6,1.4,2.2*2F
$IMGSA,A,3,,,,,,,,,,,,,2.6,1.4,2.2*20
$PGLOR,1,FIX,1.0,1.0*20
$GPRMC,003411.00,A,2913.223855,N,11926.850900,E,000.7,349.1,231016,,,A*5D
$PGLOR,SPL,20161023083410.4,POS,20161023003410.999,29.220398,119.447515,16,16,0,71,9,1.100000*67
$GPGGA,003412.00,2913.223642,N,11926.850021,E,1,14,2.4,63.0,M,6.2,M,,*63
$PGLOR,6,STA,003412.00,-0.322,0.000,-385,1,24,1,P,F,L,0,C,3,S,0002,11,5,R,33F4,TPEF,23,102805,LC,,*52
$PGLOR,1,UNC,003412.00,0.032,24.0,8.5,0.81,36.11,22.6,8.2,86.7*2A
$PGLOR,2,SAT,3,1,Q01,010,30,G03,015,1F,G17,021,1F,R11,016,30,R21,023,1F,G22,026,1F*25
$PGLOR,2,SAT,3,2,G06,017,1F,G19,026,1F,R22,021,3F,G01,030,1F,R05,022,3F,R12,016,3F*28
$PGLOR,2,SAT,3,3,R20,017,3F*0D
$PGLOR,2,SIO,TxERR,0,RxERR,0,TxCNT,531,RxCNT,3442,MLFRMPKT,0,DTMS,1011,DTIN,21,32,DTOUT,867,967,HATMD,59*2D
$PGLOR,2,SIO,TxERR,0,RxERR,0,TxCNT,531,RxCNT,3442,MLFRMPKT,0,DTMS,1011,DTIN,21,32,DTOUT,867,967,HATMD,59*2D
$PGLOR,3,PWR,mA,27.0,RFTm,1000,OscTm,1000,MeasTm,1000,UTC,003412.00*36
$GPGSV,4,1,13,28,82,202,12,03,49,073,17,17,48,331,24,22,34,056,26*7C
$GPGSV,4,2,13,06,33,253,17,19,33,311,26,01,24,045,30,30,14,202,12*76
$GPGSV,4,3,13,11,14,064,09,23,04,121,,02,02,244,,09,01,153,*78
$GPGSV,4,4,13,08,01,101,*42
$GLGSV,3,1,09,75,46,252,16,85,44,003,27,86,24,300,24,69,23,047,23*66
$GLGSV,3,2,09,76,21,320,17,84,19,058,18,71,16,163,09,70,40,112,*65
$GLGSV,3,3,09,74,20,196,*53
$QZGSV,1,1,01,01,62,125,16*50
$GPGSA,A,3,01,02,03,06,17,19,22,23,,,,,2.4,1.3,2.1*3C
$GNGSA,A,3,01,02,03,06,17,19,22,23,,,,,2.4,1.3,2.1*22
$GNGSA,A,3,69,75,76,84,85,86,,,,,,,2.4,1.3,2.1*28
$QZGSA,A,3,,,,,,,,,,,,,2.4,1.3,2.1*29
$IMGSA,A,3,,,,,,,,,,,,,2.4,1.3,2.1*26
$PGLOR,1,FIX,1.0,1.0*20
$GPRMC,003412.00,A,2913.223642,N,11926.850021,E,000.5,349.1,231016,,,A*5E
$PGLOR,SPL,20161023083411.4,POS,20161023003411.999,29.220394,119.447500,24,24,0,69,8,1.100000*67
$GPGGA,003413.00,2913.223974,N,11926.850764,E,1,15,1.6,62.6,M,6.2,M,,*69
$PGLOR,6,STA,003413.00,-0.322,0.000,-387,1,16,1,P,F,L,0,C,3,S,0002,11,5,R,33F4,TPEF,23,103805,LC,,*51
$PGLOR,1,UNC,003413.00,0.032,16.0,8.3,0.91,32.50,15.1,5.2,87.5*21
$PGLOR,2,SAT,3,1,G28,015,10,Q01,009,30,G03,016,1F,G17,022,1F,R11,016,30,R21,024,1F*56
$PGLOR,2,SAT,3,2,G22,025,1F,G06,016,1F,G19,026,1F,R22,023,3F,G01,029,1F,R05,022,3F*37
$PGLOR,2,SAT,3,3,R12,012,30,R20,015,3F,G11,013,10*1A
$PGLOR,2,SIO,TxERR,0,RxERR,0,TxCNT,523,RxCNT,3406,MLFRMPKT,0,DTMS,989,DTIN,33,40,DTOUT,855,958,HATMD,48*1C
$PGLOR,2,SIO,TxERR,0,RxERR,0,TxCNT,523,RxCNT,3406,MLFRMPKT,0,DTMS,989,DTIN,33,40,DTOUT,855,958,HATMD,48*1C
$PGLOR,3,PWR,mA,27.0,RFTm,999,OscTm,1000,MeasTm,1000,UTC,003413.00*0F
$GPGSV,4,1,13,28,82,202,15,03,49,073,17,17,48,331,23,22,34,056,26*7C
$GPGSV,4,2,13,06,33,253,17,19,33,311,26,01,24,045,30,11,14,064,13*76
$GPGSV,4,3,13,30,14,202,10,23,04,121,,02,02,244,,08,01,101,*77
$GPGSV,4,4,13,09,01,153,*44
$GLGSV,3,1,09,75,46,252,16,85,44,003,26,86,24,300,24,69,23,047,23*67
$GLGSV,3,2,09,76,21,320,17,84,19,058,18,70,40,112,,74,20,196,*66
$GLGSV,3,3,09,71,16,163,*59
$QZGSV,1,1,01,01,62,125,15*53
$GPGSA,A,3,01,02,03,06,09,11,17,19,22,28,,,2.6,1.4,2.2*38
$GNGSA,A,3,01,02,03,06,09,11,17,19,22,28,,,2.6,1.4,2.2*26
$GNGSA,A,3,69,75,84,85,86,,,,,,,,2.6,1.4,2.2*2F
$QZGSA,A,3,,,,,,,,,,,,,2.6,1.4,2.2*2F
$IMGSA,A,3,,,,,,,,,,,,,2.6,1.4,2.2*20
$PGLOR,1,FIX,1.0,1.0*20
$GPRMC,003413.00,A,2913.223974,N,11926.850764,E,000.5,349.1,231016,,,A*53
$PGLOR,SPL,20161023083412.4,POS,20161023003412.999,29.220400,119.447513,16,16,0,69,8,1.100000*6F
$GPGGA,003414.00,2913.223859,N,11926.851123,E,1,12,1.6,60.2,M,6.2,M,,*65
$PGLOR,6,STA,003414.00,-0.322,0.000,-386,1,16,1,P,F,L,0,C,2,S,0002,11,5,R,33F4,TPEF,23,104805,LC,,*51
$PGLOR,1,UNC,003414.00,0.032,16.0,8.2,0.93,32.90,15.2,4.9,88.0*2A
$PGLOR,2,SAT,2,1,Q01,009,30,G03,016,1F,G17,023,1F,R11,016,3F,R21,025,1F,G22,024,1F*5F
$PGLOR,2,SAT,2,2,G06,016,1F,G19,026,1F,R22,026,3F,G01,028,1F,R05,022,3F,R20,017,3F*26
$PGLOR,2,SIO,TxERR,0,RxERR,0,TxCNT,518,RxCNT,3484,MLFRMPKT,0,DTMS,1000,DTIN,19,25,DTOUT,810,975,HATMD,48*22
$PGLOR,2,SIO,TxERR,0,RxERR,0,TxCNT,518,RxCNT,3484,MLFRMPKT,0,DTMS,1000,DTIN,19,25,DTOUT,810,975,HATMD,48*22
$PGLOR,3,PWR,mA,27.0,RFTm,1001,OscTm,1000,MeasTm,1000,UTC,003414.00*31
$GPGSV,4,1,13,28,82,202,13,03,49,073,17,17,48,331,23,22,34,056,26*7A
$GPGSV,4,2,13,06,33,253,17,19,33,311,26,01,24,045,30,11,14,064,12*77
$GPGSV,4,3,13,30,14,202,,23,04,121,,02,02,244,,08,01,101,*76
$GPGSV,4,4,13,09,01,153,*44
$GLGSV,3,1,09,75,46,252,16,85,44,003,26,86,24,300,26,69,23,047,23*65
$GLGSV,3,2,09,76,21,320,15,84,19,058,18,70,40,112,,74,20,196,*64
$GLGSV,3,3,09,71,16,163,*59
$QZGSV,1,1,01,01,62,125,15*53
$GPGSA,A,3,01,02,03,06,17,19,22,,,,,,2.5,1.2,2.1*3D
$GNGSA,A,3,01,02,03,06,17,19,22,,,,,,2.5,1.2,2.1*23
$GNGSA,A,3,69,75,84,85,86,,,,,,,,2.5,1.2,2.1*29
$QZGSA,A,3,,,,,,,,,,,,,2.5,1.2,2.1*29
$IMGSA,A,3,,,,,,,,,,,,,2.5,1.2,2.1*26
$PGLOR,1,FIX,1.0,1.0*20
$GPRMC,003414.00,A,2913.223859,N,11926.851123,E,000.5,349.1,231016,,,A*5E
$PGLOR,SPL,20161023083413.4,POS,20161023003413.999,29.220398,119.447519,16,16,0,66,8,1.100000*6C
$GPGGA,003415.00,2913.223876,N,11926.851000,E,1,15,1.6,58.3,M,6.2,M,,*64
$PGLOR,6,STA,003415.00,-0.322,0.000,-385,1,16,3,P,F,L,0,C,3,S,0002,11,5,R,33F4,TPEF,23,105805,LC,,*51
$PGLOR,1,UNC,003415.00,0.032,16.0,8.3,1.46,28.09,15.3,4.7,88.0*27
$PGLOR,2,SAT,3,1,Q01,009,30,G03,016,1F,G17,023,1F,R11,013,3B,R21,026,1F,G22,024,1F*5C
$PGLOR,2,SAT,3,2,G06,017,1F,G19,026,1F,R22,025,3F,G01,029,1F,R05,022,3F,R12,013,30*57
$PGLOR,2,SAT,3,3,R20,019,3F,R07,017,30*4F
$PGLOR,2,SIO,TxERR,0,RxERR,0,TxCNT,556,RxCNT,3423,MLFRMPKT,0,DTMS,999,DTIN,20,32,DTOUT,867,966,HATMD,47*1C
$PGLOR,2,SIO,TxERR,0,RxERR,0,TxCNT,556,RxCNT,3423,MLFRMPKT,0,DTMS,999,DTIN,20,32,DTOUT,867,966,HATMD,47*1C
$PGLOR,3,PWR,mA,26.9,RFTm,999,OscTm,1000,MeasTm,1000,UTC,003415.00*01
$GPGSV,4,1,13,28,82,202,11,03,49,073,17,17,48,331,23,22,34,056,26*78
$GPGSV,4,2,13,06,33,253,17,19,33,311,26,01,24,045,30,11,14,064,10*75
$GPGSV,4,3,13,30,14,202,,23,04,121,,02,02,244,,09,01,153,*70
$GPGSV,4,4,13,08,01,101,*42
$GLGSV,3,1,09,75,46,252,16,85,44,003,26,86,24,300,26,69,23,047,23*65
$GLGSV,3,2,09,76,21,320,14,84,19,058,19,71,16,163,17,70,40,112,*68
$GLGSV,3,3,09,74,20,196,*53
$QZGSV,1,1,01,01,62,125,14*52
$GPGSA,A,3,01,02,03,06,17,19,22,23,,,,,2.6,1.4,2.2*3A
$GNGSA,A,3,01,02,03,06,17,19,22,23,,,,,2.6,1.4,2.2*24
$GNGSA,A,3,69,71,75,76,84,85,86,,,,,,2.6,1.4,2.2*28
$QZGSA,A,3,,,,,,,,,,,,,2.6,1.4,2.2*2F
$IMGSA,A,3,,,,,,,,,,,,,2.6,1.4,2.2*20
$PGLOR,1,FIX,1.0,1.0*20
$GPRMC,003415.00,A,2913.223876,N,11926.851000,E,000.6,351.2,231016,,,A*5B
$PGLOR,SPL,20161023083414.4,POS,20161023003414.999,29.220398,119.447517,16,16,0,64,8,1.100000*60
$GPGGA,003416.00,2913.223723,N,11926.850890,E,1,15,1.6,57.0,M,6.2,M,,*64
$PGLOR,6,STA,003416.00,-0.322,0.000,-385,1,16,1,P,F,L,0,C,3,S,0002,11,5,R,33F4,TPEF,23,106805,LC,,*53
$PGLOR,1,UNC,003416.00,0.032,16.0,8.3,0.97,31.84,15.3,4.5,88.0*26
$PGLOR,2,SAT,3,1,G28,017,10,G03,014,1F,G17,022,1F,R11,015,3B,R21,026,1F,G22,024,1F*49
$PGLOR,2,SAT,3,2,G06,016,1F,G19,026,1F,R22,025,3F,G01,028,1F,R05,022,3F,R12,008,30*5D
$PGLOR,2,SAT,3,3,R10,012,30,R20,017,3F,G30,016,10*1C
$PGLOR,2,SIO,TxERR,0,RxERR,0,TxCNT,517,RxCNT,3464,MLFRMPKT,0,DTMS,999,DTIN,21,32,DTOUT,750,967,HATMD,46*10
$PGLOR,2,SIO,TxERR,0,RxERR,0,TxCNT,517,RxCNT,3464,MLFRMPKT,0,DTMS,999,DTIN,21,32,DTOUT,750,967,HATMD,46*10
$PGLOR,3,PWR,mA,27.0,RFTm,1000,OscTm,1000,MeasTm,1000,UTC,003416.00*32
$GPGSV,4,1,13,28,82,202,17,03,49,073,17,17,48,331,23,22,34,056,26*7E
$GPGSV,4,2,13,06,33,253,17,19,33,311,26,01,24,045,29,30,14,202,16*7A
$GPGSV,4,3,13,11,14,064,,23,04,121,,02,02,244,,09,01,153,*71
$GPGSV,4,4,13,08,01,101,*42
$GLGSV,3,1,09,75,46,252,16,85,44,003,26,86,24,300,26,69,23,047,23*65
$GLGSV,3,2,09,76,21,320,14,74,20,196,12,84,19,058,19,71,16,163,15*67
$GLGSV,3,3,09,70,40,112,*5D
$QZGSV,1,1,01,01,62,125,13*55
$GPGSA,A,3,01,02,03,06,17,19,22,23,28,30,,,2.6,1.4,2.2*33
$GNGSA,A,3,01,02,03,06,17,19,22,23,28,30,,,2.6,1.4,2.2*2D
$GNGSA,A,3,69,75,84,85,86,,,,,,,,2.6,1.4,2.2*2F
$QZGSA,A,3,,,,,,,,,,,,,2.6,1.4,2.2*2F
$IMGSA,A,3,,,,,,,,,,,,,2.6,1.4,2.2*20
$PGLOR,1,FIX,1.0,1.0*20
$GPRMC,003416.00,A,2913.223723,N,11926.850890,E,000.5,351.2,231016,,,A*54
$PGLOR,SPL,20161023083415.4,POS,20161023003415.999,29.220395,119.447515,16,16,0,63,8,1.100000*68
$GPGGA,003417.00,2913.222581,N,11926.851126,E,1,16,1.6,58.1,M,6.2,M,,*66
$PGLOR,6,STA,003417.00,-0.322,0.000,-385,1,16,1,P,F,L,0,C,3,S,0002,12,5,R,33F4,TPEF,23,107805,LC,,*50
$PGLOR,1,UNC,003417.00,0.031,16.0,8.3,0.76,33.76,15.3,4.7,87.9*20
$PGLOR,2,SAT,3,1,G28,013,10,G03,015,1F,G17,022,1F,R11,016,3F,R21,025,1F,G22,027,1F*4B
$PGLOR,2,SAT,3,2,G06,015,1F,G19,027,1F,R22,024,3F,G01,030,1F,R05,023,3F,R12,008,30*56
$PGLOR,2,SAT,3,3,R10,012,30,R20,018,3F,G30,018,10*1D
$PGLOR,2,SIO,TxERR,0,RxERR,0,TxCNT,573,RxCNT,3390,MLFRMPKT,0,DTMS,1001,DTIN,17,24,DTOUT,856,975,HATMD,47*2E
$PGLOR,2,SIO,TxERR,0,RxERR,0,TxCNT,573,RxCNT,3390,MLFRMPKT,0,DTMS,1001,DTIN,17,24,DTOUT,856,975,HATMD,47*2E
$PGLOR,3,PWR,mA,27.0,RFTm,999,OscTm,1000,MeasTm,1000,UTC,003417.00*0B
$GPGSV,4,1,13,28,82,202,16,03,49,073,17,17,48,331,23,22,34,056,27*7E
$GPGSV,4,2,13,06,33,253,17,19,33,311,27,01,24,045,30,30,14,202,18*7D
$GPGSV,4,3,13,11,14,064,,23,04,121,,02,02,244,,09,01,153,*71
$GPGSV,4,4,13,08,01,101,*42
$GLGSV,3,1,09,75,46,252,16,85,44,003,26,86,24,300,25,69,23,047,23*66
$GLGSV,3,2,09,76,21,320,13,74,20,196,12,84,19,058,19,71,16,163,12*67
$GLGSV,3,3,09,70,40,112,*5D
$QZGSV,1,1,01,01,62,125,10*56
$GPGSA,A,3,01,02,03,06,08,17,19,22,28,30,,,2.5,1.2,2.1*3C
$GNGSA,A,3,01,02,03,06,08,17,19,22,28,30,,,2.5,1.2,2.1*22
$GNGSA,A,3,69,74,75,84,85,86,,,,,,,2.5,1.2,2.1*2A
$QZGSA,A,3,,,,,,,,,,,,,2.5,1.2,2.1*29
$IMGSA,A,3,,,,,,,,,,,,,2.5,1.2,2.1*26
$PGLOR,1,FIX,1.0,1.0*20
$GPRMC,003417.00,A,2913.222581,N,11926.851126,E,000.4,351.2,231016,,,A*5A
$PGLOR,SPL,20161023083416.4,POS,20161023003416.999,29.220376,119.447519,16,16,0,64,8,1.100000*6E
$GPGGA,003418.00,2913.221910,N,11926.851354,E,1,14,2.4,57.4,M,6.2,M,,*60
$PGLOR,6,STA,003418.00,-0.322,0.000,-386,1,24,1,P,F,L,0,C,2,S,0002,13,5,R,33F4,TPEF,23,108805,LC,,*52
$PGLOR,1,UNC,003418.00,0.031,24.0,8.2,0.80,34.28,23.0,6.9,88.1*27
$PGLOR,2,SAT,3,1,G03,016,1F,G17,022,1F,R11,016,3F,R21,022,1F,R06,011,30,G22,027,1F*56
$PGLOR,2,SAT,3,2,G19,027,1F,G06,016,1F,R22,024,3F,G01,030,1F,R05,023,3F,R12,012,30*5E
$PGLOR,2,SAT,3,3,R20,017,3F*0D
$PGLOR,2,SIO,TxERR,0,RxERR,0,TxCNT,517,RxCNT,3440,MLFRMPKT,0,DTMS,1000,DTIN,19,25,DTOUT,867,975,HATMD,47*2A
$PGLOR,2,SIO,TxERR,0,RxERR,0,TxCNT,517,RxCNT,3440,MLFRMPKT,0,DTMS,1000,DTIN,19,25,DTOUT,867,975,HATMD,47*2A
$PGLOR,3,PWR,mA,27.0,RFTm,1002,OscTm,1000,MeasTm,1000,UTC,003418.00*3E
$GPGSV,4,1,13,28,82,202,15,03,49,073,16,17,48,331,23,22,34,056,27*7C
$GPGSV,4,2,13,19,33,311,27,06,33,253,17,01,24,045,30,30,14,202,16*73
$GPGSV,4,3,13,11,14,064,,23,04,121,,02,02,244,,08,01,101,*77
$GPGSV,4,4,13,09,01,153,*44
$GLGSV,3,1,09,75,46,252,16,85,44,003,26,70,40,111,11,86,24,300,25*68
$GLGSV,3,2,09,69,23,047,23,76,21,320,13,74,20,196,11,84,19,058,19*6E
$GLGSV,3,3,09,71,16,163,09*50
$QZGSV,1,1,01,01,62,125,*57
$GPGSA,A,3,01,02,03,06,09,17,19,22,,,,,2.5,1.2,2.1*34
$GNGSA,A,3,01,02,03,06,09,17,19,22,,,,,2.5,1.2,2.1*2A
$GNGSA,A,3,69,75,76,84,85,86,,,,,,,2.5,1.2,2.1*28
$QZGSA,A,3,,,,,,,,,,,,,2.5,1.2,2.1*29
$IMGSA,A,3,,,,,,,,,,,,,2.5,1.2,2.1*26
$PGLOR,1,FIX,1.0,1.0*20
$GPRMC,003418.00,A,2913.221910,N,11926.851354,E,000.5,342.3,231016,,,A*57
$PGLOR,SPL,20161023083417.4,POS,20161023003417.999,29.220365,119.447523,24,24,0,64,8,1.100000*65
$GPGGA,003419.00,2913.222162,N,11926.851438,E,1,15,2.4,59.4,M,6.2,M,,*6D
$PGLOR,6,STA,003419.00,-0.322,0.000,-386,1,24,1,P,F,L,0,C,2,S,0002,13,5,R,33F4,TPEF,23,109805,LC,,*52
$PGLOR,1,UNC,003419.00,0.031,24.0,8.2,0.72,38.78,23.0,6.8,88.2*20
$PGLOR,2,SAT,3,1,Q01,012,30,G03,014,1F,G17,020,1F,R11,020,3F,R21,024,1F,G22,027,1F*52
$PGLOR,2,SAT,3,2,G19,027,1F,G06,014,1F,R22,024,3F,G01,030,1F,R05,024,3F,R12,010,30*59
$PGLOR,2,SAT,3,3,R10,008,30,R20,020,3F,R07,008,30,G30,015,10*52
$PGLOR,2,SIO,TxERR,0,RxERR,0,TxCNT,526,RxCNT,3384,MLFRMPKT,0,DTMS,1014,DTIN,17,37,DTOUT,875,961,HATMD,61*2D
$PGLOR,2,SIO,TxERR,0,RxERR,0,TxCNT,526,RxCNT,3384,MLFRMPKT,0,DTMS,1014,DTIN,17,37,DTOUT,875,961,HATMD,61*2D
$PGLOR,3,PWR,mA,26.9,RFTm,998,OscTm,1000,MeasTm,1000,UTC,003419.00*0C
$GPGSV,4,1,13,28,82,202,12,03,49,073,16,17,48,331,23,22,34,056,27*7B
$GPGSV,4,2,13,19,33,311,27,06,33,253,17,01,24,045,30,30,14,202,16*73
$GPGSV,4,3,13,11,14,064,,23,04,121,,02,02,244,,09,01,153,*71
$GPGSV,4,4,13,08,01,101,*42
$GLGSV,3,1,09,75,46,252,20,85,44,003,25,70,40,111,10,86,24,300,25*6F
$GLGSV,3,2,09,69,23,047,24,76,21,320,13,74,20,195,10,84,19,058,20*61
$GLGSV,3,3,09,71,16,163,08*51
$QZGSV,1,1,01,01,62,125,12*54
$GPGSA,A,3,01,02,03,06,17,19,22,23,30,,,,2.5,1.2,2.1*3F
$GNGSA,A,3,01,02,03,06,17,19,22,23,30,,,,2.5,1.2,2.1*21
$GNGSA,A,3,69,75,84,85,86,,,,,,,,2.5,1.2,2.1*29
$QZGSA,A,3,01,,,,,,,,,,,,2.5,1.2,2.1*28
$IMGSA,A,3,,,,,,,,,,,,,2.5,1.2,2.1*26
$PGLOR,1,FIX,1.0,1.0*20
$GPRMC,003419.00,A,2913.222162,N,11926.851438,E,000.4,342.3,231016,,,A*54
$PGLOR,SPL,20161023083418.4,POS,20161023003418.999,29.220369,119.447524,24,24,0,66,8,1.100000*6C
$GPGGA,003420.00,2913.222342,N,11926.851602,E,1,12,2.4,59.4,M,6.2,M,,*6B
$PGLOR,6,STA,003420.00,-0.322,0.000,-387,1,24,1,P,F,L,0,C,2,S,0002,13,5,R,33F4,TPEF,23,110805,LC,,*51
$PGLOR,1,UNC,003420.00,0.031,24.0,8.3,0.72,33.65,23.0,6.8,88.3*2D
$PGLOR,2,SAT,3,1,G03,014,1F,G17,022,1F,R11,021,3F,R21,025,1F,G22,027,1F,G19,026,1F*3C
$PGLOR,2,SAT,3,2,G06,014,1F,R22,022,3F,G01,031,1F,R05,024,3F,R12,009,30,R20,022,3F*4E
$PGLOR,2,SAT,3,3,G11,010,10*69
$PGLOR,2,SIO,TxERR,0,RxERR,0,TxCNT,518,RxCNT,3485,MLFRMPKT,0,DTMS,1003,DTIN,42,65,DTOUT,574,935,HATMD,64*2F
$PGLOR,2,SIO,TxERR,0,RxERR,0,TxCNT,518,RxCNT,3485,MLFRMPKT,0,DTMS,1003,DTIN,42,65,DTOUT,574,935,HATMD,64*2F
$PGLOR,3,PWR,mA,27.0,RFTm,1003,OscTm,1000,MeasTm,1000,UTC,003420.00*34
$GPGSV,4,1,13,03,49,073,16,17,48,331,23,22,34,056,27,19,33,311,27*76
$GPGSV,4,2,13,06,33,253,16,01,24,045,31,11,14,064,10,30,14,202,14*79
$GPGSV,4,3,13,28,82,202,08,23,04,121,,02,02,244,,08,01,101,*78
$GPGSV,4,4,13,09,01,153,*44
$GLGSV,3,1,09,75,46,252,21,85,44,003,25,70,40,111,08,86,24,300,25*67
$GLGSV,3,2,09,69,23,047,24,76,21,320,12,74,20,195,09,84,19,058,22*6A
$GLGSV,3,3,09,71,16,163,08*51
$QZGSV,1,1,01,01,62,125,11*57
$GPGSA,A,3,01,02,03,06,17,19,22,,,,,,2.5,1.2,2.1*3D
$GNGSA,A,3,01,02,03,06,17,19,22,,,,,,2.5,1.2,2.1*23
$GNGSA,A,3,69,75,84,85,86,,,,,,,,2.5,1.2,2.1*29
$QZGSA,A,3,,,,,,,,,,,,,2.5,1.2,2.1*29
$IMGSA,A,3,,,,,,,,,,,,,2.5,1.2,2.1*26
$PGLOR,1,FIX,1.0,1.0*20
$GPRMC,003420.00,A,2913.222342,N,11926.851602,E,000.4,342.3,231016,,,A*55
$PGLOR,SPL,20161023083419.4,POS,20161023003419.999,29.220372,119.447527,24,24,0,66,8,1.100000*65
$GPGGA,003421.00,2913.222292,N,11926.851754,E,1,15,2.4,59.6,M,6.2,M,,*61
$PGLOR,6,STA,003421.00,-0.322,0.000,-386,1,24,1,P,F,L,0,C,2,S,0002,13,5,R,33F4,TPEF,23,111805,LC,,*50
$PGLOR,1,UNC,003421.00,0.031,24.0,8.2,0.70,37.90,23.0,6.9,88.4*27
$PGLOR,2,SAT,3,1,G03,014,1F,G17,022,1F,R11,022,3F,R21,026,1F,R06,007,30,G22,027,1F*50
$PGLOR,2,SAT,3,2,G19,025,1F,G06,013,1F,R22,021,3F,G01,031,1F,R05,024,3F,R12,009,30*50
$PGLOR,2,SAT,3,3,R10,014,30,R20,022,3F,G11,012,10*1B
$PGLOR,2,SIO,TxERR,0,RxERR,0,TxCNT,558,RxCNT,3399,MLFRMPKT,0,DTMS,997,DTIN,47,65,DTOUT,841,930,HATMD,61*1A
$PGLOR,2,SIO,TxERR,0,RxERR,0,TxCNT,558,RxCNT,3399,MLFRMPKT,0,DTMS,997,DTIN,47,65,DTOUT,841,930,HATMD,61*1A
$PGLOR,3,PWR,mA,26.9,RFTm,996,OscTm,1000,MeasTm,1000,UTC,003421.00*09
$GPGSV,4,1,13,03,49,073,16,17,48,331,23,22,34,056,27,19,33,311,27*76
$GPGSV,4,2,13,06,33,253,16,01,24,045,31,11,14,064,12,30,14,202,11*7E
$GPGSV,4,3,13,28,82,202,,23,04,121,,02,02,244,,09,01,153,*76
$GPGSV,4,4,13,08,01,101,*42
$GLGSV,3,1,09,75,46,252,22,85,44,003,26,70,40,111,08,86,24,300,25*67
$GLGSV,3,2,09,69,23,047,24,76,21,320,12,74,20,195,14,84,19,058,22*66
$GLGSV,3,3,09,71,16,163,*59
$QZGSV,1,1,01,01,62,125,09*5E
$GPGSA,A,3,01,02,03,06,11,17,19,22,23,,,,2.5,1.2,2.1*3C
$GNGSA,A,3,01,02,03,06,11,17,19,22,23,,,,2.5,1.2,2.1*22
$GNGSA,A,3,69,74,75,84,85,86,,,,,,,2.5,1.2,2.1*2A
$QZGSA,A,3,,,,,,,,,,,,,2.5,1.2,2.1*29
$IMGSA,A,3,,,,,,,,,,,,,2.5,1.2,2.1*26
$PGLOR,1,FIX,1.0,1.0*20
$GPRMC,003421.00,A,2913.222292,N,11926.851754,E,000.3,342.3,231016,,,A*5D
$PGLOR,SPL,20161023083420.4,POS,20161023003420.999,29.220372,119.447529,24,24,0,66,8,1.100000*6B
$GPGGA,003422.00,2913.221942,N,11926.851791,E,1,14,1.6,59.7,M,6.2,M,,*6F
$PGLOR,6,STA,003422.00,-0.322,0.000,-386,1,16,1,P,F,L,0,C,2,S,0002,14,5,R,33F4,TPEF,23,112805,LC,,*56
$PGLOR,1,UNC,003422.00,0.028,16.0,8.1,0.39,39.69,15.3,4.7,88.2*27
$PGLOR,2,SAT,3,1,Q01,009,30,G03,014,1F,G17,024,1F,R11,026,3F,R21,026,1F,G22,027,1F*58
$PGLOR,2,SAT,3,2,G06,014,1F,G19,025,1F,R22,022,3F,G01,031,1F,R05,025,3F,R12,011,30*5C
$PGLOR,2,SAT,3,3,R10,012,30,R20,024,3F,G11,020,10*1A
$PGLOR,2,SIO,TxERR,0,RxERR,0,TxCNT,515,RxCNT,3393,MLFRMPKT,0,DTMS,985,DTIN,45,62,DTOUT,850,938,HATMD,46*12
$PGLOR,2,SIO,TxERR,0,RxERR,0,TxCNT,515,RxCNT,3393,MLFRMPKT,0,DTMS,985,DTIN,45,62,DTOUT,850,938,HATMD,46*12
$PGLOR,3,PWR,mA,27.0,RFTm,1001,OscTm,1000,MeasTm,1000,UTC,003422.00*34
$GPGSV,4,1,13,03,49,073,16,17,48,331,24,22,34,056,27,06,33,253,16*7A
$GPGSV,4,2,13,19,33,311,27,01,24,045,31,11,14,064,20,30,14,202,08*7C
$GPGSV,4,3,13,28,82,202,,23,04,121,,02,02,244,,09,01,153,*76
$GPGSV,4,4,13,08,01,101,*42
$GLGSV,3,1,09,75,46,252,26,85,44,003,26,70,40,111,08,86,24,300,24*62
$GLGSV,3,2,09,69,23,047,25,76,21,320,12,74,20,195,13,84,19,058,24*66
$GLGSV,3,3,09,71,16,163,*59
$QZGSV,1,1,01,01,62,125,09*5E
$GPGSA,A,3,01,02,03,06,09,11,17,19,22,,,,2.5,1.2,2.1*34
$GNGSA,A,3,01,02,03,06,09,11,17,19,22,,,,2.5,1.2,2.1*2A
$GNGSA,A,3,69,75,84,85,86,,,,,,,,2.5,1.2,2.1*29
$QZGSA,A,3,,,,,,,,,,,,,2.5,1.2,2.1*29
$IMGSA,A,3,,,,,,,,,,,,,2.5,1.2,2.1*26
$PGLOR,1,FIX,1.0,1.0*20
$GPRMC,003422.00,A,2913.221942,N,11926.851791,E,000.3,342.3,231016,,,A*52
$PGLOR,SPL,20161023083421.4,POS,20161023003421.999,29.220366,119.447530,16,16,0,66,8,1.100000*66
$GPGGA,003423.00,2913.222131,N,11926.851821,E,1,14,1.2,59.9,M,6.2,M,,*6F
$PGLOR,6,STA,003423.00,-0.322,0.000,-386,1,12,1,P,F,L,0,C,2,S,0002,14,5,R,33F4,TPEF,23,113805,LC,,*52
$PGLOR,1,UNC,003423.00,0.028,12.0,8.0,0.40,42.44,11.4,3.7,88.0*28
$PGLOR,2,SAT,3,1,G17,026,1B,R11,027,3F,R21,024,1F,G22,027,1F,G19,025,1F,G06,018,1B*35
$PGLOR,2,SAT,3,2,R22,022,3B,G01,032,1F,R05,026,3F,R12,013,30,R10,011,30,R20,025,3F*24
$PGLOR,2,SAT,3,3,G30,015,10,G11,015,10*31
$PGLOR,2,SIO,TxERR,0,RxERR,0,TxCNT,524,RxCNT,3452,MLFRMPKT,0,DTMS,1014,DTIN,20,41,DTOUT,509,959,HATMD,60*2A
$PGLOR,2,SIO,TxERR,0,RxERR,0,TxCNT,524,RxCNT,3452,MLFRMPKT,0,DTMS,1014,DTIN,20,41,DTOUT,509,959,HATMD,60*2A
$PGLOR,3,PWR,mA,27.0,RFTm,1000,OscTm,1000,MeasTm,1000,UTC,003423.00*34
$GPGSV,4,1,13,03,49,073,14,17,48,331,26,22,34,056,27,19,33,311,27*71
$GPGSV,4,2,13,06,33,253,18,01,24,045,32,30,14,202,15,11,14,064,19*7C
$GPGSV,4,3,13,28,82,202,,23,04,121,,02,02,244,,08,01,101,*70
$GPGSV,4,4,13,09,01,153,*44
$GLGSV,3,1,09,75,46,252,27,85,44,003,26,86,24,300,24,69,23,047,26*60
$GLGSV,3,2,09,76,21,320,13,74,20,195,13,84,19,058,25,70,40,111,*6E
$GLGSV,3,3,09,71,16,163,*59
$QZGSV,1,1,01,01,62,125,08*5F
$GPGSA,A,3,01,02,06,11,17,19,22,30,,,,,4.4,1.8,4.0*37
$GNGSA,A,3,01,02,06,11,17,19,22,30,,,,,4.4,1.8,4.0*29
$GNGSA,A,3,69,75,76,84,85,86,,,,,,,4.4,1.8,4.0*22
$QZGSA,A,3,,,,,,,,,,,,,4.4,1.8,4.0*23
$IMGSA,A,3,,,,,,,,,,,,,4.4,1.8,4.0*2C
$PGLOR,1,FIX,1.0,1.0*20
$GPRMC,003423.00,A,2913.222131,N,11926.851821,E,000.3,342.3,231016,,,A*58
$PGLOR,SPL,20161023083422.4,POS,20161023003422.999,29.220369,119.447530,12,12,0,66,8,1.100000*69
$GPGGA,003424.00,2913.222208,N,11926.851894,E,1,14,2.4,59.9,M,6.2,M,,*6A
$PGLOR,6,STA,003424.00,-0.322,0.000,-387,1,24,1,P,F,L,0,C,3,S,0002,14,5,R,33F4,TPEF,23,114805,LC,,*57
$PGLOR,1,UNC,003424.00,0.028,24.0,8.1,0.39,46.59,22.7,7.9,88.0*24
$PGLOR,2,SAT,3,1,G17,022,1F,R11,024,3B,R21,022,1F,G22,027,1F,G19,026,1F,G06,013,10*4E
$PGLOR,2,SAT,3,2,G01,031,1F,R22,023,3F,R05,025,3F,R12,011,30,R10,011,30,R20,022,3F*24
$PGLOR,2,SAT,3,3,G30,013,10,G11,014,10*36
$PGLOR,2,SIO,TxERR,0,RxERR,0,TxCNT,559,RxCNT,3490,MLFRMPKT,0,DTMS,998,DTIN,40,56,DTOUT,849,944,HATMD,58*1C
$PGLOR,2,SIO,TxERR,0,RxERR,0,TxCNT,559,RxCNT,3490,MLFRMPKT,0,DTMS,998,DTIN,40,56,DTOUT,849,944,HATMD,58*1C
$PGLOR,3,PWR,mA,27.0,RFTm,1001,OscTm,1000,MeasTm,1000,UTC,003424.00*32
$GPGSV,4,1,13,03,49,073,11,17,48,331,25,22,34,056,27,19,33,311,26*76
$GPGSV,4,2,13,06,33,253,18,01,24,045,32,30,14,202,15,11,14,064,19*7C
$GPGSV,4,3,13,28,82,202,,23,04,121,,02,02,244,,08,01,102,*73
$GPGSV,4,4,13,09,01,153,*44
$GLGSV,3,1,09,75,46,252,27,85,44,003,26,86,24,300,24,69,23,047,26*60
$GLGSV,3,2,09,76,21,320,13,74,20,195,13,84,19,058,25,70,40,111,*6E
$GLGSV,3,3,09,71,16,163,*59
$QZGSV,1,1,01,01,62,125,*57
$GPGSA,A,3,01,02,06,09,11,17,19,22,30,,,,5.4,4.5,3.0*30
$GNGSA,A,3,01,02,06,09,11,17,19,22,30,,,,5.4,4.5,3.0*2E
$GNGSA,A,3,69,75,84,85,86,,,,,,,,5.4,4.5,3.0*2D
$QZGSA,A,3,,,,,,,,,,,,,5.4,4.5,3.0*2D
$IMGSA,A,3,,,,,,,,,,,,,5.4,4.5,3.0*22
$PGLOR,1,FIX,1.0,1.0*20
$GPRMC,003424.00,A,2913.222208,N,11926.851894,E,000.1,342.3,231016,,,A*5A
$PGLOR,SPL,20161023083423.4,POS,20161023003423.999,29.220370,119.447532,24,24,0,66,8,1.100000*63
$GPGGA,003425.00,2913.222169,N,11926.851903,E,1,15,1.6,59.9,M,6.2,M,,*60
$PGLOR,6,STA,003425.00,-0.322,0.000,-386,1,16,1,P,F,L,0,C,3,S,0002,14,5,R,33F4,TPEF,23,115805,LC,,*57
$PGLOR,1,UNC,003425.00,0.028,16.0,8.2,0.35,44.73,15.0,5.5,88.0*2C
$PGLOR,2,SAT,3,1,G03,017,10,G17,021,1F,R11,025,3F,R21,022,1F,G22,029,1F,G19,027,1F*46
$PGLOR,2,SAT,3,2,G06,013,1F,R22,026,3F,G01,032,1F,R05,026,3F,R12,013,30,R20,022,3B*43
$PGLOR,2,SAT,3,3,G11,014,1F*1B
$PGLOR,2,SIO,TxERR,0,RxERR,0,TxCNT,535,RxCNT,3387,MLFRMPKT,0,DTMS,1003,DTIN,40,60,DTOUT,852,939,HATMD,61*22
$PGLOR,2,SIO,TxERR,0,RxERR,0,TxCNT,535,RxCNT,3387,MLFRMPKT,0,DTMS,1003,DTIN,40,60,DTOUT,852,939,HATMD,61*22
$PGLOR,3,PWR,mA,26.9,RFTm,999,OscTm,1000,MeasTm,1000,UTC,003425.00*02
$GPGSV,4,1,13,03,49,073,17,17,48,331,25,22,34,056,29,19,33,311,27*7F
$GPGSV,4,2,13,06,33,253,17,01,24,045,32,11,14,064,18,30,14,202,14*73
$GPGSV,4,3,13,28,82,201,,23,04,121,,02,02,244,,09,01,153,*75
$GPGSV,4,4,13,08,01,102,*41
$GLGSV,3,1,09,75,46,252,27,85,44,003,25,86,24,300,26,69,23,047,26*61
$GLGSV,3,2,09,76,21,320,13,74,20,195,12,84,19,058,24,70,40,111,*6E
$GLGSV,3,3,09,71,16,163,*59
$QZGSV,1,1,01,01,62,125,*57
$GPGSA,A,3,01,02,03,06,09,11,17,19,22,,,,2.7,1.3,2.4*32
$GNGSA,A,3,01,02,03,06,09,11,17,19,22,,,,2.7,1.3,2.4*2C
$GNGSA,A,3,69,75,76,84,85,86,,,,,,,2.7,1.3,2.4*2E
$QZGSA,A,3,,,,,,,,,,,,,2.7,1.3,2.4*2F
$IMGSA,A,3,,,,,,,,,,,,,2.7,1.3,2.4*20
$PGLOR,1,FIX,1.0,1.0*20
$GPRMC,003425.00,A,2913.222169,N,11926.851903,E,000.2,342.3,231016,,,A*53
$PGLOR,SPL,20161023083424.4,POS,20161023003424.999,29.220369,119.447532,16,16,0,66,8,1.100000*6B
$GPGGA,003426.00,2913.221859,N,11926.851999,E,1,13,1.2,60.0,M,6.2,M,,*68
$PGLOR,6,STA,003426.00,-0.322,0.000,-387,1,12,1,P,F,L,0,C,3,S,0002,14,5,R,33F4,TPEF,23,116805,LC,,*52
$PGLOR,1,UNC,003426.00,0.029,12.0,8.0,0.59,19.63,11.2,4.3,87.7*22
$PGLOR,2,SAT,2,1,G03,015,10,G17,021,1F,R11,025,3F,R21,024,1F,G22,029,1F,G19,028,1B*48
$PGLOR,2,SAT,2,2,G06,013,10,R22,027,3F,G01,031,1F,R05,025,3F,R12,012,30,R20,022,3F*30
$PGLOR,2,SIO,TxERR,0,RxERR,0,TxCNT,542,RxCNT,3492,MLFRMPKT,0,DTMS,1007,DTIN,45,69,DTOUT,700,939,HATMD,68*28
$PGLOR,2,SIO,TxERR,0,RxERR,0,TxCNT,542,RxCNT,3492,MLFRMPKT,0,DTMS,1007,DTIN,45,69,DTOUT,700,939,HATMD,68*28
$PGLOR,3,PWR,mA,27.0,RFTm,1008,OscTm,1000,MeasTm,1000,UTC,003426.00*39
$GPGSV,4,1,13,03,49,073,16,17,48,331,24,22,34,056,29,19,33,311,28*70
$GPGSV,4,2,13,06,33,253,17,01,24,045,32,30,14,202,11,11,14,064,17*79
$GPGSV,4,3,13,28,82,201,,23,04,121,,02,02,244,,09,01,153,*75
$GPGSV,4,4,13,08,01,102,*41
$GLGSV,3,1,09,75,46,252,26,85,44,003,25,86,24,300,27,69,23,047,26*61
$GLGSV,3,2,09,76,21,320,13,74,20,195,09,84,19,058,24,70,40,111,*64
$GLGSV,3,3,09,71,16,163,*59
$QZGSV,1,1,01,01,62,125,*57
$GPGSA,A,3,01,02,03,06,17,19,22,,,,,,3.1,1.7,2.6*3A
$GNGSA,A,3,01,02,03,06,17,19,22,,,,,,3.1,1.7,2.6*24
$GNGSA,A,3,69,75,76,84,85,86,,,,,,,3.1,1.7,2.6*2F
$QZGSA,A,3,,,,,,,,,,,,,3.1,1.7,2.6*2E
$IMGSA,A,3,,,,,,,,,,,,,3.1,1.7,2.6*21
$PGLOR,1,FIX,1.0,1.0*20
$GPRMC,003426.00,A,2913.221859,N,11926.851999,E,000.8,169.3,231016,,,A*5B
$PGLOR,SPL,20161023083425.4,POS,20161023003425.999,29.220364,119.447533,12,12,0,66,8,1.100000*67
$GPGGA,003427.00,2913.221886,N,11926.852065,E,1,14,1.6,60.0,M,6.2,M,,*61
$PGLOR,6,STA,003427.00,-0.322,0.000,-386,1,16,1,P,F,L,0,C,3,S,0002,14,5,R,33F4,TPEF,23,117805,LC,,*57
$PGLOR,1,UNC,003427.00,0.029,16.0,8.0,0.62,25.07,14.7,6.3,86.5*23
$PGLOR,2,SAT,3,1,Q01,016,30,G03,015,10,G17,021,1F,R11,024,3F,R21,023,1F,G22,029,1F*2D
$PGLOR,2,SAT,3,2,G06,013,1F,G19,027,1F,R22,026,3F,G01,031,1F,R05,025,3F,R12,012,30*5E
$PGLOR,2,SAT,3,3,R20,021,3F,G30,009,10*58
$PGLOR,2,SIO,TxERR,0,RxERR,0,TxCNT,570,RxCNT,3276,MLFRMPKT,0,DTMS,993,DTIN,47,69,DTOUT,830,920,HATMD,61*1F
$PGLOR,2,SIO,TxERR,0,RxERR,0,TxCNT,570,RxCNT,3276,MLFRMPKT,0,DTMS,993,DTIN,47,69,DTOUT,830,920,HATMD,61*1F
$PGLOR,3,PWR,mA,26.7,RFTm,991,OscTm,1000,MeasTm,1000,UTC,003427.00*06
$GPGSV,4,1,13,03,49,073,16,17,48,331,24,22,34,056,29,06,33,253,17*75
$GPGSV,4,2,13,19,33,311,28,01,23,045,32,30,14,202,10,11,14,064,13*7E
$GPGSV,4,3,13,28,82,201,,23,04,121,,02,02,244,,08,01,102,*70
$GPGSV,4,4,13,09,01,153,*44
$GLGSV,3,1,09,75,46,252,26,85,44,003,25,86,24,300,27,69,23,047,26*61
$GLGSV,3,2,09,76,21,320,13,84,19,058,24,70,40,111,,74,20,195,*6D
$GLGSV,3,3,09,71,16,163,*59
$QZGSV,1,1,01,01,62,125,16*50
$GPGSA,A,3,01,02,03,06,17,19,22,,,,,,2.8,1.3,2.5*35
$GNGSA,A,3,01,02,03,06,17,19,22,,,,,,2.8,1.3,2.5*2B
$GNGSA,A,3,69,75,76,84,85,86,,,,,,,2.8,1.3,2.5*20
$QZGSA,A,3,01,,,,,,,,,,,,2.8,1.3,2.5*20
$IMGSA,A,3,,,,,,,,,,,,,2.8,1.3,2.5*2E
$PGLOR,1,FIX,1.0,1.0*20
$GPRMC,003427.00,A,2913.221886,N,11926.852065,E,000.6,169.3,231016,,,A*5F
$PGLOR,SPL,20161023083426.4,POS,20161023003426.999,29.220365,119.447534,16,16,0,66,8,1.100000*61
$GPGGA,003428.00,2913.221972,N,11926.852098,E,1,13,1.6,60.1,M,6.2,M,,*60
$PGLOR,6,STA,003428.00,-0.322,0.000,-386,1,16,1,P,F,L,0,C,3,S,0002,14,5,R,33F4,TPEF,23,118805,LC,,*57
$PGLOR,1,UNC,003428.00,0.029,16.0,7.9,0.37,26.11,14.6,6.4,86.2*2F
$PGLOR,2,SAT,3,1,G03,015,10,G17,021,1F,R11,024,3F,R21,023,1F,G22,028,1F,G06,012,1F*4D
$PGLOR,2,SAT,3,2,G19,027,1F,R22,026,3F,G01,030,1F,R05,025,3F,R12,012,30,R20,021,3F*4D
$PGLOR,2,SAT,3,3,G30,014,10*6E
$PGLOR,2,SIO,TxERR,0,RxERR,0,TxCNT,512,RxCNT,3355,MLFRMPKT,0,DTMS,999,DTIN,41,66,DTOUT,845,934,HATMD,60*1E
$PGLOR,2,SIO,TxERR,0,RxERR,0,TxCNT,512,RxCNT,3355,MLFRMPKT,0,DTMS,999,DTIN,41,66,DTOUT,845,934,HATMD,60*1E
$PGLOR,3,PWR,mA,27.0,RFTm,1002,OscTm,1000,MeasTm,1000,UTC,003428.00*3D
$GPGSV,4,1,13,03,49,073,16,17,48,331,24,22,34,056,29,06,33,253,16*74
$GPGSV,4,2,13,19,33,311,28,01,23,045,32,30,14,202,14,11,14,064,09*71
$GPGSV,4,3,13,28,82,201,,23,04,121,,02,02,244,,09,01,153,*75
$GPGSV,4,4,13,08,01,102,*41
$GLGSV,3,1,09,75,46,252,26,85,44,003,25,86,24,300,27,69,23,047,26*61
$GLGSV,3,2,09,76,21,320,13,84,19,058,24,70,40,111,,74,20,195,*6D
$GLGSV,3,3,09,71,16,163,*59
$QZGSV,1,1,01,01,62,125,14*52
$GPGSA,A,3,01,02,03,06,17,19,22,30,,,,,2.8,1.3,2.5*36
$GNGSA,A,3,01,02,03,06,17,19,22,30,,,,,2.8,1.3,2.5*28
$GNGSA,A,3,69,75,84,85,86,,,,,,,,2.8,1.3,2.5*21
$QZGSA,A,3,,,,,,,,,,,,,2.8,1.3,2.5*21
$IMGSA,A,3,,,,,,,,,,,,,2.8,1.3,2.5*2E
$PGLOR,1,FIX,1.0,1.0*20
$GPRMC,003428.00,A,2913.221972,N,11926.852098,E,000.5,169.3,231016,,,A*5B
$PGLOR,SPL,20161023083427.4,POS,20161023003427.999,29.220366,119.447535,16,16,0,66,8,1.100000*63
$GPGGA,003429.00,2913.222039,N,11926.852156,E,1,13,1.6,60.1,M,6.2,M,,*67
$PGLOR,6,STA,003429.00,-0.322,0.000,-386,1,16,1,P,F,L,0,C,3,S,0002,14,5,R,33F4,TPEF,23,119805,LC,,*57
$PGLOR,1,UNC,003429.00,0.028,16.0,8.0,0.36,33.30,14.6,6.6,85.9*25
$PGLOR,2,SAT,3,1,Q01,007,30,G03,014,10,G17,021,1F,R11,024,3F,R21,023,1F,G22,028,1F*2D
$PGLOR,2,SAT,3,2,G06,013,1F,G19,027,1F,R22,026,3F,R05,025,3F,G01,030,1F,R12,011,30*5C
$PGLOR,2,SAT,3,3,R20,021,3B*0C
$PGLOR,2,SIO,TxERR,0,RxERR,0,TxCNT,524,RxCNT,3370,MLFRMPKT,0,DTMS,1003,DTIN,42,67,DTOUT,851,931,HATMD,63*26
$PGLOR,2,SIO,TxERR,0,RxERR,0,TxCNT,524,RxCNT,3370,MLFRMPKT,0,DTMS,1003,DTIN,42,67,DTOUT,851,931,HATMD,63*26
$PGLOR,3,PWR,mA,26.9,RFTm,999,OscTm,1000,MeasTm,1000,UTC,003429.00*0E
$GPGSV,4,1,13,03,49,073,16,17,48,331,23,22,34,056,29,06,33,253,16*73
$GPGSV,4,2,13,19,33,311,28,01,23,045,31,30,14,202,12,28,82,201,*79
$GPGSV,4,3,13,11,14,064,,23,04,121,,02,02,244,,09,01,153,*71
$GPGSV,4,4,13,08,01,102,*41
$GLGSV,3,1,09,75,46,252,26,85,44,003,25,86,24,300,27,69,23,047,26*61
$GLGSV,3,2,09,76,21,320,13,84,19,058,23,70,40,111,,74,20,195,*6A
$GLGSV,3,3,09,71,16,163,*59
$QZGSV,1,1,01,01,62,125,13*55
$GPGSA,A,3,01,02,03,06,09,17,19,22,,,,,3.0,1.4,2.7*30
$GNGSA,A,3,01,02,03,06,09,17,19,22,,,,,3.0,1.4,2.7*2E
$GNGSA,A,3,69,75,84,85,86,,,,,,,,3.0,1.4,2.7*2D
$QZGSA,A,3,,,,,,,,,,,,,3.0,1.4,2.7*2D
$IMGSA,A,3,,,,,,,,,,,,,3.0,1.4,2.7*22
$PGLOR,1,FIX,1.0,1.0*20
$GPRMC,003429.00,A,2913.222039,N,11926.852156,E,000.3,169.3,231016,,,A*5A
$PGLOR,SPL,20161023083428.4,POS,20161023003428.999,29.220367,119.447536,16,16,0,66,8,1.100000*61
$GPGGA,003430.00,2913.222093,N,11926.852281,E,1,14,1.6,60.2,M,6.2,M,,*62
$PGLOR,6,STA,003430.00,-0.322,0.000,-386,1,16,1,P,F,L,0,C,3,S,0002,14,5,R,33F4,TPEF,23,120805,LC,,*55
$PGLOR,1,UNC,003430.00,0.028,16.0,7.9,0.64,37.81,14.4,6.9,85.0*26
$PGLOR,2,SAT,3,1,G03,014,10,G17,022,1F,R11,024,3F,R21,022,1F,R06,019,30,G22,028,1F*24
$PGLOR,2,SAT,3,2,G19,027,1F,G06,013,1B,R22,025,3F,G01,031,1F,R05,024,3F,R12,010,30*5A
$PGLOR,2,SAT,3,3,R10,008,30,R20,020,3F,G11,016,10*10
$PGLOR,2,SIO,TxERR,0,RxERR,0,TxCNT,536,RxCNT,3391,MLFRMPKT,0,DTMS,995,DTIN,43,61,DTOUT,847,939,HATMD,58*1D
$PGLOR,2,SIO,TxERR,0,RxERR,0,TxCNT,536,RxCNT,3391,MLFRMPKT,0,DTMS,995,DTIN,43,61,DTOUT,847,939,HATMD,58*1D
$PGLOR,3,PWR,mA,27.0,RFTm,1001,OscTm,1000,MeasTm,1000,UTC,003430.00*37
$GPGSV,4,1,13,03,49,073,16,17,48,331,23,22,34,056,29,19,33,311,28*77
$GPGSV,4,2,13,06,33,253,16,01,23,045,31,11,14,064,16,30,14,202,10*7C
$GPGSV,4,3,13,28,82,201,,23,04,121,,02,02,244,,09,01,153,*75
$GPGSV,4,4,13,08,01,102,*41
$GLGSV,3,1,09,75,46,252,26,85,44,003,24,70,40,111,19,86,24,300,27*63
$GLGSV,3,2,09,69,23,047,26,76,21,320,12,74,20,195,08,84,19,058,23*68
$GLGSV,3,3,09,71,16,163,*59
$QZGSV,1,1,01,01,62,125,12*54
$GPGSA,A,3,01,02,03,06,11,17,19,22,,,,,3.0,1.6,2.6*3A
$GNGSA,A,3,01,02,03,06,11,17,19,22,,,,,3.0,1.6,2.6*24
$GNGSA,A,3,69,70,75,84,85,86,,,,,,,3.0,1.6,2.6*29
$QZGSA,A,3,,,,,,,,,,,,,3.0,1.6,2.6*2E
$IMGSA,A,3,,,,,,,,,,,,,3.0,1.6,2.6*21
$PGLOR,1,FIX,1.0,1.0*20
$GPRMC,003430.00,A,2913.222093,N,11926.852281,E,000.4,169.3,231016,,,A*5C
$PGLOR,SPL,20161023083429.4,POS,20161023003429.999,29.220368,119.447538,16,16,0,66,8,1.100000*60
$GPGGA,003431.00,2913.222215,N,11926.852394,E,1,15,2.4,60.2,M,6.2,M,,*6A
$PGLOR,6,STA,003431.00,-0.322,0.000,-388,1,24,1,P,F,L,0,C,3,S,0002,14,5,R,33F4,TPEF,23,121805,LC,,*5A
$PGLOR,1,UNC,003431.00,0.028,24.0,8.0,0.35,42.94,21.7,10.3,85.3*19
$PGLOR,2,SAT,3,1,G28,014,10,G03,014,10,G17,022,1F,R11,024,3F,R21,023,1F,G22,029,1F*32
$PGLOR,2,SAT,3,2,G19,028,1F,G06,014,1F,R22,026,3F,R05,025,3F,G01,031,1F,R12,010,30*54
$PGLOR,2,SAT,3,3,R20,020,3F,R07,017,30,G11,016,10*18
$PGLOR,2,SIO,TxERR,0,RxERR,0,TxCNT,518,RxCNT,3372,MLFRMPKT,0,DTMS,1005,DTIN,38,62,DTOUT,732,935,HATMD,63*2B
$PGLOR,2,SIO,TxERR,0,RxERR,0,TxCNT,518,RxCNT,3372,MLFRMPKT,0,DTMS,1005,DTIN,38,62,DTOUT,732,935,HATMD,63*2B
$PGLOR,3,PWR,mA,26.9,RFTm,999,OscTm,1000,MeasTm,1000,UTC,003431.00*07
$GPGSV,4,1,13,28,82,201,14,03,49,073,16,17,48,331,23,22,34,056,29*70
$GPGSV,4,2,13,19,33,311,28,06,33,253,15,01,23,045,31,11,14,064,16*79
$GPGSV,4,3,13,30,14,202,,23,05,121,,02,02,244,,08,01,102,*74
$GPGSV,4,4,13,09,01,153,*44
$GLGSV,3,1,09,75,46,252,25,85,44,003,24,70,40,111,17,86,24,300,27*6E
$GLGSV,3,2,09,69,23,047,25,76,21,320,12,74,20,195,08,84,19,058,23*6B
$GLGSV,3,3,09,71,16,163,17*5F
$QZGSV,1,1,01,01,62,125,09*5E
$GPGSA,A,3,01,02,03,06,11,17,19,22,28,,,,2.8,1.3,2.5*3F
$GNGSA,A,3,01,02,03,06,11,17,19,22,28,,,,2.8,1.3,2.5*21
$GNGSA,A,3,69,71,75,84,85,86,,,,,,,2.8,1.3,2.5*27
$QZGSA,A,3,,,,,,,,,,,,,2.8,1.3,2.5*21
$IMGSA,A,3,,,,,,,,,,,,,2.8,1.3,2.5*2E
$PGLOR,1,FIX,1.0,1.0*20
$GPRMC,003431.00,A,2913.222215,N,11926.852394,E,000.1,169.3,231016,,,A*51
$PGLOR,SPL,20161023083430.4,POS,20161023003430.999,29.220370,119.447540,24,24,0,66,8,1.100000*66
$GPGGA,003432.00,2913.222283,N,11926.852565,E,1,16,1.2,60.2,M,6.2,M,,*68
$PGLOR,6,STA,003432.00,-0.322,0.000,-387,1,12,1,P,F,L,0,C,3,S,0002,14,5,R,33F4,TPEF,23,122805,LC,,*50
$PGLOR,1,UNC,003432.00,0.027,12.0,8.1,0.38,44.33,10.8,5.2,85.5*29
$PGLOR,2,SAT,3,1,G28,011,10,G03,014,10,G17,022,1F,R11,023,3F,R21,022,1F,G22,029,1F*31
$PGLOR,2,SAT,3,2,G06,014,1F,G19,027,1F,R22,026,3B,G01,030,1F,R05,024,3F,R12,010,30*5F
$PGLOR,2,SAT,3,3,R20,020,3F,R07,014,30,G30,016,10,G11,017,10*44
$PGLOR,2,SIO,TxERR,0,RxERR,0,TxCNT,553,RxCNT,3340,MLFRMPKT,0,DTMS,998,DTIN,47,71,DTOUT,845,927,HATMD,61*1D
$PGLOR,2,SIO,TxERR,0,RxERR,0,TxCNT,553,RxCNT,3340,MLFRMPKT,0,DTMS,998,DTIN,47,71,DTOUT,845,927,HATMD,61*1D
$PGLOR,3,PWR,mA,26.9,RFTm,999,OscTm,1000,MeasTm,1000,UTC,003432.00*04
$GPGSV,4,1,13,28,82,201,14,03,49,073,15,17,48,331,23,22,34,056,29*73
$GPGSV,4,2,13,06,33,253,15,19,33,311,28,01,23,045,31,30,14,202,16*78
$GPGSV,4,3,13,11,14,064,17,23,05,121,,02,02,244,,09,01,153,*76
$GPGSV,4,4,13,08,01,102,*41
$GLGSV,3,1,09,75,46,252,25,85,44,003,24,70,40,111,14,86,24,300,27*6D
$GLGSV,3,2,09,69,23,047,25,76,21,320,12,84,19,058,22,71,16,163,17*6D
$GLGSV,3,3,09,74,20,195,*50
$QZGSV,1,1,01,01,62,125,*57
$GPGSA,A,3,01,02,03,06,09,11,17,19,22,30,,,3.6,1.6,3.2*33
$GNGSA,A,3,01,02,03,06,09,11,17,19,22,30,,,3.6,1.6,3.2*2D
$GNGSA,A,3,69,71,75,84,85,86,,,,,,,3.6,1.6,3.2*2B
$QZGSA,A,3,,,,,,,,,,,,,3.6,1.6,3.2*2D
$IMGSA,A,3,,,,,,,,,,,,,3.6,1.6,3.2*22
$PGLOR,1,FIX,1.0,1.0*20
$GPRMC,003432.00,A,2913.222283,N,11926.852565,E,000.3,169.3,231016,,,A*57
$PGLOR,SPL,20161023083431.4,POS,20161023003431.999,29.220371,119.447543,12,12,0,66,8,1.100000*64
$GPGGA,003433.00,2913.222378,N,11926.852744,E,1,14,1.6,60.2,M,6.2,M,,*6B
$PGLOR,6,STA,003433.00,-0.322,0.000,-386,1,16,1,P,F,L,0,C,3,S,0002,14,5,R,33F4,TPEF,23,123805,LC,,*55
$PGLOR,1,UNC,003433.00,0.028,16.0,8.0,0.38,46.85,14.3,7.1,85.5*23
$PGLOR,2,SAT,3,1,G03,013,10,G17,022,1F,R11,023,3F,R21,023,1F,G22,029,1F,G19,027,1F*46
$PGLOR,2,SAT,3,2,G06,014,10,R22,025,3F,G01,031,1F,R05,025,3F,R20,020,30,R07,009,30*4E
$PGLOR,2,SAT,3,3,G30,014,10,G11,014,10,G23,012,10*69
$PGLOR,2,SIO,TxERR,0,RxERR,0,TxCNT,552,RxCNT,3437,MLFRMPKT,0,DTMS,1006,DTIN,42,64,DTOUT,850,945,HATMD,67*23
$PGLOR,2,SIO,TxERR,0,RxERR,0,TxCNT,552,RxCNT,3437,MLFRMPKT,0,DTMS,1006,DTIN,42,64,DTOUT,850,945,HATMD,67*23
$PGLOR,3,PWR,mA,27.0,RFTm,1010,OscTm,1000,MeasTm,1000,UTC,003433.00*34
$GPGSV,4,1,13,28,82,201,12,03,49,073,15,17,48,331,23,22,34,056,29*75
$GPGSV,4,2,13,19,33,311,27,06,33,253,15,01,23,045,31,30,14,202,16*77
$GPGSV,4,3,13,11,14,064,16,23,05,121,12,02,02,244,,09,01,153,*74
$GPGSV,4,4,13,08,01,102,*41
$GLGSV,3,1,09,75,46,252,25,85,44,003,24,86,24,300,26,69,23,047,25*61
$GLGSV,3,2,09,76,21,319,11,84,19,058,22,71,16,163,16,70,40,111,10*6C
$GLGSV,3,3,09,74,20,195,*50
$QZGSV,1,1,01,01,62,125,*57
$GPGSA,A,3,01,02,03,06,11,17,19,22,30,,,,3.2,1.6,2.8*35
$GNGSA,A,3,01,02,03,06,11,17,19,22,30,,,,3.2,1.6,2.8*2B
$GNGSA,A,3,69,75,84,85,86,,,,,,,,3.2,1.6,2.8*22
$QZGSA,A,3,,,,,,,,,,,,,3.2,1.6,2.8*22
$IMGSA,A,3,,,,,,,,,,,,,3.2,1.6,2.8*2D
$PGLOR,1,FIX,1.0,1.0*20
$GPRMC,003433.00,A,2913.222378,N,11926.852744,E,000.3,169.3,231016,,,A*52
$PGLOR,SPL,20161023083432.4,POS,20161023003432.999,29.220373,119.447546,16,16,0,66,8,1.100000*63
$GPGGA,003434.00,2913.222837,N,11926.852814,E,1,13,1.6,60.3,M,6.2,M,,*60
$PGLOR,6,STA,003434.00,-0.322,0.000,-386,1,16,1,P,F,L,0,C,3,S,0002,14,5,R,33F4,TPEF,23,124805,LC,,*55
$PGLOR,1,UNC,003434.00,0.029,16.0,7.9,0.39,20.57,15.0,5.4,86.9*27
$PGLOR,2,SAT,3,1,G03,013,10,G17,021,1F,R11,023,3F,R21,023,1F,G22,029,1F,G19,027,1F*45
$PGLOR,2,SAT,3,2,G06,014,1F,R22,025,3F,G01,030,1F,R05,025,3F,R20,020,3F,R07,008,30*4E
$PGLOR,2,SAT,3,3,G11,014,10,G30,010,10*35
$PGLOR,2,SIO,TxERR,0,RxERR,0,TxCNT,525,RxCNT,3415,MLFRMPKT,0,DTMS,995,DTIN,43,70,DTOUT,514,922,HATMD,62*1C
$PGLOR,2,SIO,TxERR,0,RxERR,0,TxCNT,525,RxCNT,3415,MLFRMPKT,0,DTMS,995,DTIN,43,70,DTOUT,514,922,HATMD,62*1C
$PGLOR,3,PWR,mA,26.7,RFTm,991,OscTm,1000,MeasTm,1000,UTC,003434.00*04
$GPGSV,4,1,13,28,82,201,10,03,49,073,15,17,48,331,23,22,34,056,29*77
$GPGSV,4,2,13,19,33,311,27,06,33,253,15,01,23,045,31,11,14,064,16*76
$GPGSV,4,3,13,30,14,202,16,23,05,121,11,02,02,244,,08,01,102,*73
$GPGSV,4,4,13,09,01,153,*44
$GLGSV,3,1,09,75,46,252,25,85,44,003,24,86,24,300,26,69,23,047,25*61
$GLGSV,3,2,09,76,21,319,09,84,19,058,22,71,16,163,15,70,40,111,*67
$GLGSV,3,3,09,74,20,195,*50
$QZGSV,1,1,01,01,62,125,*57
$GPGSA,A,3,01,02,03,06,11,17,19,22,,,,,2.8,1.3,2.5*35
$GNGSA,A,3,01,02,03,06,11,17,19,22,,,,,2.8,1.3,2.5*2B
$GNGSA,A,3,69,75,84,85,86,,,,,,,,2.8,1.3,2.5*21
$QZGSA,A,3,,,,,,,,,,,,,2.8,1.3,2.5*21
$IMGSA,A,3,,,,,,,,,,,,,2.8,1.3,2.5*2E
$PGLOR,1,FIX,1.0,1.0*20
$GPRMC,003434.00,A,2913.222837,N,11926.852814,E,000.6,359.4,231016,,,A*5C
$PGLOR,SPL,20161023083433.4,POS,20161023003433.999,29.220381,119.447547,16,16,0,66,8,1.100000*6F
$GPGGA,003435.00,2913.222955,N,11926.852826,E,1,17,2.4,60.3,M,6.2,M,,*60
$PGLOR,6,STA,003435.00,-0.322,0.000,-386,1,24,1,P,F,L,0,C,3,S,0002,14,5,R,33F4,TPEF,23,125805,LC,,*54
$PGLOR,1,UNC,003435.00,0.028,24.0,8.1,0.37,30.35,22.4,8.6,86.7*2B
$PGLOR,2,SAT,3,1,G28,012,10,Q01,014,30,G03,013,10,G17,021,1F,R11,023,3F,R21,023,1F*5A
$PGLOR,2,SAT,3,2,G22,029,1F,G19,027,1F,G06,014,1F,R22,025,3F,G01,030,1F,R05,025,3F*31
$PGLOR,2,SAT,3,3,R20,020,3B,G30,010,10,G11,013,1F,G23,014,10*25
$PGLOR,2,SIO,TxERR,0,RxERR,0,TxCNT,534,RxCNT,3417,MLFRMPKT,0,DTMS,1001,DTIN,41,60,DTOUT,848,940,HATMD,63*29
$PGLOR,2,SIO,TxERR,0,RxERR,0,TxCNT,534,RxCNT,3417,MLFRMPKT,0,DTMS,1001,DTIN,41,60,DTOUT,848,940,HATMD,63*29
$PGLOR,3,PWR,mA,27.0,RFTm,1001,OscTm,1000,MeasTm,1000,UTC,003435.00*32
$GPGSV,4,1,13,28,82,201,12,03,49,073,15,17,48,331,23,22,34,056,29*75
$GPGSV,4,2,13,19,33,311,27,06,33,253,15,01,23,045,31,30,14,202,15*74
$GPGSV,4,3,13,11,14,064,16,23,05,121,14,02,02,244,,08,01,102,*77
$GPGSV,4,4,13,09,01,153,*44
$GLGSV,3,1,09,75,46,252,25,85,44,003,24,86,24,300,26,69,23,047,25*61
$GLGSV,3,2,09,84,19,058,22,71,16,163,14,70,40,111,,76,21,319,*6F
$GLGSV,3,3,09,74,20,195,*50
$QZGSV,1,1,01,01,62,125,14*52
$GPGSA,A,3,01,02,03,06,09,11,17,19,22,23,28,,2.7,1.3,2.4*39
$GNGSA,A,3,01,02,03,06,09,11,17,19,22,23,28,,2.7,1.3,2.4*27
$GNGSA,A,3,69,75,84,85,86,,,,,,,,2.7,1.3,2.4*2F
$QZGSA,A,3,01,,,,,,,,,,,,2.7,1.3,2.4*2E
$IMGSA,A,3,,,,,,,,,,,,,2.7,1.3,2.4*20
$PGLOR,1,FIX,1.0,1.0*20
$GPRMC,003435.00,A,2913.222955,N,11926.852826,E,000.1,359.4,231016,,,A*5E
$PGLOR,SPL,20161023083434.4,POS,20161023003434.999,29.220383,119.447547,24,24,0,66,8,1.100000*6D
$GPGGA,003436.00,2913.223153,N,11926.852818,E,1,16,2.4,60.2,M,6.2,M,,*61
$PGLOR,6,STA,003436.00,-0.322,0.000,-386,1,24,3,P,F,L,0,C,3,S,0002,14,5,R,33F4,TPEF,23,126805,LC,,*56
$PGLOR,1,UNC,003436.00,0.028,24.0,8.2,0.39,15.31,22.6,8.1,86.3*27
$PGLOR,2,SAT,3,1,G03,013,10,G17,021,1F,R11,023,3F,R21,023,1F,R06,011,30,G22,029,1F*2F
$PGLOR,2,SAT,3,2,G06,014,1F,G19,026,1F,R22,025,3F,G01,030,1F,R05,025,3F,R12,014,30*5C
$PGLOR,2,SAT,3,3,R10,012,30,R20,020,3F,G11,013,1F,G30,010,1F*46
$PGLOR,2,SIO,TxERR,0,RxERR,0,TxCNT,499,RxCNT,3426,MLFRMPKT,0,DTMS,1000,DTIN,39,63,DTOUT,842,935,HATMD,63*28
$PGLOR,2,SIO,TxERR,0,RxERR,0,TxCNT,499,RxCNT,3426,MLFRMPKT,0,DTMS,1000,DTIN,39,63,DTOUT,842,935,HATMD,63*28
$PGLOR,3,PWR,mA,27.0,RFTm,1000,OscTm,1000,MeasTm,1000,UTC,003436.00*30
$GPGSV,4,1,13,28,82,201,11,03,49,073,15,17,48,331,22,22,34,056,29*77
$GPGSV,4,2,13,06,33,253,15,19,33,311,27,01,23,045,31,11,14,064,16*76
$GPGSV,4,3,13,30,14,202,14,23,05,121,12,02,02,244,,09,01,153,*77
$GPGSV,4,4,13,08,01,102,*41
$GLGSV,3,1,09,75,46,252,25,85,44,003,24,70,40,111,11,86,24,300,26*69
$GLGSV,3,2,09,69,23,047,25,76,21,319,14,74,20,195,12,84,19,058,22*6D
$GLGSV,3,3,09,71,16,163,11*59
$QZGSV,1,1,01,01,62,125,13*55
$GPGSA,A,3,01,02,03,06,09,11,17,19,22,,,,2.4,1.0,2.2*34
$GNGSA,A,3,01,02,03,06,09,11,17,19,22,,,,2.4,1.0,2.2*2A
$GNGSA,A,3,69,74,75,76,84,85,86,,,,,,2.4,1.0,2.2*2B
$QZGSA,A,3,,,,,,,,,,,,,2.4,1.0,2.2*29
$IMGSA,A,3,,,,,,,,,,,,,2.4,1.0,2.2*26
$PGLOR,1,FIX,1.0,1.0*20
$GPRMC,003436.00,A,2913.223153,N,11926.852818,E,000.8,355.3,231016,,,A*5D
$PGLOR,SPL,20161023083435.4,POS,20161023003435.999,29.220386,119.447547,24,24,0,66,8,1.100000*68
$GPGGA,003437.00,2913.223125,N,11926.852822,E,1,14,1.2,60.2,M,6.2,M,,*6F
$PGLOR,6,STA,003437.00,-0.322,0.000,-386,1,12,1,P,F,L,0,C,2,S,0002,14,5,R,33F4,TPEF,23,127805,LC,,*50
$PGLOR,1,UNC,003437.00,0.028,12.0,8.2,0.36,27.25,11.2,4.3,86.0*21
$PGLOR,2,SAT,3,1,G03,014,10,G17,021,1B,R11,024,3F,R21,024,1F,G22,029,1F,G19,026,1F*47
$PGLOR,2,SAT,3,2,G06,013,10,R22,024,3F,R05,025,3F,G01,031,1F,R12,009,30,R20,020,30*4C
$PGLOR,2,SAT,3,3,G11,013,10,G30,010,10*32
$PGLOR,2,SIO,TxERR,0,RxERR,0,TxCNT,512,RxCNT,3467,MLFRMPKT,0,DTMS,1002,DTIN,40,53,DTOUT,507,954,HATMD,65*2D
$PGLOR,2,SIO,TxERR,0,RxERR,0,TxCNT,512,RxCNT,3467,MLFRMPKT,0,DTMS,1002,DTIN,40,53,DTOUT,507,954,HATMD,65*2D
$PGLOR,3,PWR,mA,27.0,RFTm,1008,OscTm,1000,MeasTm,1000,UTC,003437.00*39
$GPGSV,4,1,13,28,82,201,09,03,49,073,15,17,48,331,22,22,34,056,29*7E
$GPGSV,4,2,13,19,33,311,27,06,33,253,15,01,23,045,31,11,14,064,15*75
$GPGSV,4,3,13,30,14,202,14,23,05,121,10,02,02,244,,08,01,102,*70
$GPGSV,4,4,13,09,01,153,*44
$GLGSV,3,1,09,75,46,252,25,85,44,003,24,70,40,111,10,86,24,300,26*68
$GLGSV,3,2,09,69,23,047,25,76,21,319,14,74,20,195,11,84,19,058,21*6D
$GLGSV,3,3,09,71,16,163,08*51
$QZGSV,1,1,01,01,62,125,10*56
$GPGSA,A,3,01,02,03,06,09,11,17,19,22,,,,3.9,1.8,3.4*37
$GNGSA,A,3,01,02,03,06,09,11,17,19,22,,,,3.9,1.8,3.4*29
$GNGSA,A,3,69,75,84,85,86,,,,,,,,3.9,1.8,3.4*2A
$QZGSA,A,3,,,,,,,,,,,,,3.9,1.8,3.4*2A
$IMGSA,A,3,,,,,,,,,,,,,3.9,1.8,3.4*25
$PGLOR,1,FIX,1.0,1.0*20
$GPRMC,003437.00,A,2913.223125,N,11926.852822,E,000.1,355.3,231016,,,A*5D
$PGLOR,SPL,20161023083436.4,POS,20161023003436.999,29.220385,119.447547,12,12,0,66,8,1.100000*6B
$GPGGA,003438.00,2913.223017,N,11926.852853,E,1,14,2.4,60.2,M,6.2,M,,*63
$PGLOR,6,STA,003438.00,-0.322,0.000,-387,1,24,1,P,F,L,0,C,2,S,0002,14,5,R,33F4,TPEF,23,128805,LC,,*54
$PGLOR,1,UNC,003438.00,0.028,24.0,8.3,0.39,34.93,22.1,9.3,85.7*20
$PGLOR,2,SAT,3,1,G03,014,10,G17,021,1F,R11,023,3F,R21,023,1F,G22,030,1F,G19,026,1F*4B
$PGLOR,2,SAT,3,2,G06,013,1F,R22,023,3F,G01,031,1F,R05,024,3F,R12,010,30,R20,020,3F*42
$PGLOR,2,SAT,3,3,G30,011,10,G11,013,1F*45
$PGLOR,2,SIO,TxERR,0,RxERR,0,TxCNT,560,RxCNT,3445,MLFRMPKT,0,DTMS,981,DTIN,37,44,DTOUT,847,947,HATMD,46*17
$PGLOR,2,SIO,TxERR,0,RxERR,0,TxCNT,560,RxCNT,3445,MLFRMPKT,0,DTMS,981,DTIN,37,44,DTOUT,847,947,HATMD,46*17
$PGLOR,3,PWR,mA,26.8,RFTm,992,OscTm,1000,MeasTm,1000,UTC,003438.00*04
$GPGSV,4,1,13,03,49,073,15,17,48,331,22,22,34,056,30,19,33,311,27*72
$GPGSV,4,2,13,06,33,253,14,01,23,045,31,30,14,202,14,11,14,064,15*79
$GPGSV,4,3,13,28,82,201,,23,05,121,,02,02,244,,09,01,153,*74
$GPGSV,4,4,13,08,01,102,*41
$GLGSV,3,1,09,75,46,252,24,85,44,003,24,70,40,111,08,86,24,300,26*60
$GLGSV,3,2,09,69,23,047,25,76,21,319,13,74,20,195,09,84,19,058,21*63
$GLGSV,3,3,09,71,16,163,*59
$QZGSV,1,1,01,01,62,125,*57
$GPGSA,A,3,01,02,03,06,09,11,17,19,22,,,,2.7,1.3,2.3*35
$GNGSA,A,3,01,02,03,06,09,11,17,19,22,,,,2.7,1.3,2.3*2B
$GNGSA,A,3,69,75,84,85,86,,,,,,,,2.7,1.3,2.3*28
$QZGSA,A,3,,,,,,,,,,,,,2.7,1.3,2.3*28
$IMGSA,A,3,,,,,,,,,,,,,2.7,1.3,2.3*27
$PGLOR,1,FIX,1.0,1.0*20
$GPRMC,003438.00,A,2913.223017,N,11926.852853,E,000.1,355.3,231016,,,A*54
$PGLOR,SPL,20161023083437.4,POS,20161023003437.999,29.220384,119.447548,24,24,0,66,8,1.100000*65
$GPGGA,003439.00,2913.222988,N,11926.852709,E,1,13,1.6,59.9,M,6.2,M,,*6B
$PGLOR,6,STA,003439.00,-0.322,0.000,-386,1,16,1,P,S,L,0,C,3,S,0002,14,5,R,33F4,TPEF,23,129805,LC,,*40
$PGLOR,1,UNC,003439.00,0.029,16.0,8.3,0.79,26.65,12.2,10.3,-84.5*39
$PGLOR,2,SAT,3,1,G03,014,10,G17,019,1F,R11,022,3F,R21,021,1F,G22,028,1F,G19,024,1F*48
$PGLOR,2,SAT,3,2,G06,013,10,R22,022,3F,G01,028,1F,R05,022,3F,R12,013,30,R20,019,30*44
$PGLOR,2,SAT,3,3,G30,010,10,G11,012,10*33
$PGLOR,2,SIO,TxERR,0,RxERR,0,TxCNT,513,RxCNT,2602,MLFRMPKT,0,DTMS,952,DTIN,18,36,DTOUT,874,902,HATMD,-2*09
$PGLOR,2,SIO,TxERR,0,RxERR,0,TxCNT,513,RxCNT,2602,MLFRMPKT,0,DTMS,952,DTIN,18,36,DTOUT,874,902,HATMD,-2*09
$PGLOR,3,PWR,mA,14.2,RFTm,466,OscTm,1000,MeasTm,1000,UTC,003439.00*08
$GPGSV,4,1,13,03,49,073,14,17,48,331,22,22,34,056,29,19,33,311,27*7B
$GPGSV,4,2,13,06,33,253,14,01,23,045,31,30,14,202,13,11,14,064,15*7E
$GPGSV,4,3,13,28,82,201,,23,05,121,,02,02,244,,08,01,102,*71
$GPGSV,4,4,13,09,01,153,*44
$GLGSV,3,1,09,75,46,252,24,85,44,003,23,86,24,300,25,69,23,046,25*65
$GLGSV,3,2,09,76,21,319,13,84,19,058,21,70,40,111,,74,20,195,*62
$GLGSV,3,3,09,71,16,163,*59
$QZGSV,1,1,01,01,62,125,*57
$GPGSA,A,3,01,03,06,11,17,19,22,,,,,,3.2,1.6,2.8*34
$GNGSA,A,3,01,03,06,11,17,19,22,,,,,,3.2,1.6,2.8*2A
$GNGSA,A,3,69,75,76,84,85,86,,,,,,,3.2,1.6,2.8*23
$QZGSA,A,3,,,,,,,,,,,,,3.2,1.6,2.8*22
$IMGSA,A,3,,,,,,,,,,,,,3.2,1.6,2.8*2D
$PGLOR,1,FIX,1.0,1.0*20
$GPRMC,003439.00,A,2913.222988,N,11926.852709,E,000.9,261.7,231016,,,A*51
$PGLOR,SPL,20161023083438.4,POS,20161023003438.999,29.220383,119.447545,16,16,0,66,8,1.100000*6F
