$GPGGA,150455.00,2913.211603,N,11926.851746,E,1,13,1.2,36.2,M,6.2,M,,*64
$PGLOR,6,STA,150455.00,-0.194,0.000,-377,1,12,1,P,F,L,0,C,2,S,0002,0,2,R,33F4,TPEF,21,14902,LC,,*55
$PGLOR,1,UNC,150455.00,0.024,12.0,5.8,1.37,50.45,10.5,5.8,-23.1*00
$PGLOR,2,SAT,3,1,G14,014,13,R04,029,3F,G32,014,10,G26,025,1F,G31,020,1F,R15,020,3F*3D
$PGLOR,2,SAT,3,2,R05,021,3B,G16,019,1B,G25,013,1F,G22,027,1F,R03,022,3F,Q01,020,3F*2E
$PGLOR,2,SAT,3,3,G03,026,13*6C
$PGLOR,2,SIO,TxERR,0,RxERR,0,TxCNT,369,RxCNT,3079,MLFRMPKT,0,DTMS,1018,DTIN,33,50,DTOUT,603,965,HATMD,64*24
$PGLOR,2,SIO,TxERR,0,RxERR,0,TxCNT,369,RxCNT,3079,MLFRMPKT,0,DTMS,1018,DTIN,33,50,DTOUT,603,965,HATMD,64*24
$PGLOR,3,PWR,mA,35.2,RFTm,1015,OscTm,1008,MeasTm,1008,UTC,150455.00*37
$PGLOR,2,PFM,HAL,-,0,0,0,0,RF,-,-180,26.1,0,RTC,,P,STO,P,LTO,P,SW,P,,,OSC,,,*40
$GPGSV,3,1,10,14,78,028,17,32,59,120,14,26,57,230,30,31,56,347,23*73
$GPGSV,3,2,10,16,27,221,22,25,26,040,16,22,26,294,31,03,16,311,26*70
$GPGSV,3,3,10,29,30,082,,10,14,180,*77
$GLGSV,3,1,10,68,68,235,29,79,44,299,21,69,36,320,21,67,25,172,22*6C
$GLGSV,3,2,10,78,45,003,,88,17,095,,87,10,048,,77,08,049,*65
$GLGSV,3,3,10,81,05,143,,80,04,255,*60
$QZGSV,1,1,01,01,25,176,20*50
$GPGSA,A,3,03,14,16,22,25,26,31,32,,,,,2.1,1.1,1.8*39
$GNGSA,A,3,03,14,16,22,25,26,31,32,,,,,2.1,1.1,1.8*27
$GNGSA,A,3,67,68,69,79,,,,,,,,,2.1,1.1,1.8*28
$QZGSA,A,3,01,,,,,,,,,,,,2.1,1.1,1.8*25
$IMGSA,A,3,,,,,,,,,,,,,2.1,1.1,1.8*2B
$PGLOR,1,FIX,1.0,1.0*20
$GPRMC,150455.00,A,2913.211603,N,11926.851746,E,000.0,,221016,,,A*7C
$PGLOR,SPL,20161022230454.7,POS,20161022150455.000,29.220193,119.447529,12,12,0,42,6,1.100000*68
$GPGGA,150456.00,2913.210943,N,11926.850376,E,1,13,0.8,37.4,M,6.2,M,,*67
$PGLOR,6,STA,150456.00,-0.194,0.000,-376,1,8,0,P,F,L,0,C,2,S,0002,0,2,R,33F4,TPEF,21,15902,LC,,*6C
$PGLOR,1,UNC,150456.00,0.024,8.0,5.3,3.30,51.73,7.1,3.8,-23.7*00
$PGLOR,2,SAT,3,1,G14,017,1F,R04,028,3F,G32,014,10,G26,029,1F,G31,020,1F,R15,022,3F*44
$PGLOR,2,SAT,3,2,R05,021,3F,G16,018,13,G25,013,1F,G22,031,1F,R03,021,3B,Q01,019,3F*50
$PGLOR,2,SAT,3,3,G03,026,13*6C
$PGLOR,2,SIO,TxERR,0,RxERR,0,TxCNT,407,RxCNT,3041,MLFRMPKT,0,DTMS,1001,DTIN,46,65,DTOUT,810,934,HATMD,65*25
$PGLOR,2,SIO,TxERR,0,RxERR,0,TxCNT,407,RxCNT,3041,MLFRMPKT,0,DTMS,1001,DTIN,46,65,DTOUT,810,934,HATMD,65*25
$PGLOR,3,PWR,mA,35.1,RFTm,999,OscTm,1000,MeasTm,1000,UTC,150456.00*0B
$GPGSV,3,1,10,14,78,028,17,32,59,120,14,26,57,230,30,31,56,347,22*72
$GPGSV,3,2,10,16,27,221,22,25,26,040,15,22,26,294,31,03,17,310,26*73
$GPGSV,3,3,10,29,30,082,,10,14,180,*77
$GLGSV,3,1,10,68,68,235,29,79,44,299,22,69,36,320,21,67,25,172,22*6F
$GLGSV,3,2,10,78,45,003,,88,17,095,,87,10,048,,77,08,049,*65
$GLGSV,3,3,10,81,05,143,,80,04,255,*60
$QZGSV,1,1,01,01,24,176,20*51
$GPGSA,A,3,03,14,16,22,25,26,31,32,,,,,1.9,1.1,1.6*3C
$GNGSA,A,3,03,14,16,22,25,26,31,32,,,,,1.9,1.1,1.6*22
$GNGSA,A,3,67,68,69,79,,,,,,,,,1.9,1.1,1.6*2D
$QZGSA,A,3,01,,,,,,,,,,,,1.9,1.1,1.6*20
$IMGSA,A,3,,,,,,,,,,,,,1.9,1.1,1.6*2E
$PGLOR,1,FIX,1.0,1.0*20
$GPRMC,150456.00,A,2913.210943,N,11926.850376,E,000.0,,221016,,,A*73
$PGLOR,SPL,20161022230455.7,POS,20161022150456.000,29.220182,119.447506,8,8,0,44,5,1.100000*62
$GPGGA,150457.00,2913.211050,N,11926.849276,E,1,13,1.2,39.5,M,6.2,M,,*61
$PGLOR,6,STA,150457.00,-0.194,0.000,-377,1,12,1,P,F,L,0,C,2,S,0002,0,2,R,33F4,TPEF,21,16902,LC,,*55
$PGLOR,1,UNC,150457.00,0.023,12.0,5.1,1.07,180.00,10.6,5.7,-24.3*3B
$PGLOR,2,SAT,3,1,G14,018,1F,R04,028,3F,G32,013,10,G26,031,1F,G31,022,1F,R15,021,3F*44
$PGLOR,2,SAT,3,2,R05,022,3F,G16,017,13,G25,012,13,G22,032,1F,R03,022,3F,Q01,019,3F*2C
$PGLOR,2,SAT,3,3,G03,026,13*6C
$PGLOR,2,SIO,TxERR,0,RxERR,0,TxCNT,391,RxCNT,3008,MLFRMPKT,0,DTMS,994,DTIN,53,68,DTOUT,853,931,HATMD,59*10
$PGLOR,2,SIO,TxERR,0,RxERR,0,TxCNT,391,RxCNT,3008,MLFRMPKT,0,DTMS,994,DTIN,53,68,DTOUT,853,931,HATMD,59*10
$PGLOR,3,PWR,mA,35.2,RFTm,1001,OscTm,1000,MeasTm,1000,UTC,150457.00*30
$PGLOR,2,PFM,HAL,-,0,0,0,0,RF,-,-180,23.3,0,RTC,,P,STO,P,LTO,P,SW,P,,,OSC,P,*3B
$GPGSV,3,1,10,14,78,028,18,32,59,120,14,26,57,230,31,31,56,347,22*7C
$GPGSV,3,2,10,16,27,221,21,25,26,040,15,22,26,294,32,03,17,310,26*73
$GPGSV,3,3,10,29,30,082,,10,14,180,*77
$GLGSV,3,1,10,68,68,235,28,79,44,299,22,69,36,320,22,67,25,172,22*6D
$GLGSV,3,2,10,78,45,003,,88,17,095,,87,10,048,,77,08,049,*65
$GLGSV,3,3,10,81,05,143,,80,04,255,*60
$QZGSV,1,1,01,01,24,176,20*51
$GPGSA,A,3,03,14,16,22,25,26,31,32,,,,,2.4,1.6,1.8*3B
$GNGSA,A,3,03,14,16,22,25,26,31,32,,,,,2.4,1.6,1.8*25
$GNGSA,A,3,67,68,69,79,,,,,,,,,2.4,1.6,1.8*2A
$QZGSA,A,3,01,,,,,,,,,,,,2.4,1.6,1.8*27
$IMGSA,A,3,,,,,,,,,,,,,2.4,1.6,1.8*29
$PGLOR,1,FIX,1.0,1.0*20
$GPRMC,150457.00,A,2913.211050,N,11926.849276,E,000.0,,221016,,,A*71
$PGLOR,SPL,20161022230456.7,POS,20161022150457.000,29.220184,119.447488,12,12,0,46,5,1.100000*63
$GPGGA,150458.00,2913.211432,N,11926.851486,E,1,12,2.4,36.8,M,6.2,M,,*68
$PGLOR,6,STA,150458.00,-0.194,0.000,-377,1,24,1,P,F,L,0,C,2,S,0002,0,2,R,33F4,TPEF,21,17902,LC,,*5E
$PGLOR,1,UNC,150458.00,0.023,24.0,4.9,0.43,180.00,20.6,12.4,-21.3*0A
$PGLOR,2,SAT,3,1,G14,019,1F,R04,027,3F,G32,013,10,G26,031,1F,G31,023,1F,R15,022,3F*48
$PGLOR,2,SAT,3,2,R05,021,3F,G29,012,11,G16,019,1B,G25,012,10,G22,033,1F,R03,022,3B*34
$PGLOR,2,SAT,3,3,Q01,019,3B,G03,026,13*59
$PGLOR,2,SIO,TxERR,0,RxERR,0,TxCNT,382,RxCNT,3107,MLFRMPKT,0,DTMS,999,DTIN,43,60,DTOUT,535,939,HATMD,58*1C
$PGLOR,2,SIO,TxERR,0,RxERR,0,TxCNT,382,RxCNT,3107,MLFRMPKT,0,DTMS,999,DTIN,43,60,DTOUT,535,939,HATMD,58*1C
$PGLOR,3,PWR,mA,34.8,RFTm,998,OscTm,1000,MeasTm,1000,UTC,150458.00*0C
$GPGSV,3,1,10,14,78,028,19,32,59,120,14,26,57,230,31,31,56,347,23*7C
$GPGSV,3,2,10,29,30,082,12,16,27,221,21,25,26,040,15,22,26,294,33*70
$GPGSV,3,3,10,03,17,310,26,10,14,180,*76
$GLGSV,3,1,10,68,68,235,28,79,44,299,22,69,36,320,22,67,25,172,22*6D
$GLGSV,3,2,10,78,45,003,,88,17,095,,87,10,048,,77,08,049,*65
$GLGSV,3,3,10,81,05,143,,80,04,255,*60
$QZGSV,1,1,01,01,24,176,20*51
$GPGSA,A,3,03,14,16,22,26,31,32,,,,,,9.3,4.7,8.0*35
$GNGSA,A,3,03,14,16,22,26,31,32,,,,,,9.3,4.7,8.0*2B
$GNGSA,A,3,67,68,69,79,,,,,,,,,9.3,4.7,8.0*23
$QZGSA,A,3,01,,,,,,,,,,,,9.3,4.7,8.0*2E
$IMGSA,A,3,,,,,,,,,,,,,9.3,4.7,8.0*20
$PGLOR,1,FIX,1.0,1.0*20
$GPRMC,150458.00,A,2913.211432,N,11926.851486,E,000.0,,221016,,,A*7E
$PGLOR,SPL,20161022230457.7,POS,20161022150458.000,29.220191,119.447525,24,24,0,43,5,1.100000*6A
$GPGGA,150459.00,2913.211311,N,11926.852371,E,1,12,1.2,35.4,M,6.2,M,,*69
$PGLOR,6,STA,150459.00,-0.194,0.000,-378,1,12,0,P,F,L,0,C,2,S,0002,0,2,R,33F4,TPEF,21,18902,LC,,*5B
$PGLOR,1,UNC,150459.00,0.022,12.0,4.7,0.42,180.00,10.2,6.3,-18.1*3D
$PGLOR,2,SAT,3,1,G14,019,1F,R04,027,3F,G32,012,10,G26,032,1F,G31,023,1F,R15,023,3F*4B
$PGLOR,2,SAT,3,2,R05,022,3F,G16,020,1F,G22,033,1F,G25,012,13,R03,022,3B,Q01,017,33*23
$PGLOR,2,SAT,3,3,G03,024,13*6E
$PGLOR,2,SIO,TxERR,0,RxERR,0,TxCNT,436,RxCNT,3149,MLFRMPKT,0,DTMS,1008,DTIN,33,48,DTOUT,873,958,HATMD,66*26
$PGLOR,2,SIO,TxERR,0,RxERR,0,TxCNT,436,RxCNT,3149,MLFRMPKT,0,DTMS,1008,DTIN,33,48,DTOUT,873,958,HATMD,66*26
$PGLOR,3,PWR,mA,34.8,RFTm,1008,OscTm,1000,MeasTm,1000,UTC,150459.00*3C
$GPGSV,3,1,10,14,78,028,19,32,59,120,14,26,57,230,32,31,56,347,23*7F
$GPGSV,3,2,10,29,30,082,10,16,27,221,21,22,26,294,33,25,26,040,15*72
$GPGSV,3,3,10,03,17,310,26,10,14,180,*76
$GLGSV,3,1,10,68,68,235,28,79,44,299,23,69,36,320,22,67,25,172,22*6C
$GLGSV,3,2,10,78,45,003,,88,17,095,,87,10,048,,77,08,049,*65
$GLGSV,3,3,10,81,05,143,,80,04,255,*60
$QZGSV,1,1,01,01,24,176,20*51
$GPGSA,A,3,03,14,16,22,25,26,31,,,,,,4.2,2.5,3.4*34
$GNGSA,A,3,03,14,16,22,25,26,31,,,,,,4.2,2.5,3.4*2A
$GNGSA,A,3,67,68,69,79,,,,,,,,,4.2,2.5,3.4*24
$QZGSA,A,3,01,,,,,,,,,,,,4.2,2.5,3.4*29
$IMGSA,A,3,,,,,,,,,,,,,4.2,2.5,3.4*27
$PGLOR,1,FIX,1.0,1.0*20
$GPRMC,150459.00,A,2913.211311,N,11926.852371,E,000.0,,221016,,,A*75
$PGLOR,SPL,20161022230458.7,POS,20161022150459.000,29.220189,119.447540,12,12,0,42,5,1.100000*6F
$GPGGA,150500.00,2913.211813,N,11926.852546,E,1,12,1.6,37.9,M,6.2,M,,*64
$PGLOR,6,STA,150500.00,-0.194,0.000,-381,1,16,0,P,F,L,0,C,2,S,0002,0,2,R,33F4,TPEF,21,19902,LC,,*55
$PGLOR,1,UNC,150500.00,0.020,16.0,4.4,1.03,114.15,13.8,8.2,-19.2*3C
$PGLOR,2,SAT,3,1,G14,020,1F,R04,027,3F,G32,011,10,G26,032,1F,G31,024,1F,R15,023,3F*45
$PGLOR,2,SAT,3,2,R05,021,3F,G16,020,1F,G22,032,1F,G25,013,13,R03,022,3F,Q01,016,33*25
$PGLOR,2,SAT,3,3,G03,023,13*69
$PGLOR,2,SIO,TxERR,0,RxERR,0,TxCNT,390,RxCNT,3102,MLFRMPKT,0,DTMS,1002,DTIN,67,81,DTOUT,618,916,HATMD,68*2B
$PGLOR,2,SIO,TxERR,0,RxERR,0,TxCNT,390,RxCNT,3102,MLFRMPKT,0,DTMS,1002,DTIN,67,81,DTOUT,618,916,HATMD,68*2B
$PGLOR,3,PWR,mA,34.7,RFTm,997,OscTm,1000,MeasTm,1000,UTC,150500.00*00
$GPGSV,3,1,10,14,78,028,20,32,59,120,14,26,57,230,32,31,56,347,24*72
$GPGSV,3,2,10,29,30,082,08,16,27,221,21,22,26,294,33,25,26,040,14*7A
$GPGSV,3,3,10,03,17,310,26,10,14,180,*76
$GLGSV,3,1,10,68,68,235,28,79,44,299,23,69,36,320,22,67,25,172,22*6C
$GLGSV,3,2,10,78,45,003,,88,17,095,,87,10,048,,77,08,049,*65
$GLGSV,3,3,10,81,05,143,,80,04,255,*60
$QZGSV,1,1,01,01,24,176,19*5B
$GPGSA,A,3,03,14,16,22,25,26,31,,,,,,2.5,1.5,2.0*33
$GNGSA,A,3,03,14,16,22,25,26,31,,,,,,2.5,1.5,2.0*2D
$GNGSA,A,3,67,68,69,79,,,,,,,,,2.5,1.5,2.0*23
$QZGSA,A,3,01,,,,,,,,,,,,2.5,1.5,2.0*2E
$IMGSA,A,3,,,,,,,,,,,,,2.5,1.5,2.0*20
$PGLOR,1,FIX,1.0,1.0*20
$GPRMC,150500.00,A,2913.211813,N,11926.852546,E,000.0,,221016,,,A*73
$PGLOR,SPL,20161022230459.7,POS,20161022150500.000,29.220197,119.447542,16,16,0,44,4,1.100000*69
$GPGGA,150501.00,2913.210752,N,11926.851985,E,1,12,1.6,35.2,M,6.2,M,,*67
$PGLOR,6,STA,150501.00,-0.194,0.000,-383,1,16,1,P,F,L,0,C,3,S,0002,0,2,R,33F4,TPEF,21,20902,LC,,*5C
$PGLOR,1,UNC,150501.00,0.021,16.0,4.3,0.41,180.00,13.3,9.0,-14.7*35
$PGLOR,2,SAT,3,1,G14,020,1B,R04,028,3F,G32,010,10,G26,032,1F,G31,023,1F,R15,024,3F*4F
$PGLOR,2,SAT,3,2,R05,022,3F,G16,021,1F,G25,013,13,G22,032,1F,R03,021,3B,Q01,018,3F*5B
$PGLOR,2,SAT,3,3,G03,022,13*68
$PGLOR,2,SIO,TxERR,0,RxERR,0,TxCNT,423,RxCNT,3229,MLFRMPKT,0,DTMS,1000,DTIN,42,62,DTOUT,551,940,HATMD,68*2B
$PGLOR,2,SIO,TxERR,0,RxERR,0,TxCNT,423,RxCNT,3229,MLFRMPKT,0,DTMS,1000,DTIN,42,62,DTOUT,551,940,HATMD,68*2B
$PGLOR,3,PWR,mA,34.8,RFTm,1003,OscTm,1000,MeasTm,1000,UTC,150501.00*3B
$GPGSV,3,1,10,14,78,028,20,32,59,121,13,26,57,230,32,31,56,347,24*74
$GPGSV,3,2,10,16,27,221,21,25,26,040,14,22,26,294,33,03,17,310,25*70
$GPGSV,3,3,10,29,30,082,,10,14,180,*77
$GLGSV,3,1,10,68,68,235,28,79,44,299,24,69,36,320,22,67,25,172,22*6B
$GLGSV,3,2,10,78,45,003,,88,17,095,,87,10,048,,77,08,049,*65
$GLGSV,3,3,10,81,05,143,,80,04,255,*60
$QZGSV,1,1,01,01,24,176,19*5B
$GPGSA,A,3,03,14,16,22,25,26,31,,,,,,2.7,1.7,2.1*32
$GNGSA,A,3,03,14,16,22,25,26,31,,,,,,2.7,1.7,2.1*2C
$GNGSA,A,3,67,68,69,79,,,,,,,,,2.7,1.7,2.1*22
$QZGSA,A,3,01,,,,,,,,,,,,2.7,1.7,2.1*2F
$IMGSA,A,3,,,,,,,,,,,,,2.7,1.7,2.1*21
$PGLOR,1,FIX,1.0,1.0*20
$GPRMC,150501.00,A,2913.210752,N,11926.851985,E,000.0,,221016,,,A*79
$PGLOR,SPL,20161022230500.7,POS,20161022150501.000,29.220179,119.447533,16,16,0,41,4,1.100000*66
$GPGGA,150502.00,2913.210276,N,11926.851307,E,1,12,0.8,33.7,M,6.2,M,,*6B
$PGLOR,6,STA,150502.00,-0.194,0.000,-380,1,8,1,P,F,L,0,C,2,S,0002,0,2,R,33F4,TPEF,21,21902,LC,,*63
$PGLOR,1,UNC,150502.00,0.022,8.0,4.3,0.53,180.00,6.7,4.4,-10.4*37
$PGLOR,2,SAT,3,1,G14,020,1B,R04,028,3F,G32,011,10,G26,032,1F,G31,023,1F,R15,024,3B*4A
$PGLOR,2,SAT,3,2,R05,021,3F,G16,021,1F,G25,014,13,G22,032,1F,R03,021,3B,Q01,016,3F*51
$PGLOR,2,SAT,3,3,G03,022,13*68
$PGLOR,2,SIO,TxERR,0,RxERR,0,TxCNT,421,RxCNT,3290,MLFRMPKT,0,DTMS,999,DTIN,45,65,DTOUT,324,934,HATMD,67*1B
$PGLOR,2,SIO,TxERR,0,RxERR,0,TxCNT,421,RxCNT,3290,MLFRMPKT,0,DTMS,999,DTIN,45,65,DTOUT,324,934,HATMD,67*1B
$PGLOR,3,PWR,mA,34.7,RFTm,999,OscTm,1000,MeasTm,1000,UTC,150502.00*0C
$GPGSV,3,1,10,14,78,028,20,32,59,121,13,26,57,230,32,31,56,347,23*73
$GPGSV,3,2,10,16,27,221,21,25,26,040,14,22,26,294,33,03,17,310,25*70
$GPGSV,3,3,10,29,30,082,,10,14,180,*77
$GLGSV,3,1,10,68,68,235,28,79,44,299,24,69,36,320,22,67,25,172,22*6B
$GLGSV,3,2,10,78,45,003,,88,17,095,,87,10,048,,77,08,049,*65
$GLGSV,3,3,10,81,05,143,,80,04,255,*60
$QZGSV,1,1,01,01,24,176,19*5B
$GPGSA,A,3,03,14,16,22,25,26,31,,,,,,2.7,1.8,2.1*3D
$GNGSA,A,3,03,14,16,22,25,26,31,,,,,,2.7,1.8,2.1*23
$GNGSA,A,3,67,68,69,79,,,,,,,,,2.7,1.8,2.1*2D
$QZGSA,A,3,01,,,,,,,,,,,,2.7,1.8,2.1*20
$IMGSA,A,3,,,,,,,,,,,,,2.7,1.8,2.1*2E
$PGLOR,1,FIX,1.0,1.0*20
$GPRMC,150502.00,A,2913.210276,N,11926.851307,E,000.0,,221016,,,A*79
$PGLOR,SPL,20161022230501.7,POS,20161022150502.000,29.220171,119.447522,8,8,0,40,4,1.100000*6D
$GPGGA,150503.00,2913.210725,N,11926.851649,E,1,12,0.8,33.3,M,6.2,M,,*62
$PGLOR,6,STA,150503.00,-0.194,0.000,-378,1,8,0,P,F,L,0,C,3,S,0002,0,2,R,33F4,TPEF,21,22902,LC,,*66
$PGLOR,1,UNC,150503.00,0.021,8.0,4.3,3.05,180.00,6.7,4.3,-11.9*3E
$PGLOR,2,SAT,3,1,G14,019,1F,R04,025,3F,G32,010,10,G26,029,1F,G31,021,1B,R15,027,3B*47
$PGLOR,2,SAT,3,2,R05,020,3F,G29,008,10,G16,022,1F,G25,014,1F,G22,031,1F,R03,023,3F*44
$PGLOR,2,SAT,3,3,Q01,016,3F,G03,021,13*55
$PGLOR,2,SIO,TxERR,0,RxERR,0,TxCNT,437,RxCNT,3295,MLFRMPKT,0,DTMS,999,DTIN,40,57,DTOUT,335,942,HATMD,66*1D
$PGLOR,2,SIO,TxERR,0,RxERR,0,TxCNT,437,RxCNT,3295,MLFRMPKT,0,DTMS,999,DTIN,40,57,DTOUT,335,942,HATMD,66*1D
$PGLOR,3,PWR,mA,34.7,RFTm,999,OscTm,1000,MeasTm,1000,UTC,150503.00*0D
$GPGSV,3,1,10,14,78,028,20,32,59,121,13,26,57,230,32,31,56,347,23*73
$GPGSV,3,2,10,29,30,082,08,16,27,221,22,25,26,040,14,22,26,294,33*79
$GPGSV,3,3,10,03,17,310,25,10,14,180,*75
$GLGSV,3,1,10,68,68,235,28,79,44,299,27,69,36,320,22,67,25,172,23*69
$GLGSV,3,2,10,78,45,003,,88,17,095,,87,10,048,,77,08,049,*65
$GLGSV,3,3,10,81,05,143,,80,04,255,*60
$QZGSV,1,1,01,01,24,176,19*5B
$GPGSA,A,3,03,14,16,22,25,26,31,,,,,,1.8,1.0,1.5*3E
$GNGSA,A,3,03,14,16,22,25,26,31,,,,,,1.8,1.0,1.5*20
$GNGSA,A,3,67,68,69,79,,,,,,,,,1.8,1.0,1.5*2E
$QZGSA,A,3,01,,,,,,,,,,,,1.8,1.0,1.5*23
$IMGSA,A,3,,,,,,,,,,,,,1.8,1.0,1.5*2D
$PGLOR,1,FIX,1.0,1.0*20
$GPRMC,150503.00,A,2913.210725,N,11926.851649,E,000.0,,221016,,,A*74
$PGLOR,SPL,20161022230502.7,POS,20161022150503.000,29.220179,119.447527,8,8,0,39,4,1.100000*6C
$GPGGA,150504.00,2913.210159,N,11926.851266,E,1,14,1.6,29.6,M,6.2,M,,*66
$PGLOR,6,STA,150504.00,-0.194,0.000,-379,1,16,1,P,F,L,0,C,3,S,0002,0,2,R,33F4,TPEF,21,23902,LC,,*5F
$PGLOR,1,UNC,150504.00,0.023,16.0,4.5,0.55,180.00,13.6,8.4,-9.1*0B
$PGLOR,2,SAT,3,1,G14,020,1B,R04,024,3F,G32,012,10,G26,026,1F,G31,022,1F,R15,027,3B*42
$PGLOR,2,SAT,3,2,R05,019,3F,G29,019,10,G16,023,1F,G25,014,1F,G22,030,1F,R03,023,3B*4A
$PGLOR,2,SAT,3,3,Q01,015,3F,G03,021,13*56
$PGLOR,2,SIO,TxERR,0,RxERR,0,TxCNT,442,RxCNT,3179,MLFRMPKT,0,DTMS,998,DTIN,40,57,DTOUT,405,941,HATMD,64*1A
$PGLOR,2,SIO,TxERR,0,RxERR,0,TxCNT,442,RxCNT,3179,MLFRMPKT,0,DTMS,998,DTIN,40,57,DTOUT,405,941,HATMD,64*1A
$PGLOR,3,PWR,mA,35.0,RFTm,999,OscTm,1000,MeasTm,1000,UTC,150504.00*0C
$GPGSV,3,1,10,14,78,028,20,32,59,121,13,26,57,230,31,31,56,347,23*70
$GPGSV,3,2,10,29,30,082,19,16,27,221,23,25,26,040,14,22,26,294,32*79
$GPGSV,3,3,10,03,17,310,24,10,14,180,*74
$GLGSV,3,1,10,68,68,235,27,79,44,299,27,69,36,320,21,67,25,172,23*65
$GLGSV,3,2,10,78,45,003,,88,17,095,,87,10,048,,77,08,049,*65
$GLGSV,3,3,10,81,05,143,,80,04,255,*60
$QZGSV,1,1,01,01,24,176,18*5A
$GPGSA,A,3,03,14,16,22,25,26,29,31,32,,,,2.1,1.1,1.8*32
$GNGSA,A,3,03,14,16,22,25,26,29,31,32,,,,2.1,1.1,1.8*2C
$GNGSA,A,3,67,68,69,79,,,,,,,,,2.1,1.1,1.8*28
$QZGSA,A,3,01,,,,,,,,,,,,2.1,1.1,1.8*25
$IMGSA,A,3,,,,,,,,,,,,,2.1,1.1,1.8*2B
$PGLOR,1,FIX,1.0,1.0*20
$GPRMC,150504.00,A,2913.210159,N,11926.851266,E,000.0,,221016,,,A*77
$PGLOR,SPL,20161022230503.7,POS,20161022150504.000,29.220169,119.447521,16,16,0,36,5,1.100000*63
$GPGGA,150505.00,2913.209456,N,11926.850936,E,1,14,1.6,29.3,M,6.2,M,,*6F
$PGLOR,6,STA,150505.00,-0.194,0.000,-382,1,16,1,P,F,L,0,C,2,S,0002,10,2,R,33F4,TPEF,21,24902,LC,,*6D
$PGLOR,1,UNC,150505.00,0.022,16.0,4.4,0.48,180.00,13.8,8.0,-6.7*05
$PGLOR,2,SAT,3,1,G14,022,1B,R04,022,3F,G32,019,10,G26,025,1F,G31,022,1F,R15,023,3F*4E
$PGLOR,2,SAT,3,2,R05,022,3F,G29,019,10,G16,027,1F,G25,014,13,G22,031,1F,R03,023,3B*32
$PGLOR,2,SAT,3,3,Q01,014,30,G03,025,13*25
$PGLOR,2,SIO,TxERR,0,RxERR,0,TxCNT,540,RxCNT,3511,MLFRMPKT,0,DTMS,1006,DTIN,49,66,DTOUT,678,941,HATMD,70*2A
$PGLOR,2,SIO,TxERR,0,RxERR,0,TxCNT,540,RxCNT,3511,MLFRMPKT,0,DTMS,1006,DTIN,49,66,DTOUT,678,941,HATMD,70*2A
$PGLOR,3,PWR,mA,37.7,RFTm,1008,OscTm,1000,MeasTm,1000,UTC,150505.00*38
$GPGSV,3,1,10,14,78,029,22,32,59,121,19,26,57,230,31,31,56,347,23*79
$GPGSV,3,2,10,29,30,082,19,16,27,221,27,25,26,040,14,22,26,294,32*7D
$GPGSV,3,3,10,03,17,310,25,10,14,180,*75
$GLGSV,3,1,10,68,68,234,27,79,44,299,27,69,36,320,22,67,25,172,23*67
$GLGSV,3,2,10,78,45,003,,88,17,095,,87,10,048,,77,08,049,*65
$GLGSV,3,3,10,81,05,143,,80,04,255,*60
$QZGSV,1,1,01,01,24,176,18*5A
$GPGSA,A,3,03,14,16,22,25,26,29,31,32,,,,4.7,3.1,3.5*3F
$GNGSA,A,3,03,14,16,22,25,26,29,31,32,,,,4.7,3.1,3.5*21
$GNGSA,A,3,67,68,69,79,,,,,,,,,4.7,3.1,3.5*25
$QZGSA,A,3,01,,,,,,,,,,,,4.7,3.1,3.5*28
$IMGSA,A,3,,,,,,,,,,,,,4.7,3.1,3.5*26
$PGLOR,1,FIX,1.0,1.0*20
$GPRMC,150505.00,A,2913.209456,N,11926.850936,E,000.0,,221016,,,A*7B
$PGLOR,SPL,20161022230504.7,POS,20161022150505.000,29.220158,119.447516,16,16,0,35,4,1.100000*61
$GPGGA,150506.00,2913.209152,N,11926.850730,E,1,15,1.6,25.6,M,6.2,M,,*6D
$PGLOR,6,STA,150506.00,-0.194,0.000,-383,1,16,1,P,F,L,0,C,2,S,0002,10,2,R,33F4,TPEF,21,25902,LC,,*6E
$PGLOR,1,UNC,150506.00,0.022,16.0,4.7,0.51,180.00,13.9,7.9,-5.9*07
$PGLOR,2,SAT,3,1,G14,022,1F,R04,019,3F,G32,018,1F,G26,025,1F,G31,022,1F,R15,022,3F*34
$PGLOR,2,SAT,3,2,R05,022,3F,G29,019,1B,G16,027,1F,G25,014,13,G22,031,1F,R03,023,3B*40
$PGLOR,2,SAT,3,3,Q01,013,30,G03,026,13*21
$PGLOR,2,SIO,TxERR,0,RxERR,0,TxCNT,448,RxCNT,3297,MLFRMPKT,0,DTMS,986,DTIN,42,54,DTOUT,806,943,HATMD,56*11
$PGLOR,2,SIO,TxERR,0,RxERR,0,TxCNT,448,RxCNT,3297,MLFRMPKT,0,DTMS,986,DTIN,42,54,DTOUT,806,943,HATMD,56*11
$PGLOR,3,PWR,mA,35.1,RFTm,997,OscTm,1000,MeasTm,1000,UTC,150506.00*01
$GPGSV,3,1,10,14,78,029,22,32,59,121,18,26,57,230,30,31,56,347,23*79
$GPGSV,3,2,10,29,30,082,19,16,27,221,27,25,26,040,14,22,26,294,32*7D
$GPGSV,3,3,10,03,17,310,26,10,14,180,*76
$GLGSV,3,1,10,68,68,234,26,79,44,299,26,69,36,320,22,67,25,172,23*67
$GLGSV,3,2,10,78,45,003,,88,17,095,,87,10,048,,77,08,049,*65
$GLGSV,3,3,10,81,05,143,,80,04,255,*60
$QZGSV,1,1,01,01,24,176,17*55
$GPGSA,A,3,03,14,16,22,25,26,29,31,32,,,,3.1,1.6,2.6*39
$GNGSA,A,3,03,14,16,22,25,26,29,31,32,,,,3.1,1.6,2.6*27
$GNGSA,A,3,67,68,69,79,80,,,,,,,,3.1,1.6,2.6*2B
$QZGSA,A,3,01,,,,,,,,,,,,3.1,1.6,2.6*2E
$IMGSA,A,3,,,,,,,,,,,,,3.1,1.6,2.6*20
$PGLOR,1,FIX,1.0,1.0*20
$GPRMC,150506.00,A,2913.209152,N,11926.850730,E,000.0,,221016,,,A*71
$PGLOR,SPL,20161022230505.7,POS,20161022150506.000,29.220153,119.447512,16,16,0,32,5,1.100000*6A
$GPGGA,150507.00,2913.208797,N,11926.850031,E,1,15,1.6,21.4,M,6.2,M,,*62
$PGLOR,6,STA,150507.00,-0.194,0.000,-380,1,16,0,P,F,L,0,C,2,S,0002,10,2,R,33F4,TPEF,21,26902,LC,,*6E
$PGLOR,1,UNC,150507.00,0.022,16.0,4.8,3.04,180.00,14.1,7.6,-5.7*04
$PGLOR,2,SAT,3,1,G14,022,1F,R04,016,3F,G32,017,13,G26,025,1F,G31,023,1F,R15,021,3F*43
$PGLOR,2,SAT,3,2,R05,023,3F,G29,018,13,G16,028,1F,G25,014,13,G22,031,1F,R03,022,3B*3F
$PGLOR,2,SAT,3,3,Q01,012,33,G03,027,13*22
$PGLOR,2,SIO,TxERR,0,RxERR,0,TxCNT,386,RxCNT,3336,MLFRMPKT,0,DTMS,1017,DTIN,23,45,DTOUT,872,956,HATMD,73*29
$PGLOR,2,SIO,TxERR,0,RxERR,0,TxCNT,386,RxCNT,3336,MLFRMPKT,0,DTMS,1017,DTIN,23,45,DTOUT,872,956,HATMD,73*29
$PGLOR,3,PWR,mA,35.2,RFTm,1003,OscTm,1000,MeasTm,1000,UTC,150507.00*36
$PGLOR,2,PFM,HAL,-,0,0,0,0,RF,-,-180,40.3,0,RTC,,P,STO,P,LTO,P,SW,P,,,OSC,PPP*12
$GPGSV,3,1,10,14,78,029,22,32,59,121,18,26,57,230,30,31,56,347,23*79
$GPGSV,3,2,10,29,30,082,19,16,27,221,28,25,26,040,14,22,26,294,32*72
$GPGSV,3,3,10,03,17,310,27,10,14,180,*77
$GLGSV,3,1,10,68,68,234,25,79,44,300,26,69,36,320,23,67,25,172,23*64
$GLGSV,3,2,10,78,45,003,,88,17,095,,87,10,048,,77,08,049,*65
$GLGSV,3,3,10,81,05,143,,80,04,255,*60
$QZGSV,1,1,01,01,24,176,17*55
$GPGSA,A,3,03,14,16,22,25,26,29,31,32,,,,4.3,2.5,3.4*3F
$GNGSA,A,3,03,14,16,22,25,26,29,31,32,,,,4.3,2.5,3.4*21
$GNGSA,A,3,67,68,69,79,80,,,,,,,,4.3,2.5,3.4*2D
$QZGSA,A,3,01,,,,,,,,,,,,4.3,2.5,3.4*28
$IMGSA,A,3,,,,,,,,,,,,,4.3,2.5,3.4*26
$PGLOR,1,FIX,1.0,1.0*20
$GPRMC,150507.00,A,2913.208797,N,11926.850031,E,000.0,,221016,,,A*78
$PGLOR,SPL,20161022230506.7,POS,20161022150507.000,29.220147,119.447501,16,16,0,28,5,1.100000*64
$GPGGA,150508.00,2913.208897,N,11926.850154,E,1,14,1.2,17.2,M,6.2,M,,*66
$PGLOR,6,STA,150508.00,-0.194,0.000,-381,1,12,1,P,F,L,0,C,3,S,0002,10,2,R,33F4,TPEF,21,27902,LC,,*65
$PGLOR,1,UNC,150508.00,0.023,12.0,5.2,0.44,180.00,10.6,5.6,-6.2*05
$PGLOR,2,SAT,3,1,G14,022,1F,R04,015,3F,G32,015,13,G26,025,1F,G31,022,1F,R15,023,3F*41
$PGLOR,2,SAT,3,2,R05,024,3F,G29,018,1F,G16,027,1F,G25,013,13,G22,030,1F,R03,020,3B*46
$PGLOR,2,SAT,3,3,Q01,012,30,G03,026,13*20
$PGLOR,2,SIO,TxERR,0,RxERR,0,TxCNT,401,RxCNT,3311,MLFRMPKT,0,DTMS,1001,DTIN,45,64,DTOUT,618,953,HATMD,74*20
$PGLOR,2,SIO,TxERR,0,RxERR,0,TxCNT,401,RxCNT,3311,MLFRMPKT,0,DTMS,1001,DTIN,45,64,DTOUT,618,953,HATMD,74*20
$PGLOR,3,PWR,mA,35.2,RFTm,998,OscTm,1000,MeasTm,1000,UTC,150508.00*03
$GPGSV,3,1,10,14,78,029,22,32,59,121,18,26,57,230,29,31,56,347,23*71
$GPGSV,3,2,10,29,30,082,19,16,27,221,28,25,26,040,14,22,26,294,32*72
$GPGSV,3,3,10,03,17,310,27,10,14,180,*77
$GLGSV,3,1,10,68,68,234,24,79,44,300,25,69,36,320,24,67,25,172,23*61
$GLGSV,3,2,10,78,45,003,,88,17,095,,87,10,048,,77,08,049,*65
$GLGSV,3,3,10,81,05,143,,80,04,255,*60
$QZGSV,1,1,01,01,24,176,16*54
$GPGSA,A,3,03,14,16,22,25,26,29,31,32,,,,2.0,1.1,1.7*3C
$GNGSA,A,3,03,14,16,22,25,26,29,31,32,,,,2.0,1.1,1.7*22
$GNGSA,A,3,67,68,69,79,80,,,,,,,,2.0,1.1,1.7*2E
$QZGSA,A,3,,,,,,,,,,,,,2.0,1.1,1.7*2A
$IMGSA,A,3,,,,,,,,,,,,,2.0,1.1,1.7*25
$PGLOR,1,FIX,1.0,1.0*20
$GPRMC,150508.00,A,2913.208897,N,11926.850154,E,000.0,,221016,,,A*7A
$PGLOR,SPL,20161022230507.7,POS,20161022150508.000,29.220148,119.447503,12,12,0,23,5,1.100000*6C
