$GPGGA,071038.00,2912.410826,N,11932.059221,E,1,12,0.8,78.4,M,6.5,M,,*66
$PGLOR,6,STA,071038.00,-0.005,0.000,-344,1,8,1,P,F,L,0,C,2,S,0002,44,3,R,33F4,TPEF,22,26712,LC,,*56
$PGLOR,1,UNC,071038.00,0.023,8.0,4.8,0.27,180.00,6.2,5.1,-52.7*34
$PGLOR,2,SAT,3,1,G13,025,1F,Q01,022,1B,R24,028,3F,G15,038,1F,G05,028,1B,G20,024,1F*3D
$PGLOR,2,SAT,3,2,G29,038,1F,R02,033,33,G02,019,1F,R17,037,3F,R01,019,3B,R23,024,1B*40
$PGLOR,2,SAT,3,3,G21,019,33*62
$PGLOR,2,SIO,TxERR,0,RxERR,0,TxCNT,356,RxCNT,2959,MLFRMPKT,0,DTMS,987,DTIN,32,42,DTOUT,561,956,HATMD,-1*07
$PGLOR,2,SIO,TxERR,0,RxERR,0,TxCNT,356,RxCNT,2959,MLFRMPKT,0,DTMS,987,DTIN,32,42,DTOUT,561,956,HATMD,-1*07
$PGLOR,3,PWR,mA,36.8,RFTm,1000,OscTm,1000,MeasTm,1000,UTC,071038.00*37
$GPGSV,3,1,11,13,83,037,30,15,61,240,39,05,48,043,29,20,45,313,32*7C
$GPGSV,3,2,11,29,42,267,39,02,42,132,28,21,15,317,24,30,17,055,*73
$GPGSV,3,3,11,24,10,183,,06,06,134,,18,02,279,*45
$GLGSV,3,1,10,88,63,217,29,66,42,298,34,81,41,317,37,65,40,019,20*6E
$GLGSV,3,2,10,87,22,173,24,75,18,092,,74,09,043,,76,07,146,*61
$GLGSV,3,3,10,67,05,258,,72,04,054,*6F
$QZGSV,1,1,01,01,69,057,26*5C
$GPGSA,A,3,02,05,13,15,20,21,29,,,,,,3.5,1.6,3.1*3A
$GNGSA,A,3,02,05,13,15,20,21,29,,,,,,3.5,1.6,3.1*24
$GNGSA,A,3,65,81,87,88,,,,,,,,,3.5,1.6,3.1*2A
$QZGSA,A,3,01,,,,,,,,,,,,3.5,1.6,3.1*2C
$IMGSA,A,3,,,,,,,,,,,,,3.5,1.6,3.1*22
$PGLOR,1,FIX,1.0,1.0*20
$GPRMC,071038.00,A,2912.410826,N,11932.059221,E,000.0,,231016,,,A*7E
$PGLOR,SPL,20161023151037.3,POS,20161023071038.000,29.206847,119.534320,8,8,0,85,5,1.100000*62
$GPGGA,071039.00,2912.410723,N,11932.059456,E,1,12,0.8,78.8,M,6.5,M,,*67
$PGLOR,6,STA,071039.00,-0.005,0.000,-344,1,8,1,P,F,L,0,C,2,S,0002,44,3,R,33F4,TPEF,22,27712,LC,,*56
$PGLOR,1,UNC,071039.00,0.024,8.0,5.0,0.16,180.00,5.9,5.4,-25.8*3B
$PGLOR,2,SAT,3,1,G13,027,1B,Q01,022,1B,R24,028,3F,G15,038,1F,G05,028,1B,G20,023,1F*3C
$PGLOR,2,SAT,3,2,G29,039,1F,R02,033,33,G02,019,1F,R17,037,3F,R01,019,3B,R23,024,1B*41
$PGLOR,2,SAT,3,3,G21,019,33*62
$PGLOR,2,SIO,TxERR,0,RxERR,0,TxCNT,358,RxCNT,2980,MLFRMPKT,0,DTMS,1016,DTIN,18,41,DTOUT,368,958,HATMD,15*2F
$PGLOR,2,SIO,TxERR,0,RxERR,0,TxCNT,358,RxCNT,2980,MLFRMPKT,0,DTMS,1016,DTIN,18,41,DTOUT,368,958,HATMD,15*2F
$PGLOR,3,PWR,mA,37.3,RFTm,999,OscTm,1000,MeasTm,1000,UTC,071039.00*04
$GPGSV,3,1,11,13,83,037,30,15,61,240,39,05,48,043,28,20,45,313,31*7E
$GPGSV,3,2,11,29,42,267,39,02,41,132,27,21,15,317,23,30,17,055,*78
$GPGSV,3,3,11,24,10,183,,06,06,134,,18,02,279,*45
$GLGSV,3,1,10,88,63,217,29,66,42,298,34,81,41,317,37,65,40,019,20*6E
$GLGSV,3,2,10,87,22,173,24,75,18,092,,74,09,043,,76,07,146,*61
$GLGSV,3,3,10,67,05,258,,72,04,054,*6F
$QZGSV,1,1,01,01,69,057,26*5C
$GPGSA,A,3,02,05,13,15,20,21,29,,,,,,5.7,2.2,5.2*3C
$GNGSA,A,3,02,05,13,15,20,21,29,,,,,,5.7,2.2,5.2*22
$GNGSA,A,3,65,81,87,88,,,,,,,,,5.7,2.2,5.2*2C
$QZGSA,A,3,01,,,,,,,,,,,,5.7,2.2,5.2*2A
$IMGSA,A,3,,,,,,,,,,,,,5.7,2.2,5.2*24
$PGLOR,1,FIX,1.0,1.0*20
$GPRMC,071039.00,A,2912.410723,N,11932.059456,E,000.0,,231016,,,A*73
$PGLOR,SPL,20161023151038.3,POS,20161023071039.000,29.206845,119.534324,8,8,0,85,5,1.100000*6A
$GPGGA,071040.00,2912.409465,N,11932.059140,E,1,11,0.8,79.0,M,6.5,M,,*68
$PGLOR,6,STA,071040.00,-0.005,0.000,-344,1,8,1,P,F,L,0,C,2,S,0002,44,3,R,33F4,TPEF,22,28712,LC,,*57
$PGLOR,1,UNC,071040.00,0.026,8.0,5.1,0.29,180.00,5.8,5.5,-16.2*30
$PGLOR,2,SAT,2,1,G13,027,1F,Q01,021,1B,R24,028,3F,G15,038,1F,G05,028,1B,G20,022,1F*3B
$PGLOR,2,SAT,2,2,G29,039,1F,R02,032,33,G02,019,1F,R01,017,33,R23,023,1B,G21,019,33*50
$PGLOR,2,SIO,TxERR,0,RxERR,0,TxCNT,375,RxCNT,2875,MLFRMPKT,0,DTMS,990,DTIN,91,109,DTOUT,436,884,HATMD,5*1C
$PGLOR,2,SIO,TxERR,0,RxERR,0,TxCNT,375,RxCNT,2875,MLFRMPKT,0,DTMS,990,DTIN,91,109,DTOUT,436,884,HATMD,5*1C
$PGLOR,3,PWR,mA,36.9,RFTm,995,OscTm,1000,MeasTm,1000,UTC,071040.00*0D
$GPGSV,3,1,11,13,83,037,30,15,61,240,39,05,48,043,28,20,45,313,30*7F
$GPGSV,3,2,11,29,42,267,39,02,41,132,26,21,15,317,23,30,17,055,*79
$GPGSV,3,3,11,24,10,183,,06,06,134,,18,02,279,*45
$GLGSV,3,1,10,88,63,217,29,66,42,298,34,81,41,317,33,65,40,019,19*60
$GLGSV,3,2,10,87,22,173,24,75,18,092,,74,09,043,,76,07,146,*61
$GLGSV,3,3,10,67,05,258,,72,04,054,*6F
$QZGSV,1,1,01,01,69,057,25*5F
$GPGSA,A,3,02,05,13,15,20,21,29,,,,,,3.7,1.8,3.3*34
$GNGSA,A,3,02,05,13,15,20,21,29,,,,,,3.7,1.8,3.3*2A
$GNGSA,A,3,65,87,88,,,,,,,,,,3.7,1.8,3.3*2D
$QZGSA,A,3,01,,,,,,,,,,,,3.7,1.8,3.3*22
$IMGSA,A,3,,,,,,,,,,,,,3.7,1.8,3.3*2C
$PGLOR,1,FIX,1.0,1.0*20
$GPRMC,071040.00,A,2912.409465,N,11932.059140,E,000.0,,231016,,,A*76
$PGLOR,SPL,20161023151039.3,POS,20161023071040.000,29.206824,119.534319,8,8,0,85,5,1.100000*6C
$GPGGA,071041.00,2912.408802,N,11932.058957,E,1,11,0.8,78.2,M,6.5,M,,*69
$PGLOR,6,STA,071041.00,-0.005,0.000,-343,1,8,1,P,F,L,0,C,2,S,0002,44,3,R,33F4,TPEF,22,29712,LC,,*50
$PGLOR,1,UNC,071041.00,0.027,8.0,5.2,0.29,180.00,5.7,5.6,-27.9*36
$PGLOR,2,SAT,2,1,G13,028,1F,Q01,020,1B,R24,027,3F,G15,038,1F,G05,027,1B,G20,021,1F*36
$PGLOR,2,SAT,2,2,G29,039,1F,R02,032,33,G02,019,1F,R01,018,3F,R23,023,1B,G21,018,33*2B
$PGLOR,2,SIO,TxERR,0,RxERR,0,TxCNT,375,RxCNT,2774,MLFRMPKT,0,DTMS,1000,DTIN,36,51,DTOUT,452,948,HATMD,5*11
$PGLOR,2,SIO,TxERR,0,RxERR,0,TxCNT,375,RxCNT,2774,MLFRMPKT,0,DTMS,1000,DTIN,36,51,DTOUT,452,948,HATMD,5*11
$PGLOR,3,PWR,mA,34.6,RFTm,1000,OscTm,1000,MeasTm,1000,UTC,071041.00*35
$PGLOR,2,PFM,HAL,-,0,0,0,0,RF,-,-180,53.6,0,RTC,,P,STO,P,LTO,P,SW,P,,,OSC,PPP*15
$GPGSV,3,1,11,13,83,037,29,15,61,240,39,05,48,043,28,20,45,313,29*7F
$GPGSV,3,2,11,29,42,267,39,02,41,132,25,21,15,317,22,30,17,055,*7B
$GPGSV,3,3,11,24,10,183,,06,06,134,,18,02,279,*45
$GLGSV,3,1,10,88,63,217,28,66,42,298,34,81,41,317,27,65,40,019,19*64
$GLGSV,3,2,10,87,22,173,24,75,18,092,,74,09,043,,76,07,146,*61
$GLGSV,3,3,10,67,05,258,,72,04,054,*6F
$QZGSV,1,1,01,01,69,057,25*5F
$GPGSA,A,3,02,05,13,15,20,21,29,,,,,,3.3,1.3,3.1*39
$GNGSA,A,3,02,05,13,15,20,21,29,,,,,,3.3,1.3,3.1*27
$GNGSA,A,3,65,87,88,,,,,,,,,,3.3,1.3,3.1*20
$QZGSA,A,3,01,,,,,,,,,,,,3.3,1.3,3.1*2F
$IMGSA,A,3,,,,,,,,,,,,,3.3,1.3,3.1*21
$PGLOR,1,FIX,1.0,1.0*20
$GPRMC,071041.00,A,2912.408802,N,11932.058957,E,000.0,,231016,,,A*74
$PGLOR,SPL,20161023151040.3,POS,20161023071041.000,29.206813,119.534316,8,8,0,85,5,1.100000*68
$GPGGA,071042.00,2912.408802,N,11932.058957,E,1,11,0.8,80.2,M,6.5,M,,*6D
$PGLOR,6,STA,071042.00,-0.005,0.000,-343,1,8,1,P,F,L,0,C,2,S,0002,44,3,R,33F4,TPEF,22,30712,LC,,*5B
$PGLOR,1,UNC,071042.00,0.026,8.0,5.2,0.29,180.00,6.3,4.9,59.7*17
$PGLOR,2,SAT,2,1,G13,028,1F,Q01,020,1B,R24,027,3F,G15,038,1F,G05,026,1F,G20,020,1F*32
$PGLOR,2,SAT,2,2,G29,039,1F,R02,032,33,G02,017,1F,R01,019,3F,R23,022,1B,G21,019,33*24
$PGLOR,2,SIO,TxERR,0,RxERR,0,TxCNT,342,RxCNT,2768,MLFRMPKT,0,DTMS,1002,DTIN,39,57,DTOUT,529,942,HATMD,7*16
$PGLOR,2,SIO,TxERR,0,RxERR,0,TxCNT,342,RxCNT,2768,MLFRMPKT,0,DTMS,1002,DTIN,39,57,DTOUT,529,942,HATMD,7*16
$PGLOR,3,PWR,mA,34.6,RFTm,1000,OscTm,1000,MeasTm,1000,UTC,071042.00*36
$GPGSV,3,1,11,13,83,037,29,15,61,240,39,05,48,043,28,20,45,313,28*7E
$GPGSV,3,2,11,29,42,267,39,02,41,132,25,21,15,317,22,30,17,055,*7B
$GPGSV,3,3,11,24,10,183,,06,06,134,,18,02,279,*45
$GLGSV,3,1,10,88,63,217,28,66,42,298,34,65,39,019,19,87,22,173,23*6D
$GLGSV,3,2,10,81,41,317,19,75,18,092,,74,09,043,,76,07,146,*6C
$GLGSV,3,3,10,67,05,258,,72,04,054,*6F
$QZGSV,1,1,01,01,69,057,24*5E
$GPGSA,A,3,02,05,13,15,20,21,29,,,,,,3.3,1.2,3.1*38
$GNGSA,A,3,02,05,13,15,20,21,29,,,,,,3.3,1.2,3.1*26
$GNGSA,A,3,65,87,88,,,,,,,,,,3.3,1.2,3.1*21
$QZGSA,A,3,01,,,,,,,,,,,,3.3,1.2,3.1*2E
$IMGSA,A,3,,,,,,,,,,,,,3.3,1.2,3.1*20
$PGLOR,1,FIX,1.0,1.0*20
$GPRMC,071042.00,A,2912.408802,N,11932.058957,E,000.0,,231016,,,A*77
$PGLOR,SPL,20161023151041.3,POS,20161023071042.000,29.206813,119.534316,8,8,0,87,5,1.100000*68
$GPGGA,071043.00,2912.408802,N,11932.058957,E,1,16,1.6,81.7,M,6.5,M,,*60
$PGLOR,6,STA,071043.00,-0.005,0.000,-343,1,16,1,P,F,L,0,C,2,S,0002,44,3,R,33F4,TPEF,22,31712,LC,,*64
$PGLOR,1,UNC,071043.00,0.025,16.0,5.2,0.75,180.00,13.4,8.8,59.1*1B
$PGLOR,2,SAT,3,1,G13,027,1F,Q01,019,1F,R24,027,3F,G15,038,1F,G05,025,1F,G20,024,1F*35
$PGLOR,2,SAT,3,2,G29,038,1F,R02,031,33,G02,018,1F,R17,034,3F,R01,021,3F,R23,021,1B*4A
$PGLOR,2,SAT,3,3,R11,013,30,G21,020,33,R10,012,30,R03,020,30*24
$PGLOR,2,SIO,TxERR,0,RxERR,0,TxCNT,833,RxCNT,3579,MLFRMPKT,0,DTMS,1026,DTIN,46,68,DTOUT,822,953,HATMD,33*2B
$PGLOR,2,SIO,TxERR,0,RxERR,0,TxCNT,833,RxCNT,3579,MLFRMPKT,0,DTMS,1026,DTIN,46,68,DTOUT,822,953,HATMD,33*2B
$PGLOR,3,PWR,mA,29.9,RFTm,1022,OscTm,1000,MeasTm,1000,UTC,071043.00*34
$GPGSV,3,1,11,13,83,037,29,15,61,240,38,05,48,043,28,20,45,313,28*7F
$GPGSV,3,2,11,29,42,267,39,02,41,132,24,21,15,317,22,30,17,055,*7A
$GPGSV,3,3,11,24,10,183,,06,06,134,,18,02,279,*45
$GLGSV,3,1,10,88,63,217,28,66,42,298,33,81,41,317,34,65,39,019,21*64
$GLGSV,3,2,10,87,22,173,23,75,18,092,13,74,09,043,12,67,05,258,20*6B
$GLGSV,3,3,10,76,07,146,,72,04,054,*61
$QZGSV,1,1,01,01,69,057,24*5E
$GPGSA,A,3,02,05,13,15,18,20,21,29,,,,,2.9,1.1,2.7*3E
$GNGSA,A,3,02,05,13,15,18,20,21,29,,,,,2.9,1.1,2.7*20
$GNGSA,A,3,65,67,74,75,81,87,88,,,,,,2.9,1.1,2.7*27
$QZGSA,A,3,01,,,,,,,,,,,,2.9,1.1,2.7*21
$IMGSA,A,3,,,,,,,,,,,,,2.9,1.1,2.7*2F
$PGLOR,1,FIX,1.0,1.0*20
$GPRMC,071043.00,A,2912.408802,N,11932.058957,E,000.0,,231016,,,A*76
$PGLOR,SPL,20161023151042.4,POS,20161023071043.000,29.206813,119.534316,16,16,0,88,5,1.100000*62
$GPGGA,071044.00,2912.408802,N,11932.058957,E,1,14,1.6,81.7,M,6.5,M,,*65
$PGLOR,6,STA,071044.00,-0.005,0.000,-340,1,16,0,P,F,L,0,C,2,S,0002,44,3,R,33F4,TPEF,22,32712,LC,,*62
$PGLOR,1,UNC,071044.00,0.025,16.0,5.1,0.19,7.61,13.2,9.0,58.9*1A
$PGLOR,2,SAT,3,1,G13,027,1F,Q01,020,1B,R24,027,3F,G15,038,1F,G05,025,1F,G20,026,1F*39
$PGLOR,2,SAT,3,2,G29,039,1F,R02,031,33,G02,020,1F,R17,034,3F,R01,020,3F,R23,022,1F*46
$PGLOR,2,SAT,3,3,R11,012,30,G21,021,33,R10,011,30,R03,022,30*25
$PGLOR,2,SIO,TxERR,0,RxERR,0,TxCNT,580,RxCNT,3165,MLFRMPKT,0,DTMS,981,DTIN,124,132,DTOUT,768,864,HATMD,14*18
$PGLOR,2,SIO,TxERR,0,RxERR,0,TxCNT,580,RxCNT,3165,MLFRMPKT,0,DTMS,981,DTIN,124,132,DTOUT,768,864,HATMD,14*18
$PGLOR,3,PWR,mA,29.8,RFTm,997,OscTm,1000,MeasTm,1000,UTC,071044.00*04
$GPGSV,3,1,11,13,83,037,29,15,61,241,38,05,48,043,28,20,45,313,28*7E
$GPGSV,3,2,11,29,42,267,39,02,41,132,24,21,15,317,22,30,17,055,*7A
$GPGSV,3,3,11,24,10,183,,06,06,134,,18,02,279,*45
$GLGSV,3,1,10,88,63,217,28,66,42,298,33,81,41,317,34,65,39,019,21*64
$GLGSV,3,2,10,87,22,173,23,75,18,092,13,74,09,043,12,67,05,258,22*69
$GLGSV,3,3,10,76,07,146,,72,04,054,*61
$QZGSV,1,1,01,01,69,057,23*59
$GPGSA,A,3,02,05,13,15,20,21,29,,,,,,2.2,1.0,2.0*3A
$GNGSA,A,3,02,05,13,15,20,21,29,,,,,,2.2,1.0,2.0*24
$GNGSA,A,3,65,67,75,81,87,88,,,,,,,2.2,1.0,2.0*29
$QZGSA,A,3,01,,,,,,,,,,,,2.2,1.0,2.0*2C
$IMGSA,A,3,,,,,,,,,,,,,2.2,1.0,2.0*22
$PGLOR,1,FIX,1.0,1.0*20
$GPRMC,071044.00,A,2912.408802,N,11932.058957,E,000.0,,231016,,,A*71
$PGLOR,SPL,20161023151043.3,POS,20161023071044.000,29.206813,119.534316,16,16,0,88,5,1.100000*63
$GPGGA,071045.00,2912.408802,N,11932.058957,E,1,13,1.6,79.5,M,6.5,M,,*66
$PGLOR,6,STA,071045.00,-0.005,0.000,-345,1,16,1,P,F,L,0,C,2,S,0002,44,3,R,33F4,TPEF,22,33712,LC,,*66
$PGLOR,1,UNC,071045.00,0.027,16.0,5.1,0.22,180.00,12.4,10.2,70.4*22
$PGLOR,2,SAT,3,1,G13,028,1F,Q01,020,1F,R24,026,3F,G15,038,1F,G05,023,1F,G20,028,1F*3B
$PGLOR,2,SAT,3,2,G29,039,1F,R02,029,33,G02,021,1F,R17,033,3F,R01,020,3F,R23,021,1B*4E
$PGLOR,2,SAT,3,3,G21,021,33,R10,011,33,R03,020,33*69
$PGLOR,2,SIO,TxERR,0,RxERR,0,TxCNT,496,RxCNT,3209,MLFRMPKT,0,DTMS,1012,DTIN,20,38,DTOUT,877,964,HATMD,26*2A
$PGLOR,2,SIO,TxERR,0,RxERR,0,TxCNT,496,RxCNT,3209,MLFRMPKT,0,DTMS,1012,DTIN,20,38,DTOUT,877,964,HATMD,26*2A
$PGLOR,3,PWR,mA,29.9,RFTm,1001,OscTm,1000,MeasTm,1000,UTC,071045.00*33
$PGLOR,2,PFM,HAL,-,0,0,0,0,RF,-,-180,51.3,0,RTC,,P,STO,P,LTO,P,SW,P,,,OSC,PPF*04
$GPGSV,3,1,11,13,83,037,29,15,61,241,38,05,48,043,27,20,45,313,28*71
$GPGSV,3,2,11,29,42,267,39,02,41,132,23,21,15,317,22,30,17,055,*7D
$GPGSV,3,3,11,24,10,183,,06,06,134,,18,02,279,*45
$GLGSV,3,1,10,88,63,217,28,66,42,298,33,81,41,317,34,65,39,019,20*65
$GLGSV,3,2,10,87,22,173,23,75,18,092,12,74,09,043,12,67,05,258,21*6B
$GLGSV,3,3,10,76,07,146,,72,04,054,*61
$QZGSV,1,1,01,01,69,057,23*59
$GPGSA,A,3,02,05,13,15,20,21,29,,,,,,2.9,1.1,2.7*37
$GNGSA,A,3,02,05,13,15,20,21,29,,,,,,2.9,1.1,2.7*29
$GNGSA,A,3,65,67,81,87,88,,,,,,,,2.9,1.1,2.7*26
$QZGSA,A,3,01,,,,,,,,,,,,2.9,1.1,2.7*21
$IMGSA,A,3,,,,,,,,,,,,,2.9,1.1,2.7*2F
$PGLOR,1,FIX,1.0,1.0*20
$GPRMC,071045.00,A,2912.408802,N,11932.058957,E,000.0,,231016,,,A*70
$PGLOR,SPL,20161023151044.3,POS,20161023071045.000,29.206813,119.534316,16,16,0,86,5,1.100000*6B
$GPGGA,071046.00,2912.408802,N,11932.058957,E,1,14,1.6,75.1,M,6.5,M,,*6A
$PGLOR,6,STA,071046.00,-0.005,0.000,-347,1,16,1,P,F,L,0,C,3,S,0002,44,3,R,33F4,TPEF,22,34712,LC,,*61
$PGLOR,1,UNC,071046.00,0.027,16.0,5.1,0.23,180.00,12.2,10.4,59.5*2A
$PGLOR,2,SAT,3,1,G13,028,1F,Q01,021,1B,R24,026,3F,G15,038,1F,G05,021,1F,G20,029,1F*3D
$PGLOR,2,SAT,3,2,G29,039,1F,R02,029,33,G02,020,1F,R17,034,3F,R01,021,3F,R23,021,1F*4D
$PGLOR,2,SAT,3,3,R11,012,30,G21,020,33,R10,010,33,R03,020,33*27
$PGLOR,2,SIO,TxERR,0,RxERR,0,TxCNT,540,RxCNT,3201,MLFRMPKT,0,DTMS,1007,DTIN,32,49,DTOUT,863,950,HATMD,33*2F
$PGLOR,2,SIO,TxERR,0,RxERR,0,TxCNT,540,RxCNT,3201,MLFRMPKT,0,DTMS,1007,DTIN,32,49,DTOUT,863,950,HATMD,33*2F
$PGLOR,3,PWR,mA,29.9,RFTm,1000,OscTm,1000,MeasTm,1000,UTC,071046.00*31
$GPGSV,3,1,11,13,83,037,29,15,61,241,38,05,48,043,26,20,45,313,29*71
$GPGSV,3,2,11,29,42,267,39,02,41,132,23,21,15,317,21,30,17,055,*7E
$GPGSV,3,3,11,24,10,183,,06,06,134,,18,02,279,*45
$GLGSV,3,1,10,88,63,216,28,66,42,298,32,81,41,317,34,65,39,019,21*64
$GLGSV,3,2,10,87,22,173,23,75,18,092,12,74,09,043,12,67,05,258,21*6B
$GLGSV,3,3,10,76,07,146,,72,04,054,*61
$QZGSV,1,1,01,01,69,057,23*59
$GPGSA,A,3,02,05,13,15,20,21,29,,,,,,2.2,1.0,2.0*3A
$GNGSA,A,3,02,05,13,15,20,21,29,,,,,,2.2,1.0,2.0*24
$GNGSA,A,3,65,67,75,81,87,88,,,,,,,2.2,1.0,2.0*29
$QZGSA,A,3,01,,,,,,,,,,,,2.2,1.0,2.0*2C
$IMGSA,A,3,,,,,,,,,,,,,2.2,1.0,2.0*22
$PGLOR,1,FIX,1.0,1.0*20
$GPRMC,071046.00,A,2912.408802,N,11932.058957,E,000.0,,231016,,,A*73
$PGLOR,SPL,20161023151045.4,POS,20161023071046.000,29.206813,119.534316,16,16,0,82,5,1.100000*6A
$GPGGA,071047.00,2912.402906,N,11932.058727,E,1,14,1.6,69.9,M,6.5,M,,*68
$PGLOR,6,STA,071047.00,-0.005,0.000,-344,1,16,1,P,F,L,0,C,3,S,0002,57,3,R,33F4,TPEF,22,35712,LC,,*60
$PGLOR,1,UNC,071047.00,0.027,16.0,5.2,0.20,180.00,12.1,10.4,47.9*2B
$PGLOR,2,SAT,3,1,G13,028,1F,Q01,022,1B,R24,027,3F,G15,038,1F,G05,020,1F,G20,030,1F*36
$PGLOR,2,SAT,3,2,G29,039,1F,R02,029,33,G02,021,1F,R17,034,3F,R01,022,3B,R23,022,1B*4C
$PGLOR,2,SAT,3,3,R11,007,30,G30,020,10,G21,020,33,R10,010,30,R03,021,33*7A
$PGLOR,2,SIO,TxERR,0,RxERR,0,TxCNT,485,RxCNT,3216,MLFRMPKT,0,DTMS,996,DTIN,45,66,DTOUT,842,934,HATMD,29*16
$PGLOR,2,SIO,TxERR,0,RxERR,0,TxCNT,485,RxCNT,3216,MLFRMPKT,0,DTMS,996,DTIN,45,66,DTOUT,842,934,HATMD,29*16
$PGLOR,3,PWR,mA,29.9,RFTm,1001,OscTm,1000,MeasTm,1000,UTC,071047.00*31
$GPGSV,3,1,11,13,83,037,29,15,61,241,38,05,48,043,26,20,45,313,30*79
$GPGSV,3,2,11,29,42,267,39,02,41,132,23,30,17,055,20,21,15,317,21*7C
$GPGSV,3,3,11,24,10,183,,06,06,134,,18,02,279,*45
$GLGSV,3,1,10,88,63,216,28,66,42,298,32,81,41,317,34,65,39,019,22*67
$GLGSV,3,2,10,87,22,173,23,75,18,092,12,74,09,043,12,67,05,258,21*6B
$GLGSV,3,3,10,76,07,146,,72,04,054,*61
$QZGSV,1,1,01,01,69,057,23*59
$GPGSA,A,3,02,05,13,15,20,21,29,30,,,,,3.3,1.2,3.1*3B
$GNGSA,A,3,02,05,13,15,20,21,29,30,,,,,3.3,1.2,3.1*25
$GNGSA,A,3,65,67,81,87,88,,,,,,,,3.3,1.2,3.1*29
$QZGSA,A,3,01,,,,,,,,,,,,3.3,1.2,3.1*2E
$IMGSA,A,3,,,,,,,,,,,,,3.3,1.2,3.1*20
$PGLOR,1,FIX,1.0,1.0*20
$GPRMC,071047.00,A,2912.402906,N,11932.058727,E,000.0,,231016,,,A*74
$PGLOR,SPL,20161023151046.4,POS,20161023071047.000,29.206715,119.534312,16,16,0,76,5,1.100000*6E
$GPGGA,071048.00,2912.402906,N,11932.058727,E,1,15,1.6,64.5,M,6.5,M,,*67
$PGLOR,6,STA,071048.00,-0.005,0.000,-345,1,16,1,P,F,L,0,C,3,S,0002,57,3,R,33F4,TPEF,22,36712,LC,,*6D
$PGLOR,1,UNC,071048.00,0.027,16.0,5.2,0.21,180.00,12.2,10.4,36.5*2C
$PGLOR,2,SAT,3,1,G13,025,1F,Q01,022,1B,R24,028,3F,G15,038,1F,G05,018,1F,G20,034,1F*3B
$PGLOR,2,SAT,3,2,R02,033,33,G29,038,1F,G02,022,1F,R17,034,3F,R01,019,3B,R23,021,1B*4E
$PGLOR,2,SAT,3,3,G21,020,33,R10,013,30,G06,011,10,R03,020,33*35
$PGLOR,2,SIO,TxERR,0,RxERR,0,TxCNT,588,RxCNT,3352,MLFRMPKT,0,DTMS,1004,DTIN,44,60,DTOUT,819,937,HATMD,33*29
$PGLOR,2,SIO,TxERR,0,RxERR,0,TxCNT,588,RxCNT,3352,MLFRMPKT,0,DTMS,1004,DTIN,44,60,DTOUT,819,937,HATMD,33*29
$PGLOR,3,PWR,mA,26.9,RFTm,999,OscTm,1000,MeasTm,1000,UTC,071048.00*08
$GPGSV,3,1,11,13,83,037,28,15,61,241,38,05,48,043,25,20,45,313,34*7F
$GPGSV,3,2,11,29,42,267,39,02,41,132,23,30,17,055,18,21,15,317,21*77
$GPGSV,3,3,11,06,06,134,11,24,10,183,,18,02,279,*45
$GLGSV,3,1,10,88,63,216,28,66,42,298,33,81,41,317,34,65,39,020,22*6C
$GLGSV,3,2,10,87,22,173,22,75,18,092,11,74,09,043,13,67,05,258,21*68
$GLGSV,3,3,10,76,07,146,,72,04,054,*61
$QZGSV,1,1,01,01,69,057,23*59
$GPGSA,A,3,02,05,13,15,20,21,29,,,,,,3.3,1.2,3.1*38
$GNGSA,A,3,02,05,13,15,20,21,29,,,,,,3.3,1.2,3.1*26
$GNGSA,A,3,65,67,72,74,81,87,88,,,,,,3.3,1.2,3.1*2F
$QZGSA,A,3,01,,,,,,,,,,,,3.3,1.2,3.1*2E
$IMGSA,A,3,,,,,,,,,,,,,3.3,1.2,3.1*20
$PGLOR,1,FIX,1.0,1.0*20
$GPRMC,071048.00,A,2912.402906,N,11932.058727,E,000.0,,231016,,,A*7B
$PGLOR,SPL,20161023151047.4,POS,20161023071048.000,29.206715,119.534312,16,16,0,71,5,1.100000*67
$GPGGA,071049.00,2912.402906,N,11932.058727,E,1,14,0.8,61.6,M,6.5,M,,*6E
$PGLOR,6,STA,071049.00,-0.005,0.000,-344,1,8,0,P,F,L,0,C,3,S,0002,57,3,R,33F4,TPEF,22,37712,LC,,*52
$PGLOR,1,UNC,071049.00,0.026,8.0,5.1,0.22,100.04,6.2,5.1,30.2*1A
$PGLOR,2,SAT,3,1,G13,026,1F,Q01,019,1F,R24,028,3F,G15,039,1F,G05,020,1F,G20,036,1F*3C
$PGLOR,2,SAT,3,2,G29,032,1F,R02,035,33,G02,023,1F,R17,036,3F,R01,018,3F,R23,017,13*30
$PGLOR,2,SAT,3,3,R11,014,30,G21,015,33,R03,019,33*63
$PGLOR,2,SIO,TxERR,0,RxERR,0,TxCNT,483,RxCNT,3226,MLFRMPKT,0,DTMS,986,DTIN,43,66,DTOUT,850,935,HATMD,19*15
$PGLOR,2,SIO,TxERR,0,RxERR,0,TxCNT,483,RxCNT,3226,MLFRMPKT,0,DTMS,986,DTIN,43,66,DTOUT,850,935,HATMD,19*15
$PGLOR,3,PWR,mA,26.9,RFTm,999,OscTm,1000,MeasTm,1000,UTC,071049.00*09
$GPGSV,3,1,11,13,82,037,28,15,61,241,39,05,48,043,25,20,45,313,36*7D
$GPGSV,3,2,11,29,42,267,39,02,41,132,23,30,17,055,14,21,15,317,21*7B
$GPGSV,3,3,11,06,06,134,10,24,10,183,,18,02,279,*44
$GLGSV,3,1,10,88,63,216,28,66,42,298,35,81,41,317,36,65,39,020,21*6B
$GLGSV,3,2,10,87,22,173,22,75,18,092,14,74,09,043,12,67,05,258,21*6C
$GLGSV,3,3,10,76,07,146,,72,04,054,*61
$QZGSV,1,1,01,01,69,057,22*58
$GPGSA,A,3,02,05,13,15,20,21,29,,,,,,2.9,1.1,2.7*37
$GNGSA,A,3,02,05,13,15,20,21,29,,,,,,2.9,1.1,2.7*29
$GNGSA,A,3,65,67,75,81,87,88,,,,,,,2.9,1.1,2.7*24
$QZGSA,A,3,01,,,,,,,,,,,,2.9,1.1,2.7*21
$IMGSA,A,3,,,,,,,,,,,,,2.9,1.1,2.7*2F
$PGLOR,1,FIX,1.0,1.0*20
$GPRMC,071049.00,A,2912.402906,N,11932.058727,E,000.0,,231016,,,A*7A
$PGLOR,SPL,20161023151048.3,POS,20161023071049.000,29.206715,119.534312,8,8,0,68,5,1.100000*66
$GPGGA,071050.00,2912.402906,N,11932.058727,E,1,12,0.8,60.0,M,6.5,M,,*67
$PGLOR,6,STA,071050.00,-0.005,0.000,-345,1,8,0,P,F,L,0,C,3,S,0002,57,3,R,33F4,TPEF,22,38712,LC,,*54
$PGLOR,1,UNC,071050.00,0.025,8.0,4.9,0.30,180.00,6.1,5.2,26.8*1A
$PGLOR,2,SAT,3,1,G13,025,1F,Q01,019,1B,R24,027,3F,G15,037,1F,G05,017,1F,G20,035,1F*3D
$PGLOR,2,SAT,3,2,R02,035,33,G29,030,1F,G02,022,1F,R17,035,3F,R01,019,3F,R23,015,13*33
$PGLOR,2,SAT,3,3,R11,011,30,G21,010,30,G24,012,30,R12,010,30,R03,018,33*73
$PGLOR,2,SIO,TxERR,0,RxERR,0,TxCNT,503,RxCNT,3263,MLFRMPKT,0,DTMS,1012,DTIN,24,44,DTOUT,747,954,HATMD,31*2D
$PGLOR,2,SIO,TxERR,0,RxERR,0,TxCNT,503,RxCNT,3263,MLFRMPKT,0,DTMS,1012,DTIN,24,44,DTOUT,747,954,HATMD,31*2D
$PGLOR,3,PWR,mA,26.9,RFTm,1000,OscTm,1000,MeasTm,1000,UTC,071050.00*39
$GPGSV,3,1,11,13,82,037,28,15,61,241,39,05,48,043,24,20,45,313,35*7F
$GPGSV,3,2,11,29,42,267,38,02,41,132,23,21,15,317,20,24,10,183,12*75
$GPGSV,3,3,11,06,06,134,08,30,17,055,10,18,02,279,*44
$GLGSV,3,1,10,88,63,216,28,66,42,298,35,81,41,317,36,65,39,020,21*6B
$GLGSV,3,2,10,87,22,173,21,75,18,092,13,74,09,043,09,76,07,146,10*6E
$GLGSV,3,3,10,67,05,258,21,72,04,054,*6C
$QZGSV,1,1,01,01,69,057,22*58
$GPGSA,A,3,02,05,13,15,20,29,,,,,,,3.2,1.1,3.0*38
$GNGSA,A,3,02,05,13,15,20,29,,,,,,,3.2,1.1,3.0*26
$GNGSA,A,3,65,67,81,87,88,,,,,,,,3.2,1.1,3.0*2A
$QZGSA,A,3,01,,,,,,,,,,,,3.2,1.1,3.0*2D
$IMGSA,A,3,,,,,,,,,,,,,3.2,1.1,3.0*23
$PGLOR,1,FIX,1.0,1.0*20
$GPRMC,071050.00,A,2912.402906,N,11932.058727,E,000.0,,231016,,,A*72
$PGLOR,SPL,20161023151049.4,POS,20161023071050.000,29.206715,119.534312,8,8,0,66,5,1.100000*66
$GPGGA,071051.00,2912.403610,N,11932.059343,E,1,12,0.6,60.0,M,6.5,M,,*66
$PGLOR,6,STA,071051.00,-0.005,0.000,-346,1,6,1,P,F,L,0,C,3,S,0002,57,3,R,33F4,TPEF,22,39712,LC,,*58
$PGLOR,1,UNC,071051.00,0.023,6.0,5.0,0.30,180.00,4.6,3.9,26.7*1C
$PGLOR,2,SAT,3,1,G13,026,1F,Q01,018,1B,R24,027,3F,G15,036,1F,G05,012,1F,G20,038,1F*36
$PGLOR,2,SAT,3,2,G29,029,1F,R02,035,33,G02,022,1F,R17,034,3F,R01,020,3F,R23,012,13*37
$PGLOR,2,SAT,3,3,R11,014,30,G30,011,10,G21,011,30,R12,009,30,R03,019,33*7A
$PGLOR,2,SIO,TxERR,0,RxERR,0,TxCNT,517,RxCNT,3267,MLFRMPKT,0,DTMS,998,DTIN,45,68,DTOUT,844,933,HATMD,29*1B
$PGLOR,2,SIO,TxERR,0,RxERR,0,TxCNT,517,RxCNT,3267,MLFRMPKT,0,DTMS,998,DTIN,45,68,DTOUT,844,933,HATMD,29*1B
$PGLOR,3,PWR,mA,26.9,RFTm,1002,OscTm,1000,MeasTm,1000,UTC,071051.00*3A
$GPGSV,3,1,11,13,82,037,28,15,61,241,39,05,48,043,23,20,45,313,38*75
$GPGSV,3,2,11,29,42,267,37,02,41,132,23,30,17,055,11,21,15,317,19*7B
$GPGSV,3,3,11,24,10,183,11,06,06,134,,18,02,279,*45
$GLGSV,3,1,10,88,63,216,28,66,42,298,35,81,41,317,36,65,39,020,21*6B
$GLGSV,3,2,10,87,22,173,20,75,18,092,14,76,07,146,10,67,05,258,21*64
$GLGSV,3,3,10,74,09,043,,72,04,054,*69
$QZGSV,1,1,01,01,69,057,22*58
$GPGSA,A,3,02,13,15,20,29,,,,,,,,3.2,1.1,3.0*3D
$GNGSA,A,3,02,13,15,20,29,,,,,,,,3.2,1.1,3.0*23
$GNGSA,A,3,65,67,75,81,87,88,,,,,,,3.2,1.1,3.0*28
$QZGSA,A,3,01,,,,,,,,,,,,3.2,1.1,3.0*2D
$IMGSA,A,3,,,,,,,,,,,,,3.2,1.1,3.0*23
$PGLOR,1,FIX,1.0,1.0*20
$GPRMC,071051.00,A,2912.403610,N,11932.059343,E,000.0,,231016,,,A*7D
$PGLOR,SPL,20161023151050.3,POS,20161023071051.000,29.206727,119.534322,6,6,0,66,5,1.100000*6A
$GPGGA,071052.00,2912.403714,N,11932.059447,E,1,12,0.6,60.0,M,6.5,M,,*63
$PGLOR,6,STA,071052.00,-0.005,0.000,-345,1,6,1,P,F,L,0,C,3,S,0002,58,3,R,33F4,TPEF,22,40712,LC,,*59
$PGLOR,1,UNC,071052.00,0.024,6.0,4.9,0.25,180.00,4.3,4.2,13.0*1C
$PGLOR,2,SAT,3,1,G13,026,1F,Q01,018,1B,R24,027,3F,G15,036,1F,G05,016,1F,G20,037,1F*3D
$PGLOR,2,SAT,3,2,G29,029,1F,R02,035,33,G02,024,1F,R17,036,3F,R01,019,3B,R23,012,13*3D
$PGLOR,2,SAT,3,3,R11,015,30,G21,010,33,R03,019,33*67
$PGLOR,2,SIO,TxERR,0,RxERR,0,TxCNT,501,RxCNT,3198,MLFRMPKT,0,DTMS,1003,DTIN,77,96,DTOUT,818,903,HATMD,32*25
$PGLOR,2,SIO,TxERR,0,RxERR,0,TxCNT,501,RxCNT,3198,MLFRMPKT,0,DTMS,1003,DTIN,77,96,DTOUT,818,903,HATMD,32*25
$PGLOR,3,PWR,mA,26.9,RFTm,1000,OscTm,1000,MeasTm,1000,UTC,071052.00*3B
$GPGSV,3,1,11,13,82,037,27,15,61,241,39,05,48,043,22,20,45,313,37*74
$GPGSV,3,2,11,29,42,267,36,02,41,132,24,30,17,055,10,21,15,317,18*7D
$GPGSV,3,3,11,24,10,183,09,06,05,134,,18,02,279,*4F
$GLGSV,3,1,10,88,63,216,28,66,42,298,35,81,41,317,36,65,39,020,21*6B
$GLGSV,3,2,10,87,22,173,19,75,18,092,15,76,07,146,09,67,05,258,20*66
$GLGSV,3,3,10,74,09,043,,72,04,054,*69
$QZGSV,1,1,01,01,69,057,21*5B
$GPGSA,A,3,02,05,13,15,20,29,,,,,,,3.3,1.2,3.1*3B
$GNGSA,A,3,02,05,13,15,20,29,,,,,,,3.3,1.2,3.1*25
$GNGSA,A,3,65,67,75,81,88,,,,,,,,3.3,1.2,3.1*24
$QZGSA,A,3,01,,,,,,,,,,,,3.3,1.2,3.1*2E
$IMGSA,A,3,,,,,,,,,,,,,3.3,1.2,3.1*20
$PGLOR,1,FIX,1.0,1.0*20
$GPRMC,071052.00,A,2912.403714,N,11932.059447,E,000.2,,231016,,,A*7A
$PGLOR,SPL,20161023151051.3,POS,20161023071052.000,29.206729,119.534324,6,6,0,66,5,1.100000*60
$GPGGA,071053.00,2912.403883,N,11932.059457,E,1,12,1.2,59.9,M,6.5,M,,*64
$PGLOR,6,STA,071053.00,-0.005,0.000,-345,1,12,1,P,F,L,0,C,3,S,0002,58,3,R,33F4,TPEF,22,41712,LC,,*6C
$PGLOR,1,UNC,071053.00,0.025,12.0,4.9,0.23,180.00,8.7,8.3,9.6*17
$PGLOR,2,SAT,3,1,G13,028,1F,Q01,017,1F,R24,027,3F,G15,037,1F,G05,016,1F,G20,037,1F*39
$PGLOR,2,SAT,3,2,G29,030,1F,R02,034,33,G02,024,1B,R17,035,3F,R01,020,3F,R23,011,13*3E
$PGLOR,2,SAT,3,3,R11,014,30,G21,010,33,R03,020,33*6C
$PGLOR,2,SIO,TxERR,0,RxERR,0,TxCNT,486,RxCNT,3296,MLFRMPKT,0,DTMS,999,DTIN,38,56,DTOUT,527,943,HATMD,31*1C
$PGLOR,2,SIO,TxERR,0,RxERR,0,TxCNT,486,RxCNT,3296,MLFRMPKT,0,DTMS,999,DTIN,38,56,DTOUT,527,943,HATMD,31*1C
$PGLOR,3,PWR,mA,26.9,RFTm,1001,OscTm,1000,MeasTm,1000,UTC,071053.00*3B
$GPGSV,3,1,11,13,82,037,28,15,61,241,38,05,48,043,21,20,45,313,37*79
$GPGSV,3,2,11,29,42,267,35,02,41,132,24,30,17,055,08,21,15,317,17*78
$GPGSV,3,3,11,24,10,183,,06,05,134,,18,02,279,*46
$GLGSV,3,1,10,88,63,216,28,66,42,298,35,81,41,317,36,65,39,020,21*6B
$GLGSV,3,2,10,87,22,173,19,75,18,092,15,76,07,146,,67,05,258,20*6F
$GLGSV,3,3,10,74,09,043,,72,04,054,*69
$QZGSV,1,1,01,01,69,057,21*5B
$GPGSA,A,3,02,05,13,15,20,29,,,,,,,5.0,2.1,4.6*3E
$GNGSA,A,3,02,05,13,15,20,29,,,,,,,5.0,2.1,4.6*20
$GNGSA,A,3,65,67,75,81,88,,,,,,,,5.0,2.1,4.6*21
$QZGSA,A,3,01,,,,,,,,,,,,5.0,2.1,4.6*2B
$IMGSA,A,3,,,,,,,,,,,,,5.0,2.1,4.6*25
$PGLOR,1,FIX,1.0,1.0*20
$GPRMC,071053.00,A,2912.403883,N,11932.059457,E,000.1,,231016,,,A*78
$PGLOR,SPL,20161023151052.4,POS,20161023071053.000,29.206731,119.534324,12,12,0,66,5,1.100000*6C
$PGLOR,SPL,20161023151052.4,STATUS,2*32
$PGLOR,SPL,20161023151052.4,ERR,5*64
$GPGGA,071054.00,2912.404165,N,11932.059470,E,1,12,1.6,59.9,M,6.5,M,,*64
$PGLOR,6,STA,071054.00,-0.005,0.000,-345,1,16,1,P,F,L,0,C,2,S,0002,59,3,R,33F4,TPEF,22,42712,LC,,*6C
$PGLOR,1,UNC,071054.00,0.025,16.0,4.9,0.24,180.00,11.7,10.9,11.8*2F
$PGLOR,2,SAT,3,1,G13,028,1F,Q01,018,1B,R24,027,3F,G15,037,1F,G05,016,1F,G20,037,1F*32
$PGLOR,2,SAT,3,2,G29,030,1F,R02,034,33,G02,024,1B,R17,035,3F,R01,020,3F,R23,010,13*3F
$PGLOR,2,SAT,3,3,R11,014,33,G21,010,33,R03,021,33*6E
$PGLOR,2,SIO,TxERR,0,RxERR,0,TxCNT,538,RxCNT,3217,MLFRMPKT,0,DTMS,1002,DTIN,42,59,DTOUT,851,936,HATMD,33*25
$PGLOR,2,SIO,TxERR,0,RxERR,0,TxCNT,538,RxCNT,3217,MLFRMPKT,0,DTMS,1002,DTIN,42,59,DTOUT,851,936,HATMD,33*25
$PGLOR,3,PWR,mA,26.9,RFTm,999,OscTm,1000,MeasTm,1000,UTC,071054.00*05
$GPGSV,3,1,11,13,82,037,28,15,61,241,38,05,48,043,21,20,45,313,37*79
$GPGSV,3,2,11,29,42,267,35,02,41,132,24,21,15,317,16,30,17,055,*71
$GPGSV,3,3,11,24,10,183,,06,05,134,,18,02,279,*46
$GLGSV,3,1,10,88,63,216,28,66,42,298,35,81,41,317,36,65,39,020,21*6B
$GLGSV,3,2,10,87,22,173,18,75,18,092,15,67,05,258,21,74,09,043,*67
$GLGSV,3,3,10,76,07,146,,72,04,054,*61
$QZGSV,1,1,01,01,69,057,20*5A
$GPGSA,A,3,02,05,13,15,20,29,,,,,,,5.3,2.1,4.8*33
$GNGSA,A,3,02,05,13,15,20,29,,,,,,,5.3,2.1,4.8*2D
$GNGSA,A,3,65,67,75,81,88,,,,,,,,5.3,2.1,4.8*2C
$QZGSA,A,3,01,,,,,,,,,,,,5.3,2.1,4.8*26
$IMGSA,A,3,,,,,,,,,,,,,5.3,2.1,4.8*28
$PGLOR,1,FIX,1.0,1.0*20
$GPRMC,071054.00,A,2912.404165,N,11932.059470,E,000.2,,231016,,,A*7F
$PGLOR,SPL,20161023151053.4,POS,20161023071054.000,29.206736,119.534325,16,16,0,66,5,1.100000*6C
$GPGGA,071055.00,2912.404547,N,11932.059744,E,1,12,1.6,59.9,M,6.5,M,,*65
$PGLOR,6,STA,071055.00,-0.005,0.000,-345,1,16,1,P,F,L,0,C,3,S,0002,60,3,R,33F4,TPEF,22,43712,LC,,*67
$PGLOR,1,UNC,071055.00,0.026,16.0,5.0,0.44,180.00,12.5,10.0,1.1*13
$PGLOR,2,SAT,3,1,G13,027,1F,Q01,016,1F,R24,027,3F,G15,037,1F,G05,017,1F,G20,037,1F*36
$PGLOR,2,SAT,3,2,G29,029,17,R17,036,3F,R02,035,33,G02,023,1F,R01,019,3B,R23,010,10*4A
$PGLOR,2,SAT,3,3,R11,016,33,G21,009,33,R03,022,33*67
$PGLOR,2,SIO,TxERR,0,RxERR,0,TxCNT,483,RxCNT,3240,MLFRMPKT,0,DTMS,999,DTIN,41,65,DTOUT,839,935,HATMD,32*1C
$PGLOR,2,SIO,TxERR,0,RxERR,0,TxCNT,483,RxCNT,3240,MLFRMPKT,0,DTMS,999,DTIN,41,65,DTOUT,839,935,HATMD,32*1C
$PGLOR,3,PWR,mA,26.9,RFTm,1001,OscTm,1000,MeasTm,1000,UTC,071055.00*3D
$GPGSV,3,1,11,13,82,037,28,15,61,241,38,05,48,043,20,20,45,313,37*78
$GPGSV,3,2,11,29,42,267,34,02,41,132,24,21,15,317,16,30,17,055,*70
$GPGSV,3,3,11,24,10,183,,06,05,134,,18,02,279,*46
$GLGSV,3,1,10,88,63,216,28,81,42,317,36,66,42,298,35,65,39,020,20*69
$GLGSV,3,2,10,87,22,173,17,75,18,092,16,67,05,258,22,74,09,043,*68
$GLGSV,3,3,10,76,07,146,,72,04,054,*61
$QZGSV,1,1,01,01,69,057,20*5A
$GPGSA,A,3,02,05,13,15,20,29,,,,,,,3.1,1.2,2.8*31
$GNGSA,A,3,02,05,13,15,20,29,,,,,,,3.1,1.2,2.8*2F
$GNGSA,A,3,65,67,75,81,88,,,,,,,,3.1,1.2,2.8*2E
$QZGSA,A,3,01,,,,,,,,,,,,3.1,1.2,2.8*24
$IMGSA,A,3,,,,,,,,,,,,,3.1,1.2,2.8*2A
$PGLOR,1,FIX,1.0,1.0*20
$GPRMC,071055.00,A,2912.404547,N,11932.059744,E,001.0,,231016,,,A*7D
$PGLOR,SPL,20161023151054.4,POS,20161023071055.000,29.206742,119.534329,16,16,0,66,5,1.100000*65
$GPGGA,071056.00,2912.404825,N,11932.059485,E,1,12,1.6,59.9,M,6.5,M,,*61
$PGLOR,6,STA,071056.00,-0.005,0.000,-349,1,16,1,P,F,L,0,C,2,S,0002,60,3,R,33F4,TPEF,22,44712,LC,,*6E
$PGLOR,1,UNC,071056.00,0.026,16.0,5.0,0.29,180.00,12.6,9.8,2.9*23
$PGLOR,2,SAT,3,1,G13,027,1F,Q01,015,1F,R24,027,3F,G15,036,1F,G05,018,1F,G20,036,1F*3A
$PGLOR,2,SAT,3,2,G29,029,1F,R17,035,3F,R02,034,33,G02,023,1F,R01,017,3B,R23,009,1F*49
$PGLOR,2,SAT,3,3,R11,014,33,G21,009,33,R03,021,33*66
$PGLOR,2,SIO,TxERR,0,RxERR,0,TxCNT,502,RxCNT,3249,MLFRMPKT,0,DTMS,1004,DTIN,40,61,DTOUT,518,937,HATMD,36*2C
$PGLOR,2,SIO,TxERR,0,RxERR,0,TxCNT,502,RxCNT,3249,MLFRMPKT,0,DTMS,1004,DTIN,40,61,DTOUT,518,937,HATMD,36*2C
$PGLOR,3,PWR,mA,26.9,RFTm,999,OscTm,1000,MeasTm,1000,UTC,071056.00*07
$GPGSV,3,1,11,13,82,037,28,15,61,241,38,05,48,043,20,20,45,313,37*78
$GPGSV,3,2,11,29,42,267,34,02,41,132,24,21,15,317,15,30,17,055,*73
$GPGSV,3,3,11,24,10,183,,06,05,134,,18,02,279,*46
$GLGSV,3,1,10,88,63,216,28,81,42,317,36,66,42,298,35,65,39,020,20*69
$GLGSV,3,2,10,87,22,173,16,75,18,092,16,67,05,258,22,74,09,043,*69
$GLGSV,3,3,10,76,07,146,,72,04,054,*61
$QZGSV,1,1,01,01,69,057,20*5A
$GPGSA,A,3,02,05,13,15,20,29,,,,,,,2.3,1.1,2.0*39
$GNGSA,A,3,02,05,13,15,20,29,,,,,,,2.3,1.1,2.0*27
$GNGSA,A,3,65,67,75,81,88,,,,,,,,2.3,1.1,2.0*26
$QZGSA,A,3,01,,,,,,,,,,,,2.3,1.1,2.0*2C
$IMGSA,A,3,,,,,,,,,,,,,2.3,1.1,2.0*22
$PGLOR,1,FIX,1.0,1.0*20
$GPRMC,071056.00,A,2912.404825,N,11932.059485,E,000.7,,231016,,,A*7F
$PGLOR,SPL,20161023151055.4,POS,20161023071056.000,29.206747,119.534325,16,16,0,66,5,1.100000*6E
$GPGGA,071057.00,2912.405056,N,11932.059358,E,1,12,1.6,59.8,M,6.5,M,,*6B
$PGLOR,6,STA,071057.00,-0.005,0.000,-349,1,16,1,P,F,L,0,C,3,S,0002,61,3,R,33F4,TPEF,22,45712,LC,,*6E
$PGLOR,1,UNC,071057.00,0.027,16.0,5.0,0.30,180.00,12.7,9.7,3.2*2F
$PGLOR,2,SAT,3,1,G13,027,1F,Q01,016,13,R24,026,3F,G15,037,1F,G05,018,1F,G20,036,1F*4C
$PGLOR,2,SAT,3,2,G29,028,1F,R02,034,33,R17,035,3F,G02,022,1F,R01,017,33,R23,009,10*4E
$PGLOR,2,SAT,3,3,R11,009,30,G30,012,10,G21,008,30,R03,021,33*31
$PGLOR,2,SIO,TxERR,0,RxERR,0,TxCNT,519,RxCNT,3267,MLFRMPKT,0,DTMS,979,DTIN,46,55,DTOUT,834,944,HATMD,15*1F
$PGLOR,2,SIO,TxERR,0,RxERR,0,TxCNT,519,RxCNT,3267,MLFRMPKT,0,DTMS,979,DTIN,46,55,DTOUT,834,944,HATMD,15*1F
$PGLOR,3,PWR,mA,26.9,RFTm,1001,OscTm,1000,MeasTm,1000,UTC,071057.00*3F
$GPGSV,3,1,11,13,82,037,28,15,61,241,38,05,48,043,20,20,45,313,37*78
$GPGSV,3,2,11,29,42,267,33,02,41,132,24,30,17,055,12,21,15,317,14*76
$GPGSV,3,3,11,24,10,183,,06,05,134,,18,02,279,*46
$GLGSV,3,1,10,88,63,216,28,66,42,298,35,81,42,317,36,65,39,020,20*69
$GLGSV,3,2,10,87,22,173,16,75,18,092,15,67,05,258,22,74,09,043,*6A
$GLGSV,3,3,10,76,07,146,,72,04,054,*61
$QZGSV,1,1,01,01,69,057,19*50
$GPGSA,A,3,02,05,13,15,20,29,30,,,,,,3.3,1.2,3.1*38
$GNGSA,A,3,02,05,13,15,20,29,30,,,,,,3.3,1.2,3.1*26
$GNGSA,A,3,65,67,81,88,,,,,,,,,3.3,1.2,3.1*26
$QZGSA,A,3,01,,,,,,,,,,,,3.3,1.2,3.1*2E
$IMGSA,A,3,,,,,,,,,,,,,3.3,1.2,3.1*20
$PGLOR,1,FIX,1.0,1.0*20
$GPRMC,071057.00,A,2912.405056,N,11932.059358,E,000.5,,231016,,,A*76
$PGLOR,SPL,20161023151056.3,POS,20161023071057.000,29.206751,119.534323,16,16,0,66,5,1.100000*6A
