$GPGGA,063606.00,2912.561797,N,11932.351161,E,1,15,0.6,311.8,M,6.5,M,,*59
$PGLOR,6,STA,063606.00,-0.013,0.000,-336,1,6,0,P,F,L,0,C,3,S,0002,0,3,R,33F4,TPEF,19,9205,LC,,*54
$PGLOR,1,UNC,063606.00,0.019,6.0,6.2,0.18,180.00,4.7,3.7,-83.7*34
$PGLOR,2,SAT,3,1,G13,029,1B,Q01,020,1B,G05,028,1B,G02,026,1B,R01,028,1F,G15,030,1F*3C
$PGLOR,2,SAT,3,2,G29,036,17,R23,023,1B,R02,036,33,G20,038,1F,R17,027,3F,G30,028,1F*2C
$PGLOR,2,SAT,3,3,G06,025,13,R08,030,3F,R11,031,3F*63
$PGLOR,2,SIO,TxERR,0,RxERR,0,TxCNT,547,RxCNT,3639,MLFRMPKT,0,DTMS,1061,DTIN,39,46,DTOUT,432,1030,HATMD,42*13
$PGLOR,2,SIO,TxERR,0,RxERR,0,TxCNT,547,RxCNT,3639,MLFRMPKT,0,DTMS,1061,DTIN,39,46,DTOUT,432,1030,HATMD,42*13
$PGLOR,3,PWR,mA,38.7,RFTm,1077,OscTm,1080,MeasTm,1080,UTC,063606.00*3E
$GPGSV,3,1,10,13,78,178,29,05,55,020,33,02,55,115,26,15,46,223,31*71
$GPGSV,3,2,10,29,41,290,38,20,37,296,39,30,19,070,32,06,17,124,27*79
$GPGSV,3,3,10,07,06,044,,21,03,313,*78
$GLGSV,2,1,08,88,75,270,16,65,50,358,30,87,41,170,25,66,37,274,38*60
$GLGSV,2,2,08,81,27,328,27,72,14,041,30,75,09,108,31,74,09,060,*67
$QZGSV,1,1,01,01,68,051,24*59
$GPGSA,A,3,02,05,06,13,15,20,21,29,30,,,,3.0,1.2,2.7*39
$GNGSA,A,3,02,05,06,13,15,20,21,29,30,,,,3.0,1.2,2.7*27
$GNGSA,A,3,65,72,75,81,87,,,,,,,,3.0,1.2,2.7*2B
$QZGSA,A,3,01,,,,,,,,,,,,3.0,1.2,2.7*2A
$IMGSA,A,3,,,,,,,,,,,,,3.0,1.2,2.7*24
$PGLOR,1,FIX,1.0,1.0*20
$GPRMC,063606.00,A,2912.561797,N,11932.351161,E,000.0,,231016,,,A*78
$PGLOR,SPL,20161023143604.9,POS,20161023063605.999,29.209363,119.539186,6,6,0,318,6,1.100000*5A
$GPGGA,063607.00,2912.562121,N,11932.350760,E,1,15,0.8,304.6,M,6.5,M,,*52
$PGLOR,6,STA,063607.00,-0.013,0.000,-331,1,8,1,P,F,L,0,C,2,S,0002,0,3,R,33F4,TPEF,19,10205,LC,,*64
$PGLOR,1,UNC,063607.00,0.021,8.0,5.9,0.23,180.00,6.3,4.9,-77.2*31
$PGLOR,2,SAT,3,1,G13,026,1F,Q01,023,1B,G05,028,1B,G02,024,1B,R01,027,1B,G15,031,1F*3C
$PGLOR,2,SAT,3,2,R23,025,1B,G29,035,1F,R02,034,33,G20,039,1F,R17,027,3F,G30,028,13*2E
$PGLOR,2,SAT,3,3,G06,023,13,R08,028,33,R11,030,3F*18
$PGLOR,2,SIO,TxERR,0,RxERR,0,TxCNT,449,RxCNT,3750,MLFRMPKT,0,DTMS,1026,DTIN,22,43,DTOUT,414,970,HATMD,68*2E
$PGLOR,2,SIO,TxERR,0,RxERR,0,TxCNT,449,RxCNT,3750,MLFRMPKT,0,DTMS,1026,DTIN,22,43,DTOUT,414,970,HATMD,68*2E
$PGLOR,3,PWR,mA,39.2,RFTm,1013,OscTm,1011,MeasTm,1011,UTC,063607.00*39
$GPGSV,3,1,10,13,78,178,29,05,55,020,32,02,55,115,26,15,46,223,31*70
$GPGSV,3,2,10,29,41,290,38,20,37,296,39,30,19,070,32,06,17,124,26*78
$GPGSV,3,3,10,07,06,044,,21,03,313,*78
$GLGSV,2,1,08,65,50,358,29,87,41,170,25,66,37,274,37,81,27,328,27*67
$GLGSV,2,2,08,72,14,041,30,75,09,108,31,88,75,270,12,74,09,060,*63
$QZGSV,1,1,01,01,68,051,24*59
$GPGSA,A,3,02,05,06,13,15,20,21,29,30,,,,2.9,1.7,2.3*30
$GNGSA,A,3,02,05,06,13,15,20,21,29,30,,,,2.9,1.7,2.3*2E
$GNGSA,A,3,65,72,75,81,87,,,,,,,,2.9,1.7,2.3*22
$QZGSA,A,3,01,,,,,,,,,,,,2.9,1.7,2.3*23
$IMGSA,A,3,,,,,,,,,,,,,2.9,1.7,2.3*2D
$PGLOR,1,FIX,1.0,1.0*20
$GPRMC,063607.00,A,2912.562121,N,11932.350760,E,000.0,,231016,,,A*77
$PGLOR,SPL,20161023143605.9,POS,20161023063606.999,29.209369,119.539179,8,8,0,311,6,1.100000*5B
$GPGGA,063608.00,2912.561639,N,11932.349244,E,1,16,0.6,294.4,M,6.5,M,,*5C
$PGLOR,6,STA,063608.00,-0.013,0.000,-331,1,6,1,P,F,L,0,C,3,S,0002,0,3,R,33F4,TPEF,19,11205,LC,,*65
$PGLOR,1,UNC,063608.00,0.021,6.0,5.8,0.29,180.00,4.7,3.7,-82.1*3D
$PGLOR,2,SAT,3,1,G13,024,1F,R24,021,10,Q01,023,1B,G05,026,1F,G02,023,1F,R01,025,1B*55
$PGLOR,2,SAT,3,2,G15,030,1F,R23,025,1B,G29,038,1F,R02,033,33,G20,037,1F,R17,028,3F*5E
$PGLOR,2,SAT,3,3,G30,027,13,G06,021,13,R08,027,33,R11,030,3F*4A
$PGLOR,2,SIO,TxERR,0,RxERR,0,TxCNT,482,RxCNT,3646,MLFRMPKT,0,DTMS,1002,DTIN,49,68,DTOUT,510,931,HATMD,70*24
$PGLOR,2,SIO,TxERR,0,RxERR,0,TxCNT,482,RxCNT,3646,MLFRMPKT,0,DTMS,1002,DTIN,49,68,DTOUT,510,931,HATMD,70*24
$PGLOR,3,PWR,mA,39.2,RFTm,1000,OscTm,1000,MeasTm,1000,UTC,063608.00*34
$GPGSV,3,1,10,13,78,178,28,05,55,020,32,02,55,115,26,15,46,223,31*71
$GPGSV,3,2,10,29,41,290,38,20,37,296,39,30,19,070,31,06,17,124,26*7B
$GPGSV,3,3,10,07,06,044,,21,03,313,*78
$GLGSV,2,1,08,88,75,270,21,65,50,358,29,87,41,170,25,66,37,274,37*63
$GLGSV,2,2,08,81,27,328,28,72,14,041,30,75,09,108,31,74,09,060,*68
$QZGSV,1,1,01,01,68,051,24*59
$GPGSA,A,3,02,05,06,13,15,20,21,29,30,,,,1.9,1.2,1.6*30
$GNGSA,A,3,02,05,06,13,15,20,21,29,30,,,,1.9,1.2,1.6*2E
$GNGSA,A,3,65,72,75,81,87,88,,,,,,,1.9,1.2,1.6*22
$QZGSA,A,3,01,,,,,,,,,,,,1.9,1.2,1.6*23
$IMGSA,A,3,,,,,,,,,,,,,1.9,1.2,1.6*2D
$PGLOR,1,FIX,1.0,1.0*20
$GPRMC,063608.00,A,2912.561639,N,11932.349244,E,000.0,,231016,,,A*7E
$PGLOR,SPL,20161023143606.9,POS,20161023063607.999,29.209361,119.539154,6,6,0,301,6,1.100000*5F
$GPGGA,063609.00,2912.561216,N,11932.348551,E,1,16,0.6,291.8,M,6.5,M,,*5F
$PGLOR,6,STA,063609.00,-0.013,0.000,-332,1,6,0,P,F,L,0,C,3,S,0002,0,3,R,33F4,TPEF,19,12205,LC,,*65
$PGLOR,1,UNC,063609.00,0.022,6.0,5.8,0.26,180.00,4.6,3.8,-82.4*3B
$PGLOR,2,SAT,3,1,G13,026,1F,R24,021,10,Q01,022,1B,G05,027,1F,G02,023,1F,R01,023,1B*51
$PGLOR,2,SAT,3,2,G15,030,1F,R23,023,1F,G29,038,1F,R02,032,33,G20,037,1F,R17,028,3F*5D
$PGLOR,2,SAT,3,3,G30,026,13,G06,023,13,R08,027,33,R11,031,3F*48
$PGLOR,2,SIO,TxERR,0,RxERR,0,TxCNT,459,RxCNT,3633,MLFRMPKT,0,DTMS,998,DTIN,37,53,DTOUT,758,945,HATMD,68*1E
$PGLOR,2,SIO,TxERR,0,RxERR,0,TxCNT,459,RxCNT,3633,MLFRMPKT,0,DTMS,998,DTIN,37,53,DTOUT,758,945,HATMD,68*1E
$PGLOR,3,PWR,mA,38.7,RFTm,999,OscTm,1000,MeasTm,1000,UTC,063609.00*09
$PGLOR,2,PFM,HAL,-,0,0,0,0,RF,-,-180,20.8,0,RTC,,P,STO,P,LTO,P,SW,P,CNTIN,NM,NOINOSC,,,*14
$GPGSV,3,1,10,13,78,178,28,05,55,020,31,02,55,115,25,15,46,223,31*71
$GPGSV,3,2,10,29,41,290,38,20,37,296,39,30,19,070,31,06,17,124,25*78
$GPGSV,3,3,10,07,06,044,,21,03,313,*78
$GLGSV,2,1,08,88,75,270,21,65,50,358,28,87,41,170,25,66,37,274,37*62
$GLGSV,2,2,08,81,27,328,28,72,14,041,29,75,09,108,31,74,09,060,*60
$QZGSV,1,1,01,01,68,051,24*59
$GPGSA,A,3,02,05,06,13,15,20,21,29,30,,,,1.9,1.0,1.5*31
$GNGSA,A,3,02,05,06,13,15,20,21,29,30,,,,1.9,1.0,1.5*2F
$GNGSA,A,3,65,72,75,81,87,88,,,,,,,1.9,1.0,1.5*23
$QZGSA,A,3,01,,,,,,,,,,,,1.9,1.0,1.5*22
$IMGSA,A,3,,,,,,,,,,,,,1.9,1.0,1.5*2C
$PGLOR,1,FIX,1.0,1.0*20
$GPRMC,063609.00,A,2912.561216,N,11932.348551,E,000.0,,231016,,,A*74
$PGLOR,SPL,20161023143607.9,POS,20161023063608.999,29.209354,119.539143,6,6,0,298,6,1.100000*50
$GPGGA,063610.00,2912.560808,N,11932.348236,E,1,16,0.6,290.6,M,6.5,M,,*5A
$PGLOR,6,STA,063610.00,-0.013,0.000,-332,1,6,1,P,F,L,0,C,3,S,0002,0,3,R,33F4,TPEF,19,13205,LC,,*6D
$PGLOR,1,UNC,063610.00,0.020,6.0,5.8,0.24,180.00,4.5,4.0,-83.9*33
$PGLOR,2,SAT,3,1,G13,028,1F,R24,018,10,Q01,022,1B,G05,029,1F,G02,026,1F,R01,024,1B*59
$PGLOR,2,SAT,3,2,G15,031,1F,R23,022,1F,G29,036,1F,R02,034,33,G20,036,1F,R17,028,3F*54
$PGLOR,2,SAT,3,3,G30,027,13,G06,024,13,R08,028,3F,R11,032,3F*37
$PGLOR,2,SIO,TxERR,0,RxERR,0,TxCNT,466,RxCNT,3600,MLFRMPKT,0,DTMS,1001,DTIN,41,56,DTOUT,844,944,HATMD,69*2C
$PGLOR,2,SIO,TxERR,0,RxERR,0,TxCNT,466,RxCNT,3600,MLFRMPKT,0,DTMS,1001,DTIN,41,56,DTOUT,844,944,HATMD,69*2C
$PGLOR,3,PWR,mA,38.8,RFTm,1001,OscTm,1000,MeasTm,1000,UTC,063610.00*37
$GPGSV,3,1,10,13,78,178,28,05,55,020,31,02,55,115,26,15,46,223,31*72
$GPGSV,3,2,10,29,41,290,38,20,37,296,38,30,19,070,30,06,17,124,25*78
$GPGSV,3,3,10,07,06,044,,21,03,313,*78
$GLGSV,2,1,08,88,75,270,21,65,50,358,28,87,41,170,25,66,37,274,36*63
$GLGSV,2,2,08,81,27,328,28,72,14,041,29,75,09,108,32,74,09,060,*63
$QZGSV,1,1,01,01,68,051,23*5E
$GPGSA,A,3,02,05,06,13,15,20,21,29,30,,,,1.8,0.9,1.5*38
$GNGSA,A,3,02,05,06,13,15,20,21,29,30,,,,1.8,0.9,1.5*26
$GNGSA,A,3,65,72,75,81,87,88,,,,,,,1.8,0.9,1.5*2A
$QZGSA,A,3,01,,,,,,,,,,,,1.8,0.9,1.5*2B
$IMGSA,A,3,,,,,,,,,,,,,1.8,0.9,1.5*25
$PGLOR,1,FIX,1.0,1.0*20
$GPRMC,063610.00,A,2912.560808,N,11932.348236,E,000.0,,231016,,,A*7E
$PGLOR,SPL,20161023143608.9,POS,20161023063609.999,29.209347,119.539137,6,6,0,297,6,1.100000*50
$GPGGA,063611.00,2912.560333,N,11932.347778,E,1,16,0.4,287.0,M,6.5,M,,*5A
$PGLOR,6,STA,063611.00,-0.013,0.000,-332,1,4,1,P,F,L,0,C,3,S,0002,10,3,R,33F4,TPEF,19,14205,LC,,*58
$PGLOR,1,UNC,063611.00,0.020,4.0,4.9,0.17,180.00,3.0,2.6,-88.9*39
$PGLOR,2,SAT,3,1,G13,029,1F,R24,020,10,Q01,021,1F,G05,029,1F,G02,027,1F,R01,022,1B*53
$PGLOR,2,SAT,3,2,G15,030,1F,R23,022,1F,G29,036,1F,R02,034,33,G20,037,1F,R17,027,3F*5B
$PGLOR,2,SAT,3,3,G30,028,13,G06,026,13,R08,029,3F,R11,033,3F*3A
$PGLOR,2,SIO,TxERR,0,RxERR,0,TxCNT,415,RxCNT,3628,MLFRMPKT,0,DTMS,1002,DTIN,38,59,DTOUT,833,940,HATMD,71*2D
$PGLOR,2,SIO,TxERR,0,RxERR,0,TxCNT,415,RxCNT,3628,MLFRMPKT,0,DTMS,1002,DTIN,38,59,DTOUT,833,940,HATMD,71*2D
$PGLOR,3,PWR,mA,34.7,RFTm,1000,OscTm,1000,MeasTm,1000,UTC,063611.00*34
$GPGSV,3,1,10,13,78,178,29,05,55,020,31,02,55,115,27,15,46,223,31*72
$GPGSV,3,2,10,29,41,290,37,20,37,296,38,30,19,070,30,06,17,124,26*74
$GPGSV,3,3,10,07,06,044,,21,03,313,*78
$GLGSV,2,1,08,88,75,270,21,65,50,358,27,87,41,170,24,66,37,274,36*6D
$GLGSV,2,2,08,81,27,328,28,72,14,041,29,75,09,108,33,74,09,060,*62
$QZGSV,1,1,01,01,68,051,23*5E
$GPGSA,A,3,02,05,06,13,15,20,21,29,30,,,,1.6,0.9,1.3*30
$GNGSA,A,3,02,05,06,13,15,20,21,29,30,,,,1.6,0.9,1.3*2E
$GNGSA,A,3,65,72,75,81,87,88,,,,,,,1.6,0.9,1.3*22
$QZGSA,A,3,01,,,,,,,,,,,,1.6,0.9,1.3*23
$IMGSA,A,3,,,,,,,,,,,,,1.6,0.9,1.3*2D
$PGLOR,1,FIX,1.0,1.0*20
$GPRMC,063611.00,A,2912.560333,N,11932.347778,E,000.0,,231016,,,A*7C
$PGLOR,SPL,20161023143609.9,POS,20161023063610.999,29.209339,119.539130,4,4,0,293,5,1.100000*50
$GPGGA,063612.00,2912.560224,N,11932.347225,E,1,16,0.4,284.2,M,6.5,M,,*52
$PGLOR,6,STA,063612.00,-0.013,0.000,-333,1,4,1,P,F,L,0,C,3,S,0002,10,3,R,33F4,TPEF,19,15205,LC,,*5B
$PGLOR,1,UNC,063612.00,0.018,4.0,4.3,0.14,180.00,2.9,2.8,85.1*16
$PGLOR,2,SAT,3,1,G13,031,1F,R24,015,10,Q01,020,1F,G05,027,1F,G02,027,1F,R01,027,1B*56
$PGLOR,2,SAT,3,2,G15,032,1F,R23,021,1F,G29,037,1F,R02,037,33,G20,040,1F,R17,028,3F*57
$PGLOR,2,SAT,3,3,G30,028,13,G06,026,13,R08,031,3F,R11,034,3F*34
$PGLOR,2,SIO,TxERR,0,RxERR,0,TxCNT,447,RxCNT,3763,MLFRMPKT,0,DTMS,996,DTIN,115,135,DTOUT,328,865,HATMD,67*14
$PGLOR,2,SIO,TxERR,0,RxERR,0,TxCNT,447,RxCNT,3763,MLFRMPKT,0,DTMS,996,DTIN,115,135,DTOUT,328,865,HATMD,67*14
$PGLOR,3,PWR,mA,34.9,RFTm,1000,OscTm,1000,MeasTm,1000,UTC,063612.00*39
$PGLOR,2,PFM,HAL,-,0,0,0,0,RF,-,-180,25.5,0,RTC,,P,STO,P,LTO,P,SW,P,CNTIN,NM,NOINOSC,P,*60
$GPGSV,3,1,10,13,78,178,31,05,55,020,30,02,55,115,27,15,46,223,32*79
$GPGSV,3,2,10,29,41,290,37,20,37,296,40,30,19,070,30,06,17,124,26*7B
$GPGSV,3,3,10,07,06,044,,21,03,313,*78
$GLGSV,2,1,08,88,75,270,20,65,50,359,27,87,41,170,24,66,37,274,37*6C
$GLGSV,2,2,08,81,27,328,28,72,14,041,31,75,09,108,34,74,09,060,*6C
$QZGSV,1,1,01,01,68,051,23*5E
$GPGSA,A,3,02,05,06,13,15,20,21,29,30,,,,1.6,0.9,1.3*30
$GNGSA,A,3,02,05,06,13,15,20,21,29,30,,,,1.6,0.9,1.3*2E
$GNGSA,A,3,65,72,75,81,87,88,,,,,,,1.6,0.9,1.3*22
$QZGSA,A,3,01,,,,,,,,,,,,1.6,0.9,1.3*23
$IMGSA,A,3,,,,,,,,,,,,,1.6,0.9,1.3*2D
$PGLOR,1,FIX,1.0,1.0*20
$GPRMC,063612.00,A,2912.560224,N,11932.347225,E,000.0,,231016,,,A*75
$PGLOR,SPL,20161023143610.9,POS,20161023063611.999,29.209337,119.539120,4,4,0,291,4,1.100000*55
$GPGGA,063613.00,2912.559757,N,11932.347036,E,1,15,0.4,281.2,M,6.5,M,,*5E
$PGLOR,6,STA,063613.00,-0.013,0.000,-335,1,4,1,P,F,L,0,C,3,S,0002,10,3,R,33F4,TPEF,19,16205,LC,,*5F
$PGLOR,1,UNC,063613.00,0.013,4.0,3.5,0.15,180.00,3.1,2.5,-88.2*3B
$PGLOR,2,SAT,3,1,G13,030,1F,Q01,022,1F,G05,024,17,G02,023,1F,R01,028,1B,G15,030,1F*4A
$PGLOR,2,SAT,3,2,G29,035,1F,R23,022,1B,R02,037,33,G20,038,1F,R17,028,3F,G30,029,1F*50
$PGLOR,2,SAT,3,3,G06,024,13,R08,031,3F,R11,034,3F*66
$PGLOR,2,SIO,TxERR,0,RxERR,0,TxCNT,481,RxCNT,3531,MLFRMPKT,0,DTMS,1000,DTIN,31,52,DTOUT,856,945,HATMD,67*2A
$PGLOR,2,SIO,TxERR,0,RxERR,0,TxCNT,481,RxCNT,3531,MLFRMPKT,0,DTMS,1000,DTIN,31,52,DTOUT,856,945,HATMD,67*2A
$PGLOR,3,PWR,mA,34.8,RFTm,998,OscTm,1000,MeasTm,1000,UTC,063613.00*00
$GPGSV,3,1,10,13,78,178,31,05,55,020,30,02,55,115,27,15,46,223,32*79
$GPGSV,3,2,10,29,41,290,37,20,37,296,40,30,19,070,30,06,17,124,26*7B
$GPGSV,3,3,10,07,06,044,,21,03,313,*78
$GLGSV,2,1,08,88,75,270,18,65,50,359,28,87,41,170,24,66,37,274,37*68
$GLGSV,2,2,08,81,27,328,28,72,14,041,31,75,09,108,34,74,09,060,*6C
$QZGSV,1,1,01,01,68,051,23*5E
$GPGSA,A,3,02,05,06,13,15,20,21,29,30,,,,1.6,1.0,1.3*38
$GNGSA,A,3,02,05,06,13,15,20,21,29,30,,,,1.6,1.0,1.3*26
$GNGSA,A,3,65,72,75,81,87,,,,,,,,1.6,1.0,1.3*2A
$QZGSA,A,3,01,,,,,,,,,,,,1.6,1.0,1.3*2B
$IMGSA,A,3,,,,,,,,,,,,,1.6,1.0,1.3*25
$PGLOR,1,FIX,1.0,1.0*20
$GPRMC,063613.00,A,2912.559757,N,11932.347036,E,000.0,,231016,,,A*7F
$PGLOR,SPL,20161023143611.9,POS,20161023063612.999,29.209329,119.539117,4,4,0,288,4,1.100000*54
$GPGGA,063614.00,2912.559409,N,11932.346832,E,1,16,0.4,279.5,M,6.5,M,,*5F
$PGLOR,6,STA,063614.00,-0.013,0.000,-335,1,4,1,P,F,L,0,C,3,S,0002,10,3,R,33F4,TPEF,19,17205,LC,,*59
$PGLOR,1,UNC,063614.00,0.015,4.0,3.4,0.37,92.07,2.9,2.7,82.8*28
$PGLOR,2,SAT,3,1,G13,030,1F,R24,024,10,Q01,024,1F,G05,024,1F,G02,022,1F,R01,030,1F*55
$PGLOR,2,SAT,3,2,G15,029,1F,R23,018,1B,G29,035,1F,R02,036,33,G20,038,1F,R17,029,3F*5E
$PGLOR,2,SAT,3,3,G30,027,13,G06,023,13,R08,031,3F,R11,034,3F*3E
$PGLOR,2,SIO,TxERR,0,RxERR,0,TxCNT,413,RxCNT,3595,MLFRMPKT,0,DTMS,1009,DTIN,35,56,DTOUT,860,946,HATMD,76*20
$PGLOR,2,SIO,TxERR,0,RxERR,0,TxCNT,413,RxCNT,3595,MLFRMPKT,0,DTMS,1009,DTIN,35,56,DTOUT,860,946,HATMD,76*20
$PGLOR,3,PWR,mA,34.9,RFTm,1003,OscTm,1000,MeasTm,1000,UTC,063614.00*3C
$GPGSV,3,1,10,13,78,178,31,05,55,020,29,02,55,115,26,15,46,223,32*70
$GPGSV,3,2,10,29,41,290,37,20,37,296,39,30,19,070,30,06,17,124,25*76
$GPGSV,3,3,10,07,06,044,,21,03,313,*78
$GLGSV,2,1,08,88,75,270,24,65,50,359,30,87,41,170,23,66,37,274,37*69
$GLGSV,2,2,08,81,27,328,29,72,14,041,31,75,09,108,34,74,09,060,*6D
$QZGSV,1,1,01,01,68,051,24*59
$GPGSA,A,3,02,05,06,13,15,20,21,29,30,,,,1.6,0.9,1.3*30
$GNGSA,A,3,02,05,06,13,15,20,21,29,30,,,,1.6,0.9,1.3*2E
$GNGSA,A,3,65,72,75,81,87,88,,,,,,,1.6,0.9,1.3*22
$QZGSA,A,3,01,,,,,,,,,,,,1.6,0.9,1.3*23
$IMGSA,A,3,,,,,,,,,,,,,1.6,0.9,1.3*2D
$PGLOR,1,FIX,1.0,1.0*20
$GPRMC,063614.00,A,2912.559409,N,11932.346832,E,000.0,,231016,,,A*7D
$PGLOR,SPL,20161023143612.9,POS,20161023063613.999,29.209323,119.539114,4,4,0,286,3,1.100000*56
$GPGGA,063615.00,2912.559127,N,11932.346580,E,1,15,0.6,277.2,M,6.5,M,,*5B
$PGLOR,6,STA,063615.00,-0.013,0.000,-341,1,6,1,P,F,L,0,C,3,S,0002,10,3,R,33F4,TPEF,19,18205,LC,,*56
$PGLOR,1,UNC,063615.00,0.016,6.0,3.5,0.15,180.00,4.4,4.1,61.5*17
$PGLOR,2,SAT,3,1,G13,029,1F,Q01,027,1F,G05,024,1F,G02,019,1F,R01,030,1F,G15,030,1F*32
$PGLOR,2,SAT,3,2,G29,035,1F,R23,018,1F,R02,036,33,G20,038,1F,R17,029,3F,G30,026,13*27
$PGLOR,2,SAT,3,3,G06,024,13,R08,033,3F,R11,034,3F*64
$PGLOR,2,SIO,TxERR,0,RxERR,0,TxCNT,426,RxCNT,3590,MLFRMPKT,0,DTMS,992,DTIN,56,73,DTOUT,793,924,HATMD,68*13
$PGLOR,2,SIO,TxERR,0,RxERR,0,TxCNT,426,RxCNT,3590,MLFRMPKT,0,DTMS,992,DTIN,56,73,DTOUT,793,924,HATMD,68*13
$PGLOR,3,PWR,mA,34.8,RFTm,998,OscTm,1000,MeasTm,1000,UTC,063615.00*06
$GPGSV,3,1,10,13,78,178,31,05,55,020,29,02,55,115,26,15,46,223,32*70
$GPGSV,3,2,10,29,41,290,37,20,37,296,39,30,19,070,29,06,17,124,25*7E
$GPGSV,3,3,10,07,06,044,,21,03,313,*78
$GLGSV,2,1,08,88,75,270,21,65,50,359,30,87,41,170,23,66,37,274,36*6D
$GLGSV,2,2,08,81,27,328,29,72,14,041,33,75,09,108,34,74,09,060,*6F
$QZGSV,1,1,01,01,68,051,27*5A
$GPGSA,A,3,02,05,06,13,15,20,21,29,30,,,,1.5,0.9,1.3*33
$GNGSA,A,3,02,05,06,13,15,20,21,29,30,,,,1.5,0.9,1.3*2D
$GNGSA,A,3,65,72,75,81,87,,,,,,,,1.5,0.9,1.3*21
$QZGSA,A,3,01,,,,,,,,,,,,1.5,0.9,1.3*20
$IMGSA,A,3,,,,,,,,,,,,,1.5,0.9,1.3*2E
$PGLOR,1,FIX,1.0,1.0*20
$GPRMC,063615.00,A,2912.559127,N,11932.346580,E,000.0,,231016,,,A*71
$PGLOR,SPL,20161023143613.9,POS,20161023063614.999,29.209319,119.539110,6,6,0,284,3,1.100000*5F
$GPGGA,063616.00,2912.558827,N,11932.346225,E,1,16,0.4,274.7,M,6.5,M,,*5F
$PGLOR,6,STA,063616.00,-0.013,0.000,-342,1,4,1,P,F,L,0,C,3,S,0002,10,3,R,33F4,TPEF,19,19205,LC,,*55
$PGLOR,1,UNC,063616.00,0.016,4.0,3.5,0.22,180.00,3.0,2.7,57.8*19
$PGLOR,2,SAT,3,1,G13,030,1F,R24,012,10,Q01,027,1F,G05,021,1F,G02,021,1F,R01,029,1F*5D
$PGLOR,2,SAT,3,2,G15,030,1F,G29,035,1F,R23,017,1F,R02,035,33,G20,038,1F,R17,029,3F*5E
$PGLOR,2,SAT,3,3,G30,027,13,G06,024,13,R08,031,3F,R11,032,3F*3F
$PGLOR,2,SIO,TxERR,0,RxERR,0,TxCNT,446,RxCNT,3609,MLFRMPKT,0,DTMS,1001,DTIN,34,52,DTOUT,854,949,HATMD,69*2D
$PGLOR,2,SIO,TxERR,0,RxERR,0,TxCNT,446,RxCNT,3609,MLFRMPKT,0,DTMS,1001,DTIN,34,52,DTOUT,854,949,HATMD,69*2D
$PGLOR,3,PWR,mA,34.9,RFTm,1001,OscTm,1000,MeasTm,1000,UTC,063616.00*3C
$GPGSV,3,1,10,13,78,178,30,05,55,020,28,02,55,115,25,15,46,223,31*70
$GPGSV,3,2,10,29,41,290,36,20,37,296,39,30,19,070,29,06,17,124,25*7F
$GPGSV,3,3,10,07,06,044,,21,03,313,*78
$GLGSV,2,1,08,88,75,270,19,65,50,359,30,87,40,170,22,66,37,274,36*66
$GLGSV,2,2,08,81,27,328,29,72,14,041,33,75,09,108,34,74,09,060,*6F
$QZGSV,1,1,01,01,68,051,27*5A
$GPGSA,A,3,02,05,06,13,15,20,21,29,30,,,,1.5,0.9,1.3*33
$GNGSA,A,3,02,05,06,13,15,20,21,29,30,,,,1.5,0.9,1.3*2D
$GNGSA,A,3,65,72,75,81,87,88,,,,,,,1.5,0.9,1.3*21
$QZGSA,A,3,01,,,,,,,,,,,,1.5,0.9,1.3*20
$IMGSA,A,3,,,,,,,,,,,,,1.5,0.9,1.3*2E
$PGLOR,1,FIX,1.0,1.0*20
$GPRMC,063616.00,A,2912.558827,N,11932.346225,E,000.0,,231016,,,A*72
$PGLOR,SPL,20161023143614.9,POS,20161023063615.999,29.209314,119.539104,4,4,0,281,4,1.100000*53
$PGLOR,SPL,20161023143615.3,STATUS,2*33
$PGLOR,NET,4.4,,4.6,,20.1,SSD,C,A,0*70
$PGLOR,SPL,20161023143615.3,ERR,5*65
$GPGGA,063617.00,2912.558438,N,11932.346057,E,1,15,0.4,272.6,M,6.5,M,,*5F
$PGLOR,6,STA,063617.00,-0.013,0.000,-339,1,4,1,P,F,L,0,C,3,S,0002,10,3,R,33F4,TPEF,19,20205,LC,,*52
$PGLOR,1,UNC,063617.00,0.012,4.0,3.1,0.16,180.00,3.1,2.5,83.4*19
$PGLOR,2,SAT,3,1,G13,028,1F,R24,009,10,Q01,028,1F,G05,020,1F,G02,025,13,R01,028,1F*20
$PGLOR,2,SAT,3,2,G15,030,1F,G29,036,1F,R23,014,13,R02,035,33,G20,038,1F,R17,028,3F*2A
$PGLOR,2,SAT,3,3,G30,029,1F,G06,025,13,R08,029,3F,R11,031,3F*4F
$PGLOR,2,SIO,TxERR,0,RxERR,0,TxCNT,426,RxCNT,3658,MLFRMPKT,0,DTMS,999,DTIN,36,55,DTOUT,534,943,HATMD,68*13
$PGLOR,2,SIO,TxERR,0,RxERR,0,TxCNT,426,RxCNT,3658,MLFRMPKT,0,DTMS,999,DTIN,36,55,DTOUT,534,943,HATMD,68*13
$PGLOR,3,PWR,mA,35.4,RFTm,999,OscTm,1000,MeasTm,1000,UTC,063617.00*08
$GPGSV,3,1,10,13,78,178,30,05,55,020,27,02,55,115,25,15,46,223,31*7F
$GPGSV,3,2,10,29,41,290,36,20,37,296,39,30,19,070,29,06,17,124,25*7F
$GPGSV,3,3,10,07,06,044,,21,03,313,*78
$GLGSV,2,1,08,88,75,270,18,65,50,359,30,87,40,170,21,66,37,274,36*64
$GLGSV,2,2,08,81,27,328,29,72,14,041,32,75,09,108,34,74,09,060,*6E
$QZGSV,1,1,01,01,68,051,28*55
$GPGSA,A,3,02,05,06,13,15,20,21,29,30,,,,1.6,1.0,1.3*38
$GNGSA,A,3,02,05,06,13,15,20,21,29,30,,,,1.6,1.0,1.3*26
$GNGSA,A,3,65,72,75,81,87,,,,,,,,1.6,1.0,1.3*2A
$QZGSA,A,3,01,,,,,,,,,,,,1.6,1.0,1.3*2B
$IMGSA,A,3,,,,,,,,,,,,,1.6,1.0,1.3*25
$PGLOR,1,FIX,1.0,1.0*20
$GPRMC,063617.00,A,2912.558438,N,11932.346057,E,000.0,,231016,,,A*76
$PGLOR,SPL,20161023143615.9,POS,20161023063616.999,29.209307,119.539101,4,4,0,279,3,1.100000*56
$GPGGA,063618.00,2912.558053,N,11932.345861,E,1,16,0.4,270.3,M,6.5,M,,*53
$PGLOR,6,STA,063618.00,-0.013,0.000,-336,1,4,1,P,F,L,0,C,3,S,0002,10,3,R,33F4,TPEF,19,21205,LC,,*53
$PGLOR,1,UNC,063618.00,0.012,4.0,3.0,0.17,180.00,3.1,2.5,86.8*1F
$PGLOR,2,SAT,3,1,G13,028,1F,R24,013,10,Q01,029,1F,G05,021,1F,G02,024,13,R01,029,1F*2B
$PGLOR,2,SAT,3,2,G15,030,1F,G29,036,1F,R23,015,13,R02,034,33,G20,038,1F,R17,028,3F*2A
$PGLOR,2,SAT,3,3,G30,030,1F,G06,025,13,R08,029,3F,R11,031,3F*47
$PGLOR,2,SIO,TxERR,0,RxERR,0,TxCNT,465,RxCNT,3739,MLFRMPKT,0,DTMS,1001,DTIN,39,57,DTOUT,425,944,HATMD,69*21
$PGLOR,2,SIO,TxERR,0,RxERR,0,TxCNT,465,RxCNT,3739,MLFRMPKT,0,DTMS,1001,DTIN,39,57,DTOUT,425,944,HATMD,69*21
$PGLOR,3,PWR,mA,34.9,RFTm,1001,OscTm,1000,MeasTm,1000,UTC,063618.00*32
$GPGSV,3,1,10,13,78,178,30,05,55,020,26,02,55,115,25,15,46,223,31*7E
$GPGSV,3,2,10,29,41,290,36,20,37,296,39,30,19,070,30,06,17,124,25*77
$GPGSV,3,3,10,07,06,044,,21,03,313,*78
$GLGSV,2,1,08,88,75,270,18,65,50,359,30,87,40,170,21,66,37,274,36*64
$GLGSV,2,2,08,81,27,328,29,72,14,041,32,75,09,107,34,74,09,060,*61
$QZGSV,1,1,01,01,68,051,29*54
$GPGSA,A,3,02,05,06,13,15,20,21,29,30,,,,1.6,1.0,1.3*38
$GNGSA,A,3,02,05,06,13,15,20,21,29,30,,,,1.6,1.0,1.3*26
$GNGSA,A,3,65,72,75,81,87,88,,,,,,,1.6,1.0,1.3*2A
$QZGSA,A,3,01,,,,,,,,,,,,1.6,1.0,1.3*2B
$IMGSA,A,3,,,,,,,,,,,,,1.6,1.0,1.3*25
$PGLOR,1,FIX,1.0,1.0*20
$GPRMC,063618.00,A,2912.558053,N,11932.345861,E,000.0,,231016,,,A*7E
$PGLOR,SPL,20161023143616.9,POS,20161023063617.999,29.209301,119.539098,4,4,0,277,3,1.100000*5D
$GPGGA,063619.00,2912.557572,N,11932.345538,E,1,16,0.8,268.0,M,6.5,M,,*5C
$PGLOR,6,STA,063619.00,-0.013,0.000,-339,1,8,1,P,F,L,0,C,2,S,0002,10,3,R,33F4,TPEF,19,22205,LC,,*53
$PGLOR,1,UNC,063619.00,0.012,8.0,3.0,0.19,180.00,6.4,4.8,89.8*18
$PGLOR,2,SAT,3,1,G13,028,1F,R24,019,10,Q01,029,1F,G05,022,1F,G02,022,1F,R01,030,1F*59
$PGLOR,2,SAT,3,2,G15,028,1F,G29,033,1F,R23,014,13,R02,033,33,G20,037,1F,R17,029,3F*2E
$PGLOR,2,SAT,3,3,G30,029,1F,G06,025,13,R08,027,33,R11,031,3F*34
$PGLOR,2,SIO,TxERR,0,RxERR,0,TxCNT,464,RxCNT,3688,MLFRMPKT,0,DTMS,985,DTIN,143,149,DTOUT,423,850,HATMD,54*11
$PGLOR,2,SIO,TxERR,0,RxERR,0,TxCNT,464,RxCNT,3688,MLFRMPKT,0,DTMS,985,DTIN,143,149,DTOUT,423,850,HATMD,54*11
$PGLOR,3,PWR,mA,34.9,RFTm,1000,OscTm,1000,MeasTm,1000,UTC,063619.00*32
$GPGSV,3,1,10,13,78,178,30,05,55,020,26,02,55,115,25,15,46,223,31*7E
$GPGSV,3,2,10,29,41,289,36,20,37,296,39,30,19,070,30,06,17,124,25*7F
$GPGSV,3,3,10,07,06,044,,21,03,313,*78
$GLGSV,2,1,08,88,75,270,19,65,50,359,30,87,40,170,20,66,37,274,36*64
$GLGSV,2,2,08,81,27,328,29,72,14,042,31,75,09,107,33,74,09,060,*66
$QZGSV,1,1,01,01,68,051,29*54
$GPGSA,A,3,02,05,06,13,15,20,21,29,30,,,,1.6,1.0,1.3*38
$GNGSA,A,3,02,05,06,13,15,20,21,29,30,,,,1.6,1.0,1.3*26
$GNGSA,A,3,65,72,75,81,87,88,,,,,,,1.6,1.0,1.3*2A
$QZGSA,A,3,01,,,,,,,,,,,,1.6,1.0,1.3*2B
$IMGSA,A,3,,,,,,,,,,,,,1.6,1.0,1.3*25
$PGLOR,1,FIX,1.0,1.0*20
$GPRMC,063619.00,A,2912.557572,N,11932.345538,E,000.0,,231016,,,A*77
$PGLOR,SPL,20161023143617.9,POS,20161023063618.999,29.209293,119.539092,8,8,0,275,3,1.100000*51
$GPGGA,063620.00,2912.557352,N,11932.345489,E,1,15,0.8,268.9,M,6.5,M,,*53
$PGLOR,6,STA,063620.00,-0.013,0.000,-339,1,8,1,P,F,L,0,C,2,S,0002,10,3,R,33F4,TPEF,19,23205,LC,,*58
$PGLOR,1,UNC,063620.00,0.015,8.0,3.2,0.21,180.00,5.8,5.5,69.1*18
$PGLOR,2,SAT,3,1,G13,028,1F,Q01,028,1F,G05,022,1F,G02,018,1F,R01,029,1F,G15,027,1F*35
$PGLOR,2,SAT,3,2,G29,033,1F,R23,015,13,R02,029,33,G20,037,1F,R17,029,3F,G30,028,13*56
$PGLOR,2,SAT,3,3,G06,024,13,R08,027,33,R11,030,3F*10
$PGLOR,2,SIO,TxERR,0,RxERR,0,TxCNT,465,RxCNT,3657,MLFRMPKT,0,DTMS,1007,DTIN,17,27,DTOUT,862,972,HATMD,61*27
$PGLOR,2,SIO,TxERR,0,RxERR,0,TxCNT,465,RxCNT,3657,MLFRMPKT,0,DTMS,1007,DTIN,17,27,DTOUT,862,972,HATMD,61*27
$PGLOR,3,PWR,mA,34.9,RFTm,1000,OscTm,1000,MeasTm,1000,UTC,063620.00*38
$GPGSV,3,1,10,13,78,178,30,05,55,020,26,02,55,115,24,15,46,223,30*7E
$GPGSV,3,2,10,29,41,289,36,20,37,296,39,30,19,070,30,06,17,124,25*7F
$GPGSV,3,3,10,07,06,044,,21,03,313,*78
$GLGSV,2,1,08,88,75,270,17,65,50,359,30,87,40,170,19,66,37,274,35*63
$GLGSV,2,2,08,81,27,328,29,72,14,042,31,75,09,107,33,74,09,060,*66
$QZGSV,1,1,01,01,68,051,29*54
$GPGSA,A,3,02,05,06,13,15,20,21,29,30,,,,1.7,1.0,1.4*3E
$GNGSA,A,3,02,05,06,13,15,20,21,29,30,,,,1.7,1.0,1.4*20
$GNGSA,A,3,65,72,75,81,87,,,,,,,,1.7,1.0,1.4*2C
$QZGSA,A,3,01,,,,,,,,,,,,1.7,1.0,1.4*2D
$IMGSA,A,3,,,,,,,,,,,,,1.7,1.0,1.4*23
$PGLOR,1,FIX,1.0,1.0*20
$GPRMC,063620.00,A,2912.557352,N,11932.345489,E,000.0,,231016,,,A*72
$PGLOR,SPL,20161023143618.9,POS,20161023063619.999,29.209289,119.539091,8,8,0,275,3,1.100000*57
$GPGGA,063621.00,2912.557180,N,11932.345695,E,1,16,0.4,268.1,M,6.5,M,,*57
$PGLOR,6,STA,063621.00,-0.013,0.000,-341,1,4,1,P,F,L,0,C,3,S,0002,10,3,R,33F4,TPEF,19,24205,LC,,*5C
$PGLOR,1,UNC,063621.00,0.015,4.0,3.3,0.20,180.00,3.0,2.7,59.5*19
$PGLOR,2,SAT,3,1,G13,028,1F,R24,015,10,Q01,029,1F,G05,021,1F,G02,023,1F,R01,030,1F*57
$PGLOR,2,SAT,3,2,G15,029,1F,G29,035,1F,R23,015,13,R02,033,33,G20,039,1F,R17,030,3F*2E
$PGLOR,2,SAT,3,3,G30,028,13,G06,024,13,R08,029,3F,R11,030,3F*3B
$PGLOR,2,SIO,TxERR,0,RxERR,0,TxCNT,448,RxCNT,3603,MLFRMPKT,0,DTMS,995,DTIN,24,33,DTOUT,863,967,HATMD,56*1E
$PGLOR,2,SIO,TxERR,0,RxERR,0,TxCNT,448,RxCNT,3603,MLFRMPKT,0,DTMS,995,DTIN,24,33,DTOUT,863,967,HATMD,56*1E
$PGLOR,3,PWR,mA,34.9,RFTm,1001,OscTm,1000,MeasTm,1000,UTC,063621.00*38
$GPGSV,3,1,10,13,78,178,30,05,55,020,25,02,55,115,24,15,46,223,30*7D
$GPGSV,3,2,10,29,41,289,36,20,37,296,39,30,19,070,29,06,17,124,25*77
$GPGSV,3,3,10,07,06,044,,21,03,313,*78
$GLGSV,2,1,08,88,75,270,17,65,50,359,30,87,40,170,19,66,37,274,35*63
$GLGSV,2,2,08,81,27,328,30,72,14,042,31,75,09,107,33,74,09,060,*6E
$QZGSV,1,1,01,01,68,051,29*54
$GPGSA,A,3,02,05,06,13,15,20,21,29,30,,,,1.6,0.9,1.3*30
$GNGSA,A,3,02,05,06,13,15,20,21,29,30,,,,1.6,0.9,1.3*2E
$GNGSA,A,3,65,72,75,81,87,88,,,,,,,1.6,0.9,1.3*22
$QZGSA,A,3,01,,,,,,,,,,,,1.6,0.9,1.3*23
$IMGSA,A,3,,,,,,,,,,,,,1.6,0.9,1.3*2D
$PGLOR,1,FIX,1.0,1.0*20
$GPRMC,063621.00,A,2912.557180,N,11932.345695,E,000.0,,231016,,,A*71
$PGLOR,SPL,20161023143619.9,POS,20161023063620.999,29.209286,119.539095,4,4,0,275,3,1.100000*57
$GPGGA,063622.00,2912.556832,N,11932.345878,E,1,16,0.6,267.5,M,6.5,M,,*51
$PGLOR,6,STA,063622.00,-0.013,0.000,-340,1,6,0,P,F,L,0,C,2,S,0002,10,3,R,33F4,TPEF,19,25205,LC,,*5D
$PGLOR,1,UNC,063622.00,0.016,6.0,3.3,0.15,180.00,4.5,3.9,54.3*1B
$PGLOR,2,SAT,3,1,G13,030,1F,R24,022,10,Q01,030,1F,G05,028,1F,G02,025,1F,R01,030,1F*5D
$PGLOR,2,SAT,3,2,G15,028,1F,G29,037,1F,R23,023,1B,R02,032,33,G20,039,1F,R17,032,3F*5A
$PGLOR,2,SAT,3,3,G30,028,13,G06,024,13,R08,030,3F,R11,029,3B,G07,011,31*61
$PGLOR,2,SIO,TxERR,0,RxERR,0,TxCNT,442,RxCNT,3807,MLFRMPKT,0,DTMS,1015,DTIN,24,46,DTOUT,585,954,HATMD,71*2C
$PGLOR,2,SIO,TxERR,0,RxERR,0,TxCNT,442,RxCNT,3807,MLFRMPKT,0,DTMS,1015,DTIN,24,46,DTOUT,585,954,HATMD,71*2C
$PGLOR,3,PWR,mA,34.0,RFTm,1000,OscTm,1000,MeasTm,1000,UTC,063622.00*33
$PGLOR,2,PFM,HAL,-,0,0,0,0,RF,-,-180,25.6,0,RTC,,P,STO,P,LTO,P,SW,P,CNTIN,NM,NOINOSC,PPP*4F
$GPGSV,3,1,10,13,78,178,30,05,55,020,28,02,55,115,25,15,46,223,30*71
$GPGSV,3,2,10,29,41,289,37,20,37,296,39,30,19,070,29,06,17,124,25*76
$GPGSV,3,3,10,07,06,044,11,21,03,313,*78
$GLGSV,2,1,08,88,75,270,22,65,50,359,30,87,40,170,23,66,37,274,35*6C
$GLGSV,2,2,08,81,27,328,32,72,14,042,31,75,09,107,32,74,09,060,*6D
$QZGSV,1,1,01,01,68,051,30*5C
$GPGSA,A,3,02,05,06,13,15,20,21,29,30,,,,2.2,1.1,1.8*35
$GNGSA,A,3,02,05,06,13,15,20,21,29,30,,,,2.2,1.1,1.8*2B
$GNGSA,A,3,65,72,75,81,87,88,,,,,,,2.2,1.1,1.8*27
$QZGSA,A,3,01,,,,,,,,,,,,2.2,1.1,1.8*26
$IMGSA,A,3,,,,,,,,,,,,,2.2,1.1,1.8*28
$PGLOR,1,FIX,1.0,1.0*20
$GPRMC,063622.00,A,2912.556832,N,11932.345878,E,000.0,,231016,,,A*7E
$PGLOR,SPL,20161023143620.9,POS,20161023063621.999,29.209281,119.539098,6,6,0,274,3,1.100000*57
$GPGGA,063623.00,2912.556528,N,11932.345938,E,1,16,0.6,267.2,M,6.5,M,,*54
$PGLOR,6,STA,063623.00,-0.013,0.000,-340,1,6,1,P,F,L,0,C,2,S,0002,10,3,R,33F4,TPEF,19,26205,LC,,*5E
$PGLOR,1,UNC,063623.00,0.012,6.0,3.0,0.15,180.00,4.7,3.7,81.7*1D
$PGLOR,2,SAT,3,1,G13,031,1F,Q01,031,1F,G05,029,1F,G02,026,1F,R01,030,1F,G15,028,1F*34
$PGLOR,2,SAT,3,2,G29,037,1F,R23,024,13,R02,033,33,G20,039,1F,R17,034,3F,G30,028,1F*2C
$PGLOR,2,SAT,3,3,G06,022,13,R08,030,3F,R11,028,3B,G07,014,30*32
$PGLOR,2,SIO,TxERR,0,RxERR,0,TxCNT,524,RxCNT,3917,MLFRMPKT,0,DTMS,985,DTIN,39,46,DTOUT,345,953,HATMD,56*18
$PGLOR,2,SIO,TxERR,0,RxERR,0,TxCNT,524,RxCNT,3917,MLFRMPKT,0,DTMS,985,DTIN,39,46,DTOUT,345,953,HATMD,56*18
$PGLOR,3,PWR,mA,33.7,RFTm,1000,OscTm,1000,MeasTm,1000,UTC,063623.00*32
$GPGSV,3,1,10,13,78,178,31,05,55,020,29,02,55,115,26,15,46,223,30*72
$GPGSV,3,2,10,29,41,289,37,20,37,296,39,30,19,070,29,06,17,124,25*76
$GPGSV,3,3,10,07,06,044,14,21,03,313,*7D
$GLGSV,2,1,08,88,75,270,20,65,50,359,30,87,40,170,24,66,37,274,34*68
$GLGSV,2,2,08,81,27,328,34,72,14,042,31,75,09,107,32,74,09,060,*6B
$QZGSV,1,1,01,01,68,051,31*5D
$GPGSA,A,3,02,05,06,07,13,15,20,21,29,30,,,1.9,1.1,1.6*34
$GNGSA,A,3,02,05,06,07,13,15,20,21,29,30,,,1.9,1.1,1.6*2A
$GNGSA,A,3,65,72,75,81,87,,,,,,,,1.9,1.1,1.6*21
$QZGSA,A,3,01,,,,,,,,,,,,1.9,1.1,1.6*20
$IMGSA,A,3,,,,,,,,,,,,,1.9,1.1,1.6*2E
$PGLOR,1,FIX,1.0,1.0*20
$GPRMC,063623.00,A,2912.556528,N,11932.345938,E,000.0,,231016,,,A*7C
$PGLOR,SPL,20161023143621.9,POS,20161023063622.999,29.209275,119.539099,6,6,0,274,3,1.100000*5F
$GPGGA,063624.00,2912.556381,N,11932.345679,E,1,18,0.6,266.8,M,6.5,M,,*59
$PGLOR,6,STA,063624.00,-0.013,0.000,-339,1,6,0,P,F,L,0,C,2,S,0002,10,3,R,33F4,TPEF,19,27205,LC,,*57
$PGLOR,1,UNC,063624.00,0.011,6.0,3.0,0.15,180.00,4.7,3.7,85.6*1C
$PGLOR,2,SAT,3,1,G13,032,1F,R24,023,10,Q01,031,1F,G05,030,1F,G02,026,17,R01,031,1F*25
$PGLOR,2,SAT,3,2,G15,029,1F,G29,036,1F,R23,025,1B,G20,040,1F,R02,033,33,R17,034,3F*55
$PGLOR,2,SAT,3,3,G30,029,1F,G06,021,13,R08,031,3F,R10,012,30,R11,028,3B,G07,015,30*5A
$PGLOR,2,SIO,TxERR,0,RxERR,0,TxCNT,507,RxCNT,3748,MLFRMPKT,0,DTMS,1000,DTIN,19,31,DTOUT,451,969,HATMD,56*21
$PGLOR,2,SIO,TxERR,0,RxERR,0,TxCNT,507,RxCNT,3748,MLFRMPKT,0,DTMS,1000,DTIN,19,31,DTOUT,451,969,HATMD,56*21
$PGLOR,3,PWR,mA,33.7,RFTm,1000,OscTm,1000,MeasTm,1000,UTC,063624.00*35
$GPGSV,3,1,10,13,78,178,32,05,55,020,30,02,55,115,26,15,46,223,30*79
$GPGSV,3,2,10,29,41,289,37,20,37,296,40,30,19,070,29,06,17,124,24*79
$GPGSV,3,3,10,07,06,044,15,21,03,313,*7C
$GLGSV,2,1,08,88,75,270,23,65,50,359,31,87,40,170,25,66,37,274,34*6B
$GLGSV,2,2,08,81,27,328,34,72,14,042,31,74,09,059,12,75,09,107,32*62
$QZGSV,1,1,01,01,68,051,31*5D
$GPGSA,A,3,02,05,06,07,13,15,20,21,29,30,,,1.9,1.1,1.6*34
$GNGSA,A,3,02,05,06,07,13,15,20,21,29,30,,,1.9,1.1,1.6*2A
$GNGSA,A,3,65,72,74,75,81,87,88,,,,,,1.9,1.1,1.6*22
$QZGSA,A,3,01,,,,,,,,,,,,1.9,1.1,1.6*20
$IMGSA,A,3,,,,,,,,,,,,,1.9,1.1,1.6*2E
$PGLOR,1,FIX,1.0,1.0*20
$GPRMC,063624.00,A,2912.556381,N,11932.345679,E,000.0,,231016,,,A*74
$PGLOR,SPL,20161023143622.9,POS,20161023063623.999,29.209273,119.539095,6,6,0,273,3,1.100000*50
$GPGGA,063625.00,2912.556311,N,11932.345309,E,1,17,0.4,266.3,M,6.5,M,,*55
$PGLOR,6,STA,063625.00,-0.013,0.000,-345,1,4,0,P,F,L,0,C,2,S,0002,10,3,R,33F4,TPEF,19,28205,LC,,*50
$PGLOR,1,UNC,063625.00,0.011,4.0,3.0,0.17,180.00,3.2,2.4,88.1*17
$PGLOR,2,SAT,3,1,G13,032,1F,R24,020,10,Q01,031,1F,G05,030,1F,G02,026,1F,R01,030,1F*56
$PGLOR,2,SAT,3,2,G15,029,1F,G29,037,1F,R23,025,1F,R02,032,33,G20,039,1F,R17,034,3F*5F
$PGLOR,2,SAT,3,3,G30,029,1F,G06,021,13,R08,030,3F,R10,018,30,R11,027,33*74
$PGLOR,2,SIO,TxERR,0,RxERR,0,TxCNT,476,RxCNT,3747,MLFRMPKT,0,DTMS,1016,DTIN,19,37,DTOUT,667,963,HATMD,72*23
$PGLOR,2,SIO,TxERR,0,RxERR,0,TxCNT,476,RxCNT,3747,MLFRMPKT,0,DTMS,1016,DTIN,19,37,DTOUT,667,963,HATMD,72*23
$PGLOR,3,PWR,mA,33.7,RFTm,1000,OscTm,1000,MeasTm,1000,UTC,063625.00*34
$PGLOR,2,PFM,HAL,-,0,0,0,0,RF,-,-180,25.0,0,RTC,,P,STO,P,LTO,P,SW,P,CNTIN,NM,NOINOSC,PPF*5F
$GPGSV,3,1,10,13,78,178,32,05,55,020,30,02,55,115,26,15,46,223,30*79
$GPGSV,3,2,10,29,41,289,37,20,37,296,40,30,19,070,29,06,17,124,24*79
$GPGSV,3,3,10,07,06,044,13,21,03,313,*7A
$GLGSV,2,1,08,88,75,270,23,65,50,359,30,87,40,170,25,66,37,274,34*6A
$GLGSV,2,2,08,81,27,328,34,72,14,042,31,74,09,059,18,75,09,107,31*6B
$QZGSV,1,1,01,01,68,051,31*5D
$GPGSA,A,3,02,05,06,13,15,20,21,29,30,,,,1.7,0.9,1.5*37
$GNGSA,A,3,02,05,06,13,15,20,21,29,30,,,,1.7,0.9,1.5*29
$GNGSA,A,3,65,72,74,75,81,87,88,,,,,,1.7,0.9,1.5*26
$QZGSA,A,3,01,,,,,,,,,,,,1.7,0.9,1.5*24
$IMGSA,A,3,,,,,,,,,,,,,1.7,0.9,1.5*2A
$PGLOR,1,FIX,1.0,1.0*20
$GPRMC,063625.00,A,2912.556311,N,11932.345309,E,000.0,,231016,,,A*7E
$PGLOR,SPL,20161023143623.9,POS,20161023063624.999,29.209272,119.539088,4,4,0,273,3,1.100000*5B
$GPGGA,063626.00,2912.556145,N,11932.345389,E,1,16,0.6,264.9,M,6.5,M,,*56
$PGLOR,6,STA,063626.00,-0.013,0.000,-347,1,6,0,P,F,L,0,C,3,S,0002,10,3,R,33F4,TPEF,19,29205,LC,,*53
$PGLOR,1,UNC,063626.00,0.014,6.0,3.0,0.15,180.00,4.6,3.9,77.3*1C
$PGLOR,2,SAT,3,1,G13,033,1F,R24,021,10,Q01,031,1F,G05,030,1F,G02,026,1F,R01,032,1F*54
$PGLOR,2,SAT,3,2,G15,029,1F,G29,037,1F,R23,026,1B,R02,036,33,G20,040,1F,R17,035,3F*53
$PGLOR,2,SAT,3,3,G30,028,13,G06,021,13,R08,032,3F,R10,012,30,R11,026,33*09
$PGLOR,2,SIO,TxERR,0,RxERR,0,TxCNT,514,RxCNT,3774,MLFRMPKT,0,DTMS,987,DTIN,47,57,DTOUT,645,942,HATMD,59*11
$PGLOR,2,SIO,TxERR,0,RxERR,0,TxCNT,514,RxCNT,3774,MLFRMPKT,0,DTMS,987,DTIN,47,57,DTOUT,645,942,HATMD,59*11
$PGLOR,3,PWR,mA,37.8,RFTm,1000,OscTm,1000,MeasTm,1000,UTC,063626.00*3C
$PGLOR,2,PFM,HAL,-,0,0,0,0,RF,-,-180,25.2,0,RTC,,P,STO,P,LTO,P,SW,P,CNTIN,NM,NOINOSC,PFF*4B
$GPGSV,3,1,10,13,78,178,33,05,55,020,30,02,55,115,26,15,46,223,30*78
$GPGSV,3,2,10,29,41,289,37,20,37,296,40,30,19,070,29,06,17,124,24*79
$GPGSV,3,3,10,07,06,044,11,21,03,313,*78
$GLGSV,2,1,08,88,75,270,23,65,50,359,32,87,40,170,26,66,37,274,36*69
$GLGSV,2,2,08,81,27,328,35,72,14,042,32,74,09,059,17,75,09,107,31*66
$QZGSV,1,1,01,01,68,051,31*5D
$GPGSA,A,3,02,05,06,13,15,20,21,29,30,,,,2.2,1.1,1.8*35
$GNGSA,A,3,02,05,06,13,15,20,21,29,30,,,,2.2,1.1,1.8*2B
$GNGSA,A,3,65,72,75,81,87,88,,,,,,,2.2,1.1,1.8*27
$QZGSA,A,3,01,,,,,,,,,,,,2.2,1.1,1.8*26
$IMGSA,A,3,,,,,,,,,,,,,2.2,1.1,1.8*28
$PGLOR,1,FIX,1.0,1.0*20
$GPRMC,063626.00,A,2912.556145,N,11932.345389,E,000.0,,231016,,,A*76
$PGLOR,SPL,20161023143624.9,POS,20161023063625.999,29.209269,119.539090,6,6,0,271,3,1.100000*5C
$GPGGA,063627.00,2912.556145,N,11932.345389,E,1,16,0.6,263.0,M,6.5,M,,*59
$PGLOR,6,STA,063627.00,-0.013,0.000,-344,1,6,1,P,F,L,0,C,3,S,0002,10,3,R,33F4,TPEF,19,30205,LC,,*58
$PGLOR,1,UNC,063627.00,0.015,6.0,3.1,0.15,180.00,4.6,3.9,65.7*1A
$PGLOR,2,SAT,3,1,G13,033,1F,R24,021,10,Q01,031,1F,G05,029,1F,G02,026,1F,R01,031,1F*5F
$PGLOR,2,SAT,3,2,G15,028,1F,G29,037,1F,R23,026,1F,R02,033,33,G20,040,1F,R17,034,3F*52
$PGLOR,2,SAT,3,3,G30,028,13,G06,022,13,R08,031,3F,R11,023,33*43
$PGLOR,2,SIO,TxERR,0,RxERR,0,TxCNT,474,RxCNT,3696,MLFRMPKT,0,DTMS,1015,DTIN,22,41,DTOUT,867,959,HATMD,74*27
$PGLOR,2,SIO,TxERR,0,RxERR,0,TxCNT,474,RxCNT,3696,MLFRMPKT,0,DTMS,1015,DTIN,22,41,DTOUT,867,959,HATMD,74*27
$PGLOR,3,PWR,mA,37.8,RFTm,1000,OscTm,1000,MeasTm,1000,UTC,063627.00*3D
$GPGSV,3,1,10,13,78,178,33,05,55,020,30,02,55,115,26,15,46,223,30*78
$GPGSV,3,2,10,29,41,289,37,20,37,296,40,30,19,070,29,06,17,124,24*79
$GPGSV,3,3,10,07,06,044,08,21,03,313,*70
$GLGSV,2,1,08,88,75,269,23,65,50,359,32,87,40,170,26,66,37,274,36*61
$GLGSV,2,2,08,81,27,328,34,72,14,042,32,75,09,107,30,74,09,059,15*64
$QZGSV,1,1,01,01,68,051,31*5D
$GPGSA,A,3,02,05,06,13,15,20,21,29,30,,,,1.9,0.9,1.7*3B
$GNGSA,A,3,02,05,06,13,15,20,21,29,30,,,,1.9,0.9,1.7*25
$GNGSA,A,3,65,72,75,81,87,88,,,,,,,1.9,0.9,1.7*29
$QZGSA,A,3,01,,,,,,,,,,,,1.9,0.9,1.7*28
$IMGSA,A,3,,,,,,,,,,,,,1.9,0.9,1.7*26
$PGLOR,1,FIX,1.0,1.0*20
$GPRMC,063627.00,A,2912.556145,N,11932.345389,E,000.0,,231016,,,A*77
$PGLOR,SPL,20161023143625.9,POS,20161023063626.999,29.209269,119.539090,6,6,0,269,3,1.100000*57
$GPGGA,063628.00,2912.556145,N,11932.345389,E,1,17,0.6,262.9,M,6.5,M,,*5F
$PGLOR,6,STA,063628.00,-0.013,0.000,-343,1,6,1,P,F,L,0,C,3,S,0002,10,3,R,33F4,TPEF,19,31205,LC,,*51
$PGLOR,1,UNC,063628.00,0.011,6.0,3.0,0.14,180.00,4.9,3.5,86.5*1D
$PGLOR,2,SAT,3,1,G13,033,1F,R24,021,10,Q01,032,1F,G05,029,1F,G02,026,1F,R01,031,1F*5C
$PGLOR,2,SAT,3,2,G15,029,1F,G29,038,1F,R23,026,1B,G20,040,1F,R02,035,33,R17,035,3F*5F
$PGLOR,2,SAT,3,3,G30,029,1F,G06,023,13,R08,032,3F,R10,013,30,R11,024,33,G07,010,30*22
$PGLOR,2,SIO,TxERR,0,RxERR,0,TxCNT,610,RxCNT,3052,MLFRMPKT,0,DTMS,972,DTIN,41,50,DTOUT,745,938,HATMD,46*1C
$PGLOR,2,SIO,TxERR,0,RxERR,0,TxCNT,610,RxCNT,3052,MLFRMPKT,0,DTMS,972,DTIN,41,50,DTOUT,745,938,HATMD,46*1C
$PGLOR,3,PWR,mA,37.5,RFTm,990,OscTm,1000,MeasTm,1000,UTC,063628.00*0E
$GPGSV,3,1,10,13,78,178,33,05,55,020,30,02,55,115,26,15,46,223,29*70
$GPGSV,3,2,10,29,41,289,38,20,37,296,40,30,19,070,29,06,17,124,24*76
$GPGSV,3,3,10,07,06,044,10,21,03,313,*79
$GLGSV,2,1,08,88,75,269,22,65,50,359,32,87,40,170,26,66,37,274,36*60
$GLGSV,2,2,08,81,27,328,35,72,14,042,32,74,09,059,15,75,09,107,29*6D
$QZGSV,1,1,01,01,68,051,32*5E
$GPGSA,A,3,02,05,06,13,15,20,21,29,30,,,,1.9,1.1,1.6*33
$GNGSA,A,3,02,05,06,13,15,20,21,29,30,,,,1.9,1.1,1.6*2D
$GNGSA,A,3,65,72,74,75,81,87,88,,,,,,1.9,1.1,1.6*22
$QZGSA,A,3,01,,,,,,,,,,,,1.9,1.1,1.6*20
$IMGSA,A,3,,,,,,,,,,,,,1.9,1.1,1.6*2E
$PGLOR,1,FIX,1.0,1.0*20
$GPRMC,063628.00,A,2912.556145,N,11932.345389,E,000.0,,231016,,,A*78
$PGLOR,SPL,20161023143626.9,POS,20161023063627.999,29.209269,119.539090,6,6,0,269,3,1.100000*55
$GPGGA,063629.00,2912.556145,N,11932.345389,E,1,16,0.6,263.3,M,6.5,M,,*54
$PGLOR,6,STA,063629.00,-0.013,0.000,-344,1,6,1,P,F,L,0,C,3,S,0002,10,3,R,33F4,TPEF,19,32205,LC,,*54
$PGLOR,1,UNC,063629.00,0.011,6.0,3.0,0.15,180.00,4.9,3.5,88.9*1F
$PGLOR,2,SAT,3,1,G13,033,1F,R24,022,10,Q01,032,1F,G05,029,1F,G02,027,1F,R01,031,1F*5E
$PGLOR,2,SAT,3,2,G15,029,1F,G29,037,1F,R23,027,1B,R02,034,33,G20,040,1F,R17,035,3F*50
$PGLOR,2,SAT,3,3,G30,030,1F,G06,022,13,R08,032,3F,R10,010,30,R11,024,33*76
$PGLOR,2,SIO,TxERR,0,RxERR,0,TxCNT,454,RxCNT,3037,MLFRMPKT,0,DTMS,1000,DTIN,21,30,DTOUT,456,969,HATMD,46*25
$PGLOR,2,SIO,TxERR,0,RxERR,0,TxCNT,454,RxCNT,3037,MLFRMPKT,0,DTMS,1000,DTIN,21,30,DTOUT,456,969,HATMD,46*25
$PGLOR,3,PWR,mA,38.5,RFTm,1000,OscTm,1000,MeasTm,1000,UTC,063629.00*31
$GPGSV,3,1,10,13,78,178,33,05,55,020,29,02,55,115,27,15,46,223,29*79
$GPGSV,3,2,10,29,41,289,38,20,37,296,40,30,19,070,30,06,17,124,23*79
$GPGSV,3,3,10,07,06,044,09,21,03,313,*71
$GLGSV,2,1,08,88,75,269,22,65,50,359,32,87,40,170,27,66,37,274,35*62
$GLGSV,2,2,08,81,27,328,35,72,14,042,32,74,09,059,14,75,09,107,29*6C
$QZGSV,1,1,01,01,68,051,32*5E
$GPGSA,A,3,02,05,06,13,15,20,21,29,30,,,,1.9,1.1,1.6*33
$GNGSA,A,3,02,05,06,13,15,20,21,29,30,,,,1.9,1.1,1.6*2D
$GNGSA,A,3,65,72,75,81,87,88,,,,,,,1.9,1.1,1.6*21
$QZGSA,A,3,01,,,,,,,,,,,,1.9,1.1,1.6*20
$IMGSA,A,3,,,,,,,,,,,,,1.9,1.1,1.6*2E
$PGLOR,1,FIX,1.0,1.0*20
$GPRMC,063629.00,A,2912.556145,N,11932.345389,E,000.0,,231016,,,A*79
$PGLOR,SPL,20161023143627.9,POS,20161023063628.999,29.209269,119.539090,6,6,0,270,3,1.100000*53
$GPGGA,063630.00,2912.556145,N,11932.345389,E,1,17,0.6,263.9,M,6.5,M,,*57
$PGLOR,6,STA,063630.00,-0.013,0.000,-345,1,6,1,P,F,L,0,C,3,S,0002,10,3,R,33F4,TPEF,19,33205,LC,,*5C
$PGLOR,1,UNC,063630.00,0.010,6.0,3.0,0.16,180.00,4.7,3.7,-90.0*34
$PGLOR,2,SAT,3,1,G13,032,1F,R24,021,10,Q01,032,1F,G05,029,1F,G02,027,1F,R01,030,1F*5D
$PGLOR,2,SAT,3,2,G15,029,1F,G29,037,1F,R23,026,1B,R02,032,33,G20,040,1F,R17,035,3F*57
$PGLOR,2,SAT,3,3,G30,029,1F,G06,021,13,R08,031,3F,R10,017,30,R11,024,33*79
$PGLOR,2,SIO,TxERR,0,RxERR,0,TxCNT,453,RxCNT,2996,MLFRMPKT,0,DTMS,1015,DTIN,19,29,DTOUT,876,970,HATMD,61*25
$PGLOR,2,SIO,TxERR,0,RxERR,0,TxCNT,453,RxCNT,2996,MLFRMPKT,0,DTMS,1015,DTIN,19,29,DTOUT,876,970,HATMD,61*25
$PGLOR,3,PWR,mA,38.5,RFTm,1000,OscTm,1000,MeasTm,1000,UTC,063630.00*39
$GPGSV,3,1,10,13,78,178,33,05,55,021,29,02,55,115,27,15,46,223,29*78
$GPGSV,3,2,10,29,41,289,38,20,37,296,40,30,19,070,30,06,17,124,23*79
$GPGSV,3,3,10,07,06,044,,21,03,313,*78
$GLGSV,2,1,08,88,75,269,22,65,50,359,32,87,40,170,27,66,37,274,35*62
$GLGSV,2,2,08,81,27,328,35,72,14,042,32,74,09,059,17,75,09,107,28*6E
$QZGSV,1,1,01,01,68,051,32*5E
$GPGSA,A,3,02,05,06,13,15,20,21,29,30,,,,1.9,1.1,1.6*33
$GNGSA,A,3,02,05,06,13,15,20,21,29,30,,,,1.9,1.1,1.6*2D
$GNGSA,A,3,65,72,74,75,81,87,88,,,,,,1.9,1.1,1.6*22
$QZGSA,A,3,01,,,,,,,,,,,,1.9,1.1,1.6*20
$IMGSA,A,3,,,,,,,,,,,,,1.9,1.1,1.6*2E
$PGLOR,1,FIX,1.0,1.0*20
$GPRMC,063630.00,A,2912.556145,N,11932.345389,E,000.0,,231016,,,A*71
$PGLOR,SPL,20161023143628.9,POS,20161023063629.999,29.209269,119.539090,6,6,0,270,3,1.100000*5D
$GPGGA,063631.00,2912.555884,N,11932.346044,E,1,17,0.6,263.7,M,6.5,M,,*5E
$PGLOR,6,STA,063631.00,-0.013,0.000,-343,1,6,1,P,F,L,0,C,3,S,0002,10,3,R,33F4,TPEF,19,34205,LC,,*5C
$PGLOR,1,UNC,063631.00,0.012,6.0,3.0,0.14,180.00,4.5,3.9,85.1*11
$PGLOR,2,SAT,3,1,G13,033,1F,R24,019,10,Q01,032,1F,G05,028,1F,G02,027,1F,R01,030,1F*56
$PGLOR,2,SAT,3,2,G15,029,1F,G29,037,1F,R23,025,1B,R02,031,33,G20,040,1F,R17,035,3F*57
$PGLOR,2,SAT,3,3,G30,027,13,G06,022,13,R08,031,3F,R10,014,30,R11,024,33*02
$PGLOR,2,SIO,TxERR,0,RxERR,0,TxCNT,442,RxCNT,3034,MLFRMPKT,0,DTMS,1001,DTIN,57,76,DTOUT,607,924,HATMD,62*2A
$PGLOR,2,SIO,TxERR,0,RxERR,0,TxCNT,442,RxCNT,3034,MLFRMPKT,0,DTMS,1001,DTIN,57,76,DTOUT,607,924,HATMD,62*2A
$PGLOR,3,PWR,mA,38.5,RFTm,1000,OscTm,1000,MeasTm,1000,UTC,063631.00*38
$GPGSV,3,1,10,13,78,178,33,05,55,021,29,02,55,115,27,15,46,223,29*78
$GPGSV,3,2,10,29,41,289,37,20,37,296,40,30,19,070,30,06,17,124,23*76
$GPGSV,3,3,10,07,06,044,,21,03,313,*78
$GLGSV,2,1,08,88,75,269,22,65,50,359,32,87,40,170,26,66,37,274,35*63
$GLGSV,2,2,08,81,27,328,35,72,14,042,32,74,09,059,17,75,09,107,28*6E
$QZGSV,1,1,01,01,68,051,32*5E
$GPGSA,A,3,02,05,06,13,15,20,21,29,30,,,,2.2,1.1,1.8*35
$GNGSA,A,3,02,05,06,13,15,20,21,29,30,,,,2.2,1.1,1.8*2B
$GNGSA,A,3,65,72,74,75,81,87,88,,,,,,2.2,1.1,1.8*24
$QZGSA,A,3,01,,,,,,,,,,,,2.2,1.1,1.8*26
$IMGSA,A,3,,,,,,,,,,,,,2.2,1.1,1.8*28
$PGLOR,1,FIX,1.0,1.0*20
$GPRMC,063631.00,A,2912.555884,N,11932.346044,E,000.0,,231016,,,A*76
$PGLOR,SPL,20161023143629.9,POS,20161023063630.999,29.209265,119.539101,6,6,0,270,3,1.100000*51
$GPGGA,063632.00,2912.555903,N,11932.346104,E,1,16,0.6,263.7,M,6.5,M,,*57
$PGLOR,6,STA,063632.00,-0.013,0.000,-345,1,6,1,P,F,L,0,C,3,S,0002,10,3,R,33F4,TPEF,19,35205,LC,,*58
$PGLOR,1,UNC,063632.00,0.014,6.0,3.0,0.27,180.00,4.5,3.9,27.2*1F
$PGLOR,2,SAT,3,1,G13,033,1F,R24,012,10,Q01,031,1F,G05,029,1F,G02,027,1F,R01,030,1F*5F
$PGLOR,2,SAT,3,2,G15,028,1F,G29,036,1F,R23,023,1B,R02,033,33,G20,039,1F,R17,034,3F*5C
$PGLOR,2,SAT,3,3,G30,027,13,G06,022,13,R08,030,3F,R11,024,33*4A
$PGLOR,2,SIO,TxERR,0,RxERR,0,TxCNT,453,RxCNT,2992,MLFRMPKT,0,DTMS,999,DTIN,72,89,DTOUT,828,909,HATMD,61*1F
$PGLOR,2,SIO,TxERR,0,RxERR,0,TxCNT,453,RxCNT,2992,MLFRMPKT,0,DTMS,999,DTIN,72,89,DTOUT,828,909,HATMD,61*1F
$PGLOR,3,PWR,mA,38.5,RFTm,1000,OscTm,1000,MeasTm,1000,UTC,063632.00*3B
$GPGSV,3,1,10,13,78,178,33,05,55,021,29,02,55,115,27,15,46,223,29*78
$GPGSV,3,2,10,29,41,289,37,20,37,296,40,30,19,070,29,06,17,124,23*7E
$GPGSV,3,3,10,07,06,044,,21,03,313,*78
$GLGSV,2,1,08,88,75,269,21,65,50,359,31,87,40,170,26,66,37,274,34*62
$GLGSV,2,2,08,81,27,328,35,72,14,042,32,75,09,107,27,74,09,059,15*63
$QZGSV,1,1,01,01,68,051,32*5E
$GPGSA,A,3,02,05,06,13,15,20,21,29,30,,,,2.2,1.1,1.8*35
$GNGSA,A,3,02,05,06,13,15,20,21,29,30,,,,2.2,1.1,1.8*2B
$GNGSA,A,3,65,72,75,81,87,88,,,,,,,2.2,1.1,1.8*27
$QZGSA,A,3,01,,,,,,,,,,,,2.2,1.1,1.8*26
$IMGSA,A,3,,,,,,,,,,,,,2.2,1.1,1.8*28
$PGLOR,1,FIX,1.0,1.0*20
$GPRMC,063632.00,A,2912.555903,N,11932.346104,E,000.1,,231016,,,A*7F
$PGLOR,SPL,20161023143630.9,POS,20161023063631.999,29.209265,119.539102,6,6,0,270,3,1.100000*5B
$PGLOR,SPL,20161023143852.2,STATUS,2*3F
$PGLOR,SPL,20161023143852.2,ERR,5*69
$PGLOR,2,NEW,PERFIX,0,PER,1000,QOP,-1,H,LTECO,*29
$PGLOR,0,RID,4752,37,19,16,232725*09
$GPGGA,063853.48,,,,,0,00,999.9,,M,,M,,*61
$PGLOR,6,STA,063853.48,0.000,0.000,-349,98,9999,0,P,F,L,1,C,0,S,0000,0,1,R,0000,TPEF,19,14,LC,,*0C
$PGLOR,1,UNC,063853.48,1000000.000,9999.0,9999.0,0.00,0.00,7070.4,7070.4,0.0*2B
$PGLOR,2,SAT*32
$PGLOR,2,SIO,TxERR,0,RxERR,0,TxCNT,0,RxCNT,0,MLFRMPKT,0,DTMS,382,DTIN,77,80,DTOUT,66,282,HATMD,0*2C
$PGLOR,2,SIO,TxERR,0,RxERR,0,TxCNT,0,RxCNT,0,MLFRMPKT,0,DTMS,382,DTIN,77,80,DTOUT,66,282,HATMD,0*2C
$PGLOR,3,PWR,mA,0.0,RFTm,0,OscTm,0,MeasTm,0,UTC,063853.48*31
$PGLOR,2,PFM,HAL,-,0,0,0,0,RF,-,-180,0.0,0,RTC,,P,STO,P,LTO,P,SW,P,,,OSC,,,*75
$PGLOR,0,NVM,aeopt,AEOPT*03
$GPGSV,3,1,10,13,80,176,,05,54,022,,02,54,117,,15,47,224,*73
$GPGSV,3,2,10,29,42,288,,20,38,297,,30,19,069,,06,16,125,*70
$GPGSV,3,3,10,07,06,043,,21,04,313,*78
$GLGSV,2,1,08,88,75,263,,65,49,000,,87,39,171,,66,37,276,*60
$GLGSV,2,2,08,81,28,328,,72,14,042,,75,10,106,,74,09,058,*62
$QZGSV,1,1,01,01,68,052,*5C
$GPGSA,A,1,,,,,,,,,,,,,140.0,99.0,99.0*35
$GNGSA,A,1,,,,,,,,,,,,,140.0,99.0,99.0*2B
$GNGSA,A,1,,,,,,,,,,,,,140.0,99.0,99.0*2B
$QZGSA,A,1,,,,,,,,,,,,,140.0,99.0,99.0*29
$IMGSA,A,1,,,,,,,,,,,,,140.0,99.0,99.0*26
$GPRMC,063853.48,V,,,,,,,231016,,,N*7D
$GPGGA,063854.26,,,,,0,00,999.9,,M,,M,,*6E
$PGLOR,6,STA,063854.26,0.000,0.000,-349,98,9999,0,P,F,L,1,C,0,S,0000,0,1,R,0000,TPEF,19,792,LC,,*3A
$PGLOR,1,UNC,063854.26,1000000.000,9999.0,9999.0,0.00,0.00,7070.4,7070.4,0.0*24
$PGLOR,2,SAT,1,1,G02,033,11*6B
$PGLOR,2,SIO,TxERR,0,RxERR,0,TxCNT,0,RxCNT,0,MLFRMPKT,0,DTMS,727,DTIN,22,29,DTOUT,258,580,HATMD,-51*07
$PGLOR,2,SIO,TxERR,0,RxERR,0,TxCNT,0,RxCNT,0,MLFRMPKT,0,DTMS,727,DTIN,22,29,DTOUT,258,580,HATMD,-51*07
$PGLOR,3,PWR,mA,0.0,RFTm,0,OscTm,0,MeasTm,0,UTC,063854.26*3E
$GPGSV,3,1,10,02,54,117,33,13,80,176,,05,54,022,,15,47,224,*73
$GPGSV,3,2,10,29,42,288,,20,38,297,,30,19,069,,06,16,125,*70
$GPGSV,3,3,10,07,06,043,,21,04,313,*78
$GLGSV,2,1,08,88,75,263,,65,49,000,,87,39,171,,66,37,276,*60
$GLGSV,2,2,08,81,28,328,,72,14,042,,75,10,106,,74,09,058,*62
$QZGSV,1,1,01,01,68,052,*5C
$GPGSA,A,1,,,,,,,,,,,,,140.0,99.0,99.0*35
$GNGSA,A,1,,,,,,,,,,,,,140.0,99.0,99.0*2B
$GNGSA,A,1,,,,,,,,,,,,,140.0,99.0,99.0*2B
$QZGSA,A,1,,,,,,,,,,,,,140.0,99.0,99.0*29
$IMGSA,A,1,,,,,,,,,,,,,140.0,99.0,99.0*26
$GPRMC,063854.26,V,,,,,,,231016,,,N*72
$GPGGA,063854.48,,,,,0,00,999.9,,M,,M,,*66
$PGLOR,6,STA,063854.48,0.000,0.000,-349,98,9999,0,P,F,L,1,C,0,S,0000,0,1,R,0000,TPEF,19,1014,LC,,*0A
$PGLOR,1,UNC,063854.48,1000000.000,9999.0,9999.0,0.00,0.00,7070.4,7070.4,0.0*2C
$PGLOR,2,SAT,1,1,G02,033,11,G15,030,11,G29,031,11,G06,028,11*32
$PGLOR,2,SIO,TxERR,0,RxERR,0,TxCNT,17091,RxCNT,2545,MLFRMPKT,0,DTMS,189,DTIN,13,16,DTOUT,18,118,HATMD,-84*08
$PGLOR,2,SIO,TxERR,0,RxERR,0,TxCNT,17091,RxCNT,2545,MLFRMPKT,0,DTMS,189,DTIN,13,16,DTOUT,18,118,HATMD,-84*08
$PGLOR,3,PWR,mA,30.9,RFTm,1005,OscTm,1014,MeasTm,1014,UTC,063854.48*38
$GPGSV,3,1,10,02,54,117,33,15,47,224,30,29,42,288,31,06,16,125,28*7E
$GPGSV,3,2,10,13,80,176,,05,54,022,,20,38,297,,30,19,069,*76
$GPGSV,3,3,10,07,06,043,,21,04,313,*78
$GLGSV,2,1,08,88,75,263,,65,49,000,,87,39,171,,66,37,276,*60
$GLGSV,2,2,08,81,28,328,,72,14,042,,75,10,106,,74,09,058,*62
$QZGSV,1,1,01,01,68,052,*5C
$GPGSA,A,1,,,,,,,,,,,,,140.0,99.0,99.0*35
$GNGSA,A,1,,,,,,,,,,,,,140.0,99.0,99.0*2B
$GNGSA,A,1,,,,,,,,,,,,,140.0,99.0,99.0*2B
$QZGSA,A,1,,,,,,,,,,,,,140.0,99.0,99.0*29
$IMGSA,A,1,,,,,,,,,,,,,140.0,99.0,99.0*26
$GPRMC,063854.48,V,,,,,,,231016,,,N*7A
$GPGGA,063855.48,,,,,0,00,999.9,,M,,M,,*67
$PGLOR,6,STA,063855.48,0.000,0.000,-349,98,9999,0,P,F,L,1,C,0,S,0000,0,1,R,0000,TPEF,19,2014,LC,,*08
$PGLOR,1,UNC,063855.48,1000000.000,9999.0,9999.0,0.00,0.00,7070.4,7070.4,0.0*2D
$PGLOR,2,SAT,1,1,G02,036,13,G15,032,13,G29,032,13,G06,031,13*3E
$PGLOR,2,SIO,TxERR,0,RxERR,0,TxCNT,252,RxCNT,2792,MLFRMPKT,0,DTMS,1063,DTIN,21,31,DTOUT,539,1030,HATMD,-21*38
$PGLOR,2,SIO,TxERR,0,RxERR,0,TxCNT,252,RxCNT,2792,MLFRMPKT,0,DTMS,1063,DTIN,21,31,DTOUT,539,1030,HATMD,-21*38
$PGLOR,3,PWR,mA,31.0,RFTm,1061,OscTm,1000,MeasTm,1000,UTC,063855.48*33
$GPGSV,3,1,10,02,54,117,34,15,47,224,30,29,42,288,31,06,16,125,29*78
$GPGSV,3,2,10,13,80,176,,05,54,022,,20,38,297,,30,19,069,*76
$GPGSV,3,3,10,07,06,043,,21,04,313,*78
$GLGSV,2,1,08,88,75,263,,65,49,000,,87,39,171,,66,37,276,*60
$GLGSV,2,2,08,81,28,328,,72,14,042,,75,10,106,,74,09,058,*62
$QZGSV,1,1,01,01,68,052,*5C
$GPGSA,A,1,,,,,,,,,,,,,140.0,99.0,99.0*35
$GNGSA,A,1,,,,,,,,,,,,,140.0,99.0,99.0*2B
$GNGSA,A,1,,,,,,,,,,,,,140.0,99.0,99.0*2B
$QZGSA,A,1,,,,,,,,,,,,,140.0,99.0,99.0*29
$IMGSA,A,1,,,,,,,,,,,,,140.0,99.0,99.0*26
$GPRMC,063855.48,V,,,,,,,231016,,,N*7B
$GPGGA,063856.48,,,,,0,00,999.9,,M,,M,,*64
$PGLOR,6,STA,063856.48,0.000,0.000,-349,98,9999,0,P,F,L,1,C,0,S,0000,0,1,R,0000,TPEF,19,3014,LC,,*0A
$PGLOR,1,UNC,063856.48,1000000.000,9999.0,9999.0,0.00,0.00,7070.4,7070.4,0.0*2E
$PGLOR,2,SAT,2,1,G13,028,13,Q01,021,13,G05,026,13,G02,035,13,G15,032,13,G29,032,13*27
$PGLOR,2,SAT,2,2,G20,025,13,G30,018,10,G06,031,13*63
$PGLOR,2,SIO,TxERR,0,RxERR,0,TxCNT,751,RxCNT,1971,MLFRMPKT,0,DTMS,990,DTIN,110,115,DTOUT,258,875,HATMD,-31*37
$PGLOR,2,SIO,TxERR,0,RxERR,0,TxCNT,751,RxCNT,1971,MLFRMPKT,0,DTMS,990,DTIN,110,115,DTOUT,258,875,HATMD,-31*37
$PGLOR,3,PWR,mA,30.0,RFTm,991,OscTm,1000,MeasTm,1000,UTC,063856.48*06
$GPGSV,3,1,10,13,80,176,28,05,54,022,26,02,54,117,35,15,47,224,32*7A
$GPGSV,3,2,10,29,42,288,32,20,38,297,25,30,19,069,18,06,16,125,31*7D
$GPGSV,3,3,10,07,06,043,,21,04,313,*78
$GLGSV,2,1,08,88,75,263,,65,49,000,,87,39,171,,66,37,276,*60
$GLGSV,2,2,08,81,28,328,,72,14,042,,75,10,106,,74,09,058,*62
$QZGSV,1,1,01,01,68,052,21*5F
$GPGSA,A,1,,,,,,,,,,,,,140.0,99.0,99.0*35
$GNGSA,A,1,,,,,,,,,,,,,140.0,99.0,99.0*2B
$GNGSA,A,1,,,,,,,,,,,,,140.0,99.0,99.0*2B
$QZGSA,A,1,,,,,,,,,,,,,140.0,99.0,99.0*29
$IMGSA,A,1,,,,,,,,,,,,,140.0,99.0,99.0*26
$GPRMC,063856.48,V,,,,,,,231016,,,N*78
