$GPGGA,060947.00,2912.680607,N,11932.222854,E,1,14,0.6,168.9,M,6.5,M,,*52
$PGLOR,6,STA,060947.00,-0.010,0.000,-360,1,6,3,P,F,L,0,C,3,S,0002,12,5,R,33F4,TPEF,22,67409,LC,,*51
$PGLOR,1,UNC,060947.00,0.011,6.0,3.3,0.14,5.10,4.9,3.5,3.4*2A
$PGLOR,2,SAT,3,1,Q01,024,1B,R24,025,1F,G13,033,17,G02,031,1F,G05,032,1F,R01,028,1B*5C
$PGLOR,2,SAT,3,2,R23,036,1F,G29,033,1F,G15,031,1F,G20,033,1F,G06,040,1F,R08,019,1B*3E
$PGLOR,2,SAT,3,3,G30,019,10,R17,032,1F*5D
$PGLOR,2,SIO,TxERR,0,RxERR,0,TxCNT,494,RxCNT,3219,MLFRMPKT,0,DTMS,994,DTIN,30,38,DTOUT,653,960,HATMD,14*13
$PGLOR,2,SIO,TxERR,0,RxERR,0,TxCNT,494,RxCNT,3219,MLFRMPKT,0,DTMS,994,DTIN,30,38,DTOUT,653,960,HATMD,14*13
$PGLOR,3,PWR,mA,26.7,RFTm,999,OscTm,1000,MeasTm,1000,UTC,060947.00*00
$GPGSV,4,1,14,13,64,183,38,02,63,094,33,05,59,000,32,29,36,304,37*77
$GPGSV,4,2,14,15,35,216,31,20,31,284,35,06,26,115,40,30,18,083,23*74
$GPGSV,4,3,14,42,49,143,,50,46,136,,07,09,054,,19,01,159,*7E
$GPGSV,4,4,14,12,01,224,,25,00,258,*72
$GLGSV,3,1,09,88,68,318,28,65,57,338,32,87,56,164,37,72,24,033,19*68
$GLGSV,3,2,09,81,15,331,35,74,05,072,,66,31,257,,86,02,156,*68
$GLGSV,3,3,09,75,01,118,*57
$QZGSV,1,1,01,01,69,048,26*52
$GPGSA,A,3,02,05,06,13,15,20,29,30,,,,,1.8,1.0,1.5*33
$GNGSA,A,3,02,05,06,13,15,20,29,30,,,,,1.8,1.0,1.5*2D
$GNGSA,A,3,65,72,81,87,88,,,,,,,,1.8,1.0,1.5*20
$QZGSA,A,3,01,,,,,,,,,,,,1.8,1.0,1.5*23
$IMGSA,A,3,,,,,,,,,,,,,1.8,1.0,1.5*2D
$PGLOR,1,FIX,1.0,1.0*20
$GPRMC,060947.00,A,2912.680607,N,11932.222854,E,002.3,288.3,231016,,,A*51
$PGLOR,SPL,20161023140946.3,POS,20161023060946.999,29.211343,119.537048,6,6,0,175,3,1.100000*5B
$GPGGA,060948.00,2912.680646,N,11932.222077,E,1,14,0.6,168.8,M,6.5,M,,*50
$PGLOR,6,STA,060948.00,-0.010,0.000,-361,1,6,1,P,F,L,0,C,3,S,0002,13,5,R,33F4,TPEF,22,68409,LC,,*53
$PGLOR,1,UNC,060948.00,0.011,6.0,3.2,0.16,6.16,5.0,3.4,-15.9*3D
$PGLOR,2,SAT,3,1,Q01,024,1F,R24,024,1F,G13,032,1F,G02,031,1F,G05,031,1F,R01,028,1F*2E
$PGLOR,2,SAT,3,2,R23,033,17,G29,031,1F,G15,033,1F,G20,031,1F,G06,039,1F,R08,020,1B*4C
$PGLOR,2,SAT,3,3,G30,020,10,R17,030,1F*55
$PGLOR,2,SIO,TxERR,0,RxERR,0,TxCNT,508,RxCNT,3272,MLFRMPKT,0,DTMS,1001,DTIN,24,36,DTOUT,872,964,HATMD,15*2D
$PGLOR,2,SIO,TxERR,0,RxERR,0,TxCNT,508,RxCNT,3272,MLFRMPKT,0,DTMS,1001,DTIN,24,36,DTOUT,872,964,HATMD,15*2D
$PGLOR,3,PWR,mA,26.7,RFTm,1001,OscTm,1000,MeasTm,1000,UTC,060948.00*36
$GPGSV,4,1,14,13,64,183,37,02,63,094,33,05,59,000,32,29,36,304,36*79
$GPGSV,4,2,14,15,35,216,33,20,31,284,35,06,26,115,40,30,18,083,22*77
$GPGSV,4,3,14,42,49,143,,50,46,136,,07,09,054,,19,01,159,*7E
$GPGSV,4,4,14,12,01,224,,25,00,258,*72
$GLGSV,3,1,09,88,68,318,27,65,57,338,31,87,56,164,37,72,24,033,20*6E
$GLGSV,3,2,09,81,15,331,34,66,31,257,,74,05,072,,86,02,156,*69
$GLGSV,3,3,09,75,01,118,*57
$QZGSV,1,1,01,01,69,048,25*51
$GPGSA,A,3,02,05,06,13,15,20,29,30,,,,,1.7,1.0,1.4*3D
$GNGSA,A,3,02,05,06,13,15,20,29,30,,,,,1.7,1.0,1.4*23
$GNGSA,A,3,65,72,81,87,88,,,,,,,,1.7,1.0,1.4*2E
$QZGSA,A,3,01,,,,,,,,,,,,1.7,1.0,1.4*2D
$IMGSA,A,3,,,,,,,,,,,,,1.7,1.0,1.4*23
$PGLOR,1,FIX,1.0,1.0*20
$GPRMC,060948.00,A,2912.680646,N,11932.222077,E,002.3,268.5,231016,,,A*5A
$PGLOR,SPL,20161023140947.3,POS,20161023060947.999,29.211344,119.537035,6,6,0,175,3,1.100000*56
$GPGGA,060949.00,2912.680596,N,11932.221495,E,1,14,0.6,168.6,M,6.5,M,,*5A
$PGLOR,6,STA,060949.00,-0.010,0.000,-358,1,6,1,P,F,L,0,C,3,S,0002,14,5,R,33F4,TPEF,22,69409,LC,,*5E
$PGLOR,1,UNC,060949.00,0.011,6.0,3.2,0.11,3.52,5.3,2.9,-32.5*38
$PGLOR,2,SAT,3,1,Q01,023,1B,R24,024,1F,G13,038,1F,G02,034,1F,G05,030,1B,R01,027,1F*28
$PGLOR,2,SAT,3,2,R23,035,1F,G29,031,1F,G15,033,1F,G20,033,1F,G06,037,1F,R08,019,13*4C
$PGLOR,2,SAT,3,3,G30,021,13,R17,034,1F*53
$PGLOR,2,SIO,TxERR,0,RxERR,0,TxCNT,492,RxCNT,3183,MLFRMPKT,0,DTMS,1014,DTIN,19,39,DTOUT,876,959,HATMD,29*22
$PGLOR,2,SIO,TxERR,0,RxERR,0,TxCNT,492,RxCNT,3183,MLFRMPKT,0,DTMS,1014,DTIN,19,39,DTOUT,876,959,HATMD,29*22
$PGLOR,3,PWR,mA,26.6,RFTm,998,OscTm,1000,MeasTm,1000,UTC,060949.00*0E
$GPGSV,4,1,14,13,64,183,38,02,63,094,34,05,59,000,32,29,36,304,36*71
$GPGSV,4,2,14,15,35,216,33,20,31,284,35,06,26,115,39,30,18,083,22*79
$GPGSV,4,3,14,42,49,143,,50,46,136,,07,09,054,,19,01,159,*7E
$GPGSV,4,4,14,12,01,224,,25,00,258,*72
$GLGSV,3,1,09,88,68,318,27,65,57,338,31,87,56,164,37,72,24,033,20*6E
$GLGSV,3,2,09,81,15,331,34,66,31,257,,74,05,072,,86,02,156,*69
$GLGSV,3,3,09,75,01,118,*57
$QZGSV,1,1,01,01,69,048,25*51
$GPGSA,A,3,02,05,06,13,15,20,29,30,,,,,1.8,1.1,1.5*32
$GNGSA,A,3,02,05,06,13,15,20,29,30,,,,,1.8,1.1,1.5*2C
$GNGSA,A,3,65,72,81,87,88,,,,,,,,1.8,1.1,1.5*21
$QZGSA,A,3,01,,,,,,,,,,,,1.8,1.1,1.5*22
$IMGSA,A,3,,,,,,,,,,,,,1.8,1.1,1.5*2C
$PGLOR,1,FIX,1.0,1.0*20
$GPRMC,060949.00,A,2912.680596,N,11932.221495,E,002.3,247.4,231016,,,A*52
$PGLOR,SPL,20161023140948.3,POS,20161023060948.999,29.211343,119.537025,6,6,0,175,3,1.100000*50
$GPGGA,060950.00,2912.680666,N,11932.220951,E,1,14,0.6,168.5,M,6.5,M,,*59
$PGLOR,6,STA,060950.00,-0.010,0.000,-356,1,6,1,P,F,L,0,C,3,S,0002,15,5,R,33F4,TPEF,22,70409,LC,,*51
$PGLOR,1,UNC,060950.00,0.011,6.0,3.2,0.16,6.17,5.2,2.9,-26.7*35
$PGLOR,2,SAT,3,1,Q01,024,1F,R24,025,1F,G13,040,1F,G02,036,1F,G05,030,1B,R01,026,1F*26
$PGLOR,2,SAT,3,2,R23,037,1F,G29,034,1F,G15,031,1F,G20,032,1F,G06,036,1F,R08,017,13*47
$PGLOR,2,SAT,3,3,G30,020,13,R17,035,1F*53
$PGLOR,2,SIO,TxERR,0,RxERR,0,TxCNT,475,RxCNT,3324,MLFRMPKT,0,DTMS,1004,DTIN,44,61,DTOUT,458,941,HATMD,33*22
$PGLOR,2,SIO,TxERR,0,RxERR,0,TxCNT,475,RxCNT,3324,MLFRMPKT,0,DTMS,1004,DTIN,44,61,DTOUT,458,941,HATMD,33*22
$PGLOR,3,PWR,mA,26.7,RFTm,1002,OscTm,1000,MeasTm,1000,UTC,060950.00*3C
$GPGSV,4,1,14,13,64,183,40,02,63,094,36,05,59,000,32,29,36,304,35*7F
$GPGSV,4,2,14,15,35,216,33,20,31,284,34,06,26,115,39,30,18,083,22*78
$GPGSV,4,3,14,42,49,143,,50,46,136,,07,09,054,,19,01,159,*7E
$GPGSV,4,4,14,12,01,224,,25,00,258,*72
$GLGSV,3,1,09,88,68,318,27,65,57,338,30,87,56,164,37,72,24,033,19*65
$GLGSV,3,2,09,81,15,331,35,66,31,257,,74,05,072,,86,02,156,*68
$GLGSV,3,3,09,75,01,118,*57
$QZGSV,1,1,01,01,69,048,25*51
$GPGSA,A,3,02,05,06,13,15,20,29,30,,,,,1.7,1.0,1.4*3D
$GNGSA,A,3,02,05,06,13,15,20,29,30,,,,,1.7,1.0,1.4*23
$GNGSA,A,3,65,72,81,87,88,,,,,,,,1.7,1.0,1.4*2E
$QZGSA,A,3,01,,,,,,,,,,,,1.7,1.0,1.4*2D
$IMGSA,A,3,,,,,,,,,,,,,1.7,1.0,1.4*23
$PGLOR,1,FIX,1.0,1.0*20
$GPRMC,060950.00,A,2912.680666,N,11932.220951,E,002.3,261.8,231016,,,A*5A
$PGLOR,SPL,20161023140949.3,POS,20161023060949.999,29.211344,119.537016,6,6,0,175,3,1.100000*57
$GPGGA,060951.00,2912.680943,N,11932.220313,E,1,14,0.6,168.5,M,6.5,M,,*5C
$PGLOR,6,STA,060951.00,-0.010,0.000,-357,1,6,1,P,F,L,0,C,3,S,0002,16,5,R,33F4,TPEF,22,71409,LC,,*53
$PGLOR,1,UNC,060951.00,0.011,6.0,3.1,0.17,5.75,4.8,3.6,-11.6*31
$PGLOR,2,SAT,3,1,Q01,024,13,R24,026,1B,G13,038,1F,G02,036,1F,G05,030,1F,R01,026,1B*5B
$PGLOR,2,SAT,3,2,R23,035,1F,G29,032,13,G15,031,1F,G20,030,1F,G06,039,1F,R08,020,1B*4E
$PGLOR,2,SAT,3,3,G30,022,1F,R17,032,1F,G07,011,30*7C
$PGLOR,2,SIO,TxERR,0,RxERR,0,TxCNT,549,RxCNT,3208,MLFRMPKT,0,DTMS,996,DTIN,56,73,DTOUT,835,924,HATMD,29*1F
$PGLOR,2,SIO,TxERR,0,RxERR,0,TxCNT,549,RxCNT,3208,MLFRMPKT,0,DTMS,996,DTIN,56,73,DTOUT,835,924,HATMD,29*1F
$PGLOR,3,PWR,mA,26.6,RFTm,998,OscTm,1000,MeasTm,1000,UTC,060951.00*07
$GPGSV,4,1,14,13,64,183,40,02,63,094,36,05,59,000,31,29,36,304,35*7C
$GPGSV,4,2,14,15,35,216,33,20,31,284,34,06,26,115,39,30,18,083,22*78
$GPGSV,4,3,14,07,09,054,11,42,49,143,,50,46,136,,19,01,159,*7E
$GPGSV,4,4,14,12,01,224,,25,00,258,*72
$GLGSV,3,1,09,88,68,318,27,65,57,338,30,87,56,164,37,72,24,033,20*6F
$GLGSV,3,2,09,81,15,331,34,66,31,257,,74,05,072,,86,02,156,*69
$GLGSV,3,3,09,75,01,118,*57
$QZGSV,1,1,01,01,69,048,25*51
$GPGSA,A,3,02,05,06,13,15,20,29,30,,,,,1.8,1.0,1.5*33
$GNGSA,A,3,02,05,06,13,15,20,29,30,,,,,1.8,1.0,1.5*2D
$GNGSA,A,3,65,72,81,87,88,,,,,,,,1.8,1.0,1.5*20
$QZGSA,A,3,01,,,,,,,,,,,,1.8,1.0,1.5*23
$IMGSA,A,3,,,,,,,,,,,,,1.8,1.0,1.5*2D
$PGLOR,1,FIX,1.0,1.0*20
$GPRMC,060951.00,A,2912.680943,N,11932.220313,E,002.3,285.0,231016,,,A*5D
$PGLOR,SPL,20161023140950.3,POS,20161023060950.999,29.211349,119.537005,6,6,0,175,3,1.100000*58
$GPGGA,060952.00,2912.681039,N,11932.220337,E,1,14,0.6,168.4,M,6.5,M,,*5D
$PGLOR,6,STA,060952.00,-0.010,0.000,-358,1,6,1,P,F,L,0,C,3,S,0002,16,5,R,33F4,TPEF,22,72409,LC,,*5C
$PGLOR,1,UNC,060952.00,0.012,6.0,3.1,0.17,48.35,4.7,3.7,-17.1*03
$PGLOR,2,SAT,3,1,Q01,028,1F,R24,028,1F,G13,035,1F,G02,038,1F,G05,027,1F,R01,024,1B*2F
$PGLOR,2,SAT,3,2,R23,031,1F,G29,028,13,G15,028,1F,G20,028,13,G06,035,1F,R08,020,1B*39
$PGLOR,2,SAT,3,3,G30,029,1F,R17,034,1F*2E
$PGLOR,2,SIO,TxERR,0,RxERR,0,TxCNT,474,RxCNT,3306,MLFRMPKT,0,DTMS,1003,DTIN,41,59,DTOUT,509,942,HATMD,32*2D
$PGLOR,2,SIO,TxERR,0,RxERR,0,TxCNT,474,RxCNT,3306,MLFRMPKT,0,DTMS,1003,DTIN,41,59,DTOUT,509,942,HATMD,32*2D
$PGLOR,3,PWR,mA,26.7,RFTm,1002,OscTm,1000,MeasTm,1000,UTC,060952.00*3E
$GPGSV,4,1,14,13,64,183,39,02,63,094,38,05,59,000,31,29,36,304,34*7D
$GPGSV,4,2,14,15,35,216,32,20,31,284,33,06,26,115,39,30,18,083,29*75
$GPGSV,4,3,14,07,09,054,10,42,49,143,,50,46,136,,19,01,159,*7F
$GPGSV,4,4,14,12,01,224,,25,00,258,*72
$GLGSV,3,1,09,88,68,318,28,65,57,338,29,87,56,164,36,72,24,033,20*69
$GLGSV,3,2,09,81,15,331,34,66,31,257,,74,05,072,,86,02,156,*69
$GLGSV,3,3,09,75,01,118,*57
$QZGSV,1,1,01,01,69,048,28*5C
$GPGSA,A,3,02,05,06,13,15,20,29,30,,,,,1.6,1.0,1.3*3B
$GNGSA,A,3,02,05,06,13,15,20,29,30,,,,,1.6,1.0,1.3*25
$GNGSA,A,3,65,72,81,87,88,,,,,,,,1.6,1.0,1.3*28
$QZGSA,A,3,01,,,,,,,,,,,,1.6,1.0,1.3*2B
$IMGSA,A,3,,,,,,,,,,,,,1.6,1.0,1.3*25
$PGLOR,1,FIX,1.0,1.0*20
$GPRMC,060952.00,A,2912.681039,N,11932.220337,E,001.4,285.0,231016,,,A*59
$PGLOR,SPL,20161023140951.3,POS,20161023060951.999,29.211351,119.537006,6,6,0,175,3,1.100000*52
$GPGGA,060953.00,2912.681641,N,11932.220697,E,1,14,0.6,168.4,M,6.5,M,,*5A
$PGLOR,6,STA,060953.00,-0.010,0.000,-357,1,6,1,P,F,L,0,C,3,S,0002,16,5,R,33F4,TPEF,22,73409,LC,,*53
$PGLOR,1,UNC,060953.00,0.013,6.0,3.1,0.49,13.89,5.3,2.8,-73.5*0C
$PGLOR,2,SAT,3,1,Q01,030,1F,R24,025,1F,G13,033,17,G02,040,1F,G05,035,1F,R01,032,1B*57
$PGLOR,2,SAT,3,2,R23,029,1B,G29,030,13,G15,027,1F,G20,027,1F,G06,035,1F,R08,020,1B*48
$PGLOR,2,SAT,3,3,G30,030,1F,R17,030,1B*26
$PGLOR,2,SIO,TxERR,0,RxERR,0,TxCNT,527,RxCNT,3201,MLFRMPKT,0,DTMS,998,DTIN,47,65,DTOUT,844,933,HATMD,30*1F
$PGLOR,2,SIO,TxERR,0,RxERR,0,TxCNT,527,RxCNT,3201,MLFRMPKT,0,DTMS,998,DTIN,47,65,DTOUT,844,933,HATMD,30*1F
$PGLOR,3,PWR,mA,26.6,RFTm,998,OscTm,1000,MeasTm,1000,UTC,060953.00*05
$GPGSV,4,1,14,13,64,183,39,02,63,094,40,05,59,000,35,29,36,304,34*76
$GPGSV,4,2,14,15,35,216,32,20,31,284,33,06,26,115,38,30,18,083,30*7C
$GPGSV,4,3,14,07,09,054,08,42,49,143,,50,46,136,,19,01,159,*76
$GPGSV,4,4,14,12,01,224,,25,00,258,*72
$GLGSV,3,1,09,88,68,318,27,65,57,338,32,87,56,164,35,72,24,033,20*6F
$GLGSV,3,2,09,81,15,331,34,66,31,257,,74,05,072,,86,02,156,*69
$GLGSV,3,3,09,75,01,118,*57
$QZGSV,1,1,01,01,69,048,30*55
$GPGSA,A,3,02,05,06,13,15,20,29,30,,,,,1.9,1.1,1.5*33
$GNGSA,A,3,02,05,06,13,15,20,29,30,,,,,1.9,1.1,1.5*2D
$GNGSA,A,3,65,72,81,87,88,,,,,,,,1.9,1.1,1.5*20
$QZGSA,A,3,01,,,,,,,,,,,,1.9,1.1,1.5*23
$IMGSA,A,3,,,,,,,,,,,,,1.9,1.1,1.5*2D
$PGLOR,1,FIX,1.0,1.0*20
$GPRMC,060953.00,A,2912.681641,N,11932.220697,E,001.9,194.4,231016,,,A*54
$PGLOR,SPL,20161023140952.3,POS,20161023060952.999,29.211361,119.537012,6,6,0,175,3,1.100000*54
$GPGGA,060954.00,2912.681628,N,11932.220867,E,1,14,1.2,168.4,M,6.5,M,,*56
$PGLOR,6,STA,060954.00,-0.010,0.000,-356,1,12,3,P,F,L,0,C,2,S,0002,16,5,R,33F4,TPEF,22,74409,LC,,*64
$PGLOR,1,UNC,060954.00,0.015,12.0,3.1,0.27,17.83,10.4,6.0,-73.4*00
$PGLOR,2,SAT,3,1,Q01,032,1F,R24,024,1B,G13,033,1F,G02,036,1F,G05,039,1F,R01,034,1B*2A
$PGLOR,2,SAT,3,2,R23,032,1B,G29,029,13,G15,023,13,G20,025,1B,G06,040,1F,R08,020,1F*3B
$PGLOR,2,SAT,3,3,G30,028,1F,R17,028,1B*26
$PGLOR,2,SIO,TxERR,0,RxERR,0,TxCNT,488,RxCNT,3252,MLFRMPKT,0,DTMS,1000,DTIN,50,71,DTOUT,507,930,HATMD,30*2E
$PGLOR,2,SIO,TxERR,0,RxERR,0,TxCNT,488,RxCNT,3252,MLFRMPKT,0,DTMS,1000,DTIN,50,71,DTOUT,507,930,HATMD,30*2E
$PGLOR,3,PWR,mA,26.7,RFTm,1001,OscTm,1000,MeasTm,1000,UTC,060954.00*3B
$GPGSV,4,1,14,13,64,183,38,02,63,094,39,05,59,000,39,29,36,304,33*72
$GPGSV,4,2,14,15,35,216,31,20,31,284,32,06,26,115,40,30,18,083,30*71
$GPGSV,4,3,14,42,49,143,,50,46,136,,07,09,054,,19,01,159,*7E
$GPGSV,4,4,14,12,01,224,,25,00,258,*72
$GLGSV,3,1,09,88,68,318,27,65,57,338,34,87,56,164,35,72,24,033,20*69
$GLGSV,3,2,09,81,15,331,33,66,31,257,,74,05,072,,86,02,156,*6E
$GLGSV,3,3,09,75,01,118,*57
$QZGSV,1,1,01,01,69,048,32*57
$GPGSA,A,3,02,05,06,13,15,20,29,30,,,,,3.7,2.4,2.9*36
$GNGSA,A,3,02,05,06,13,15,20,29,30,,,,,3.7,2.4,2.9*28
$GNGSA,A,3,65,72,81,87,88,,,,,,,,3.7,2.4,2.9*25
$QZGSA,A,3,01,,,,,,,,,,,,3.7,2.4,2.9*26
$IMGSA,A,3,,,,,,,,,,,,,3.7,2.4,2.9*28
$PGLOR,1,FIX,1.0,1.0*20
$GPRMC,060954.00,A,2912.681628,N,11932.220867,E,001.6,197.2,231016,,,A*57
$PGLOR,SPL,20161023140953.3,POS,20161023060953.999,29.211360,119.537014,12,12,0,175,3,1.100000*53
$GPGGA,060955.00,2912.681629,N,11932.221183,E,1,14,0.6,168.4,M,6.5,M,,*51
$PGLOR,6,STA,060955.00,-0.010,0.000,-357,1,6,1,P,F,L,0,C,3,S,0002,16,5,R,33F4,TPEF,22,75409,LC,,*53
$PGLOR,1,UNC,060955.00,0.015,6.0,3.1,0.26,82.90,5.0,3.3,-69.8*0A
$PGLOR,2,SAT,3,1,Q01,035,1F,R24,024,1B,G13,037,1F,G02,031,17,G05,040,1F,R01,034,1F*55
$PGLOR,2,SAT,3,2,R23,031,1F,G29,029,1F,G15,019,13,G20,026,1B,G06,040,1F,R08,021,1F*42
$PGLOR,2,SAT,3,3,G30,029,1F,R17,028,1B*27
$PGLOR,2,SIO,TxERR,0,RxERR,0,TxCNT,545,RxCNT,3147,MLFRMPKT,0,DTMS,1001,DTIN,44,59,DTOUT,837,937,HATMD,31*2F
$PGLOR,2,SIO,TxERR,0,RxERR,0,TxCNT,545,RxCNT,3147,MLFRMPKT,0,DTMS,1001,DTIN,44,59,DTOUT,837,937,HATMD,31*2F
$PGLOR,3,PWR,mA,26.7,RFTm,999,OscTm,1000,MeasTm,1000,UTC,060955.00*03
$GPGSV,4,1,14,13,64,183,38,02,63,094,38,05,59,000,40,29,36,304,33*7D
$GPGSV,4,2,14,15,35,216,30,20,31,284,31,06,26,115,40,30,18,083,29*7B
$GPGSV,4,3,14,42,49,143,,50,46,136,,07,09,054,,19,01,159,*7E
$GPGSV,4,4,14,12,01,224,,25,00,258,*72
$GLGSV,3,1,09,88,68,318,27,65,57,338,34,87,56,164,35,72,24,033,21*68
$GLGSV,3,2,09,81,15,331,33,66,31,257,,74,05,072,,86,02,156,*6E
$GLGSV,3,3,09,75,01,118,*57
$QZGSV,1,1,01,01,69,048,35*50
$GPGSA,A,3,02,05,06,13,15,20,29,30,,,,,2.1,1.2,1.7*39
$GNGSA,A,3,02,05,06,13,15,20,29,30,,,,,2.1,1.2,1.7*27
$GNGSA,A,3,65,72,81,87,88,,,,,,,,2.1,1.2,1.7*2A
$QZGSA,A,3,01,,,,,,,,,,,,2.1,1.2,1.7*29
$IMGSA,A,3,,,,,,,,,,,,,2.1,1.2,1.7*27
$PGLOR,1,FIX,1.0,1.0*20
$GPRMC,060955.00,A,2912.681629,N,11932.221183,E,000.0,197.2,231016,,,A*52
$PGLOR,SPL,20161023140954.3,POS,20161023060954.999,29.211360,119.537020,6,6,0,175,3,1.100000*54
$GPGGA,060956.00,2912.681544,N,11932.221438,E,1,14,0.8,168.4,M,6.5,M,,*51
$PGLOR,6,STA,060956.00,-0.010,0.000,-357,1,8,1,P,F,L,0,C,3,S,0002,16,5,R,33F4,TPEF,22,76409,LC,,*5D
$PGLOR,1,UNC,060956.00,0.015,8.0,3.2,0.19,101.89,6.5,4.6,-87.9*3F
$PGLOR,2,SAT,3,1,Q01,035,1F,R24,027,1B,G13,035,1F,G02,031,1F,G05,039,1F,R01,034,1F*2B
$PGLOR,2,SAT,3,2,R23,030,1F,G29,027,17,G15,018,1B,G20,025,1B,G06,039,1F,R08,020,13*35
$PGLOR,2,SAT,3,3,G30,029,1F,R17,029,1B*26
$PGLOR,2,SIO,TxERR,0,RxERR,0,TxCNT,472,RxCNT,3260,MLFRMPKT,0,DTMS,999,DTIN,45,64,DTOUT,506,936,HATMD,30*15
$PGLOR,2,SIO,TxERR,0,RxERR,0,TxCNT,472,RxCNT,3260,MLFRMPKT,0,DTMS,999,DTIN,45,64,DTOUT,506,936,HATMD,30*15
$PGLOR,3,PWR,mA,26.7,RFTm,1000,OscTm,1000,MeasTm,1000,UTC,060956.00*38
$GPGSV,4,1,14,13,64,183,38,02,63,094,38,05,59,000,40,29,36,304,32*7C
$GPGSV,4,2,14,15,35,216,29,20,31,284,31,06,26,115,40,30,18,083,29*73
$GPGSV,4,3,14,42,49,143,,50,46,136,,07,09,054,,19,01,159,*7E
$GPGSV,4,4,14,12,01,224,,25,00,258,*72
$GLGSV,3,1,09,88,68,318,27,65,57,338,34,87,56,164,34,72,24,033,21*69
$GLGSV,3,2,09,81,15,331,32,66,31,257,,74,05,072,,86,02,156,*6F
$GLGSV,3,3,09,75,01,118,*57
$QZGSV,1,1,01,01,69,048,35*50
$GPGSA,A,3,02,05,06,13,15,20,29,30,,,,,2.2,1.3,1.8*34
$GNGSA,A,3,02,05,06,13,15,20,29,30,,,,,2.2,1.3,1.8*2A
$GNGSA,A,3,65,72,81,87,88,,,,,,,,2.2,1.3,1.8*27
$QZGSA,A,3,01,,,,,,,,,,,,2.2,1.3,1.8*24
$IMGSA,A,3,,,,,,,,,,,,,2.2,1.3,1.8*2A
$PGLOR,1,FIX,1.0,1.0*20
$GPRMC,060956.00,A,2912.681544,N,11932.221438,E,000.1,197.2,231016,,,A*5D
$PGLOR,SPL,20161023140955.3,POS,20161023060955.999,29.211359,119.537024,8,8,0,175,3,1.100000*5A
$GPGGA,060957.00,2912.681466,N,11932.221827,E,1,15,1.2,168.5,M,6.5,M,,*58
$PGLOR,6,STA,060957.00,-0.010,0.000,-357,1,12,1,P,F,L,0,C,3,S,0002,16,5,R,33F4,TPEF,22,77409,LC,,*66
$PGLOR,1,UNC,060957.00,0.016,12.0,3.2,0.21,30.13,9.5,7.3,-80.1*3B
$PGLOR,2,SAT,3,1,Q01,034,1F,R24,028,1B,G13,032,1B,G02,032,1F,G05,038,1F,R01,034,1F*24
$PGLOR,2,SAT,3,2,R23,030,1F,G29,026,1F,G15,017,13,G20,027,1B,G06,039,1F,R08,020,10*3A
$PGLOR,2,SAT,3,3,G30,029,1F,R17,028,1F,R10,014,30*6A
$PGLOR,2,SIO,TxERR,0,RxERR,0,TxCNT,542,RxCNT,3209,MLFRMPKT,0,DTMS,1007,DTIN,46,66,DTOUT,848,942,HATMD,37*25
$PGLOR,2,SIO,TxERR,0,RxERR,0,TxCNT,542,RxCNT,3209,MLFRMPKT,0,DTMS,1007,DTIN,46,66,DTOUT,848,942,HATMD,37*25
$PGLOR,3,PWR,mA,26.7,RFTm,1008,OscTm,1000,MeasTm,1000,UTC,060957.00*31
$GPGSV,3,1,12,13,64,183,37,02,63,094,37,05,59,000,40,29,36,304,32*7D
$GPGSV,3,2,12,15,35,216,27,20,31,284,30,06,26,115,40,30,18,083,29*7D
$GPGSV,3,3,12,07,09,054,,19,01,159,,12,01,224,,25,00,258,*7F
$GLGSV,3,1,09,88,68,318,28,65,57,338,34,87,56,164,34,72,24,033,21*66
$GLGSV,3,2,09,81,15,331,32,74,05,072,14,66,31,257,,86,02,156,*6A
$GLGSV,3,3,09,75,01,118,*57
$QZGSV,1,1,01,01,69,048,35*50
$GPGSA,A,3,02,05,06,13,15,20,29,30,,,,,2.0,1.4,1.4*3D
$GNGSA,A,3,02,05,06,13,15,20,29,30,,,,,2.0,1.4,1.4*23
$GNGSA,A,3,65,72,74,81,87,88,,,,,,,2.0,1.4,1.4*2D
$QZGSA,A,3,01,,,,,,,,,,,,2.0,1.4,1.4*2D
$IMGSA,A,3,,,,,,,,,,,,,2.0,1.4,1.4*23
$PGLOR,1,FIX,1.0,1.0*20
$GPRMC,060957.00,A,2912.681466,N,11932.221827,E,001.1,197.2,231016,,,A*5E
$PGLOR,SPL,20161023140956.3,POS,20161023060956.999,29.211358,119.537030,12,12,0,175,3,1.100000*5E
$PGLOR,SPL,20161023140957.0,STATUS,2*3A
$PGLOR,NET,0.3,,0.3,,20.0,SSD,,A,0*30
$PGLOR,SPL,20161023140957.0,ERR,5*6C
$GPGGA,060958.00,2912.681353,N,11932.222471,E,1,13,1.2,168.7,M,6.5,M,,*5E
$PGLOR,6,STA,060958.00,-0.010,0.000,-358,1,12,1,P,F,L,0,C,3,S,0002,16,5,R,33F4,TPEF,22,78409,LC,,*69
$PGLOR,1,UNC,060958.00,0.017,12.0,3.3,0.24,21.64,9.1,7.9,-40.1*33
$PGLOR,2,SAT,3,1,Q01,033,1F,R24,029,1F,G13,030,1F,G02,033,1F,G05,037,1B,R01,033,1F*2D
$PGLOR,2,SAT,3,2,R23,029,1F,G29,026,1F,G15,012,10,G20,028,1B,G06,038,1F,R08,020,10*3A
$PGLOR,2,SAT,3,3,G30,030,1F,R17,027,1F,R10,009,30*61
$PGLOR,2,SIO,TxERR,0,RxERR,0,TxCNT,485,RxCNT,2637,MLFRMPKT,0,DTMS,927,DTIN,43,59,DTOUT,837,873,HATMD,-36*33
$PGLOR,2,SIO,TxERR,0,RxERR,0,TxCNT,485,RxCNT,2637,MLFRMPKT,0,DTMS,927,DTIN,43,59,DTOUT,837,873,HATMD,-36*33
$PGLOR,3,PWR,mA,13.9,RFTm,458,OscTm,1000,MeasTm,1000,UTC,060958.00*06
$GPGSV,3,1,12,13,64,183,36,02,63,094,37,05,59,000,39,29,36,304,31*71
$GPGSV,3,2,12,15,35,216,26,20,31,284,30,06,26,115,40,30,18,083,30*74
$GPGSV,3,3,12,07,09,054,,19,01,159,,12,01,224,,25,00,258,*7F
$GLGSV,3,1,09,88,68,318,29,65,57,338,34,87,56,164,33,72,24,033,20*61
$GLGSV,3,2,09,81,15,331,31,74,05,072,13,66,31,257,,86,02,156,*6E
$GLGSV,3,3,09,75,01,118,*57
$QZGSV,1,1,01,01,69,048,35*50
$GPGSA,A,3,02,05,06,13,20,29,30,,,,,,2.0,1.3,1.4*3E
$GNGSA,A,3,02,05,06,13,20,29,30,,,,,,2.0,1.3,1.4*20
$GNGSA,A,3,65,72,81,87,88,,,,,,,,2.0,1.3,1.4*29
$QZGSA,A,3,01,,,,,,,,,,,,2.0,1.3,1.4*2A
$IMGSA,A,3,,,,,,,,,,,,,2.0,1.3,1.4*24
$PGLOR,1,FIX,1.0,1.0*20
$GPRMC,060958.00,A,2912.681353,N,11932.222471,E,001.0,082.5,231016,,,A*5F
$PGLOR,SPL,20161023140957.2,POS,20161023060957.999,29.211356,119.537041,12,12,0,175,3,1.100000*57
