$GPGGA,071108.00,2912.406227,N,11932.057850,E,1,13,0.6,59.5,M,6.5,M,,*67
$PGLOR,6,STA,071108.00,-0.005,0.000,-348,1,6,1,P,F,L,0,C,3,S,0002,2,3,R,33F4,TPEF,22,56712,LC,,*62
$PGLOR,1,UNC,071108.00,0.028,6.0,5.1,0.34,180.00,4.9,3.4,9.3*24
$PGLOR,2,SAT,3,1,G13,024,1F,Q01,009,10,R24,027,1F,G15,038,1F,G05,019,1F,G20,037,1F*4E
$PGLOR,2,SAT,3,2,R17,037,1F,R02,035,33,G29,029,1B,G02,019,1F,R01,021,3F,R11,009,30*31
$PGLOR,2,SAT,3,3,G21,014,33,G24,015,30,G06,014,10,R03,024,33*27
$PGLOR,2,SIO,TxERR,0,RxERR,0,TxCNT,541,RxCNT,3271,MLFRMPKT,0,DTMS,1000,DTIN,50,72,DTOUT,632,925,HATMD,32*2B
$PGLOR,2,SIO,TxERR,0,RxERR,0,TxCNT,541,RxCNT,3271,MLFRMPKT,0,DTMS,1000,DTIN,50,72,DTOUT,632,925,HATMD,32*2B
$PGLOR,3,PWR,mA,26.9,RFTm,998,OscTm,1000,MeasTm,1000,UTC,071108.00*0C
$GPGSV,3,1,11,13,82,037,26,15,61,241,39,05,48,043,22,20,45,313,38*7A
$GPGSV,3,2,11,29,42,267,30,02,41,132,22,30,17,055,11,21,15,317,16*72
$GPGSV,3,3,11,24,10,183,15,06,05,134,14,18,02,279,*47
$GLGSV,3,1,10,88,63,216,28,81,42,317,37,66,42,298,35,65,39,020,21*69
$GLGSV,3,2,10,75,19,091,11,76,07,146,09,67,05,258,24,87,21,173,*6F
$GLGSV,3,3,10,74,09,042,,72,04,054,*68
$QZGSV,1,1,01,01,69,057,14*5D
$GPGSA,A,3,02,05,06,13,15,20,21,24,29,,,,3.6,1.3,3.3*3E
$GNGSA,A,3,02,05,06,13,15,20,21,24,29,,,,3.6,1.3,3.3*20
$GNGSA,A,3,65,67,81,88,,,,,,,,,3.6,1.3,3.3*20
$QZGSA,A,3,,,,,,,,,,,,,3.6,1.3,3.3*29
$IMGSA,A,3,,,,,,,,,,,,,3.6,1.3,3.3*26
$PGLOR,1,FIX,1.0,1.0*20
$GPRMC,071108.00,A,2912.406227,N,11932.057850,E,000.3,,231016,,,A*71
$PGLOR,SPL,20161023151107.4,POS,20161023071108.000,29.206770,119.534298,6,6,0,66,5,1.100000*61
$GPGGA,071109.00,2912.406234,N,11932.057844,E,1,12,1.2,59.5,M,6.5,M,,*65
$PGLOR,6,STA,071109.00,-0.005,0.000,-348,1,12,0,P,F,L,0,C,2,S,0002,2,3,R,33F4,TPEF,22,57712,LC,,*57
$PGLOR,1,UNC,071109.00,0.028,12.0,5.2,3.02,180.00,10.5,5.8,-1.2*02
$PGLOR,2,SAT,3,1,G13,026,1F,R24,027,1F,G15,038,1F,G05,018,1F,G20,038,17,R17,035,1F*4E
$PGLOR,2,SAT,3,2,G29,027,17,R02,033,33,G02,019,1B,R01,018,3B,R11,015,30,G30,011,10*29
$PGLOR,2,SAT,3,3,G21,014,33,G24,009,30,R03,024,33*73
$PGLOR,2,SIO,TxERR,0,RxERR,0,TxCNT,486,RxCNT,3364,MLFRMPKT,0,DTMS,999,DTIN,39,54,DTOUT,855,948,HATMD,31*10
$PGLOR,2,SIO,TxERR,0,RxERR,0,TxCNT,486,RxCNT,3364,MLFRMPKT,0,DTMS,999,DTIN,39,54,DTOUT,855,948,HATMD,31*10
$PGLOR,3,PWR,mA,26.9,RFTm,1002,OscTm,1000,MeasTm,1000,UTC,071109.00*36
$GPGSV,3,1,11,13,82,037,26,15,61,241,39,05,48,043,21,20,45,313,38*79
$GPGSV,3,2,11,29,42,267,29,02,41,132,22,30,17,055,11,21,15,317,15*79
$GPGSV,3,3,11,24,10,183,14,06,05,134,13,18,02,279,*41
$GLGSV,3,1,10,88,63,216,27,81,42,317,37,66,42,298,35,65,39,020,21*66
$GLGSV,3,2,10,75,19,091,15,76,07,146,,67,05,258,24,87,21,173,*62
$GLGSV,3,3,10,74,09,042,,72,04,054,*68
$QZGSV,1,1,01,01,69,057,12*5B
$GPGSA,A,3,02,05,13,15,20,21,29,,,,,,5.7,2.2,5.3*3D
$GNGSA,A,3,02,05,13,15,20,21,29,,,,,,5.7,2.2,5.3*23
$GNGSA,A,3,65,67,75,81,88,,,,,,,,5.7,2.2,5.3*21
$QZGSA,A,3,,,,,,,,,,,,,5.7,2.2,5.3*2A
$IMGSA,A,3,,,,,,,,,,,,,5.7,2.2,5.3*25
$PGLOR,1,FIX,1.0,1.0*20
$GPRMC,071109.00,A,2912.406234,N,11932.057844,E,000.2,,231016,,,A*76
$PGLOR,SPL,20161023151108.4,POS,20161023071109.000,29.206771,119.534297,12,12,0,66,5,1.100000*61
$GPGGA,071110.00,2912.406238,N,11932.057877,E,1,13,1.2,59.4,M,6.5,M,,*61
$PGLOR,6,STA,071110.00,-0.005,0.000,-352,1,12,1,P,F,L,0,C,2,S,0002,2,3,R,33F4,TPEF,22,58712,LC,,*5A
$PGLOR,1,UNC,071110.00,0.028,12.0,5.1,0.29,180.00,10.3,6.2,2.5*25
$PGLOR,2,SAT,3,1,G13,027,1F,R24,026,1F,G15,038,1F,G05,019,1F,G20,038,1F,R17,035,1F*3E
$PGLOR,2,SAT,3,2,R02,033,33,G29,029,1F,G02,019,1B,R01,016,33,R23,014,10,R11,013,30*3D
$PGLOR,2,SAT,3,3,G21,014,33,G24,008,30,R03,024,33*72
$PGLOR,2,SIO,TxERR,0,RxERR,0,TxCNT,531,RxCNT,3308,MLFRMPKT,0,DTMS,997,DTIN,52,74,DTOUT,516,924,HATMD,28*1E
$PGLOR,2,SIO,TxERR,0,RxERR,0,TxCNT,531,RxCNT,3308,MLFRMPKT,0,DTMS,997,DTIN,52,74,DTOUT,516,924,HATMD,28*1E
$PGLOR,3,PWR,mA,26.9,RFTm,997,OscTm,1000,MeasTm,1000,UTC,071110.00*0A
$GPGSV,3,1,11,13,82,037,27,15,61,241,38,05,48,043,21,20,45,313,38*79
$GPGSV,3,2,11,29,42,267,29,02,41,132,21,30,17,055,10,21,15,317,15*7B
$GPGSV,3,3,11,24,10,183,13,06,05,134,10,18,02,279,*45
$GLGSV,3,1,10,88,63,216,27,81,42,317,36,66,42,298,35,65,39,020,20*66
$GLGSV,3,2,10,87,21,173,14,75,19,091,15,67,05,258,24,74,09,042,*6E
$GLGSV,3,3,10,76,07,146,,72,04,054,*61
$QZGSV,1,1,01,01,69,057,10*59
$GPGSA,A,3,02,05,13,15,20,21,29,,,,,,5.7,2.2,5.3*3D
$GNGSA,A,3,02,05,13,15,20,21,29,,,,,,5.7,2.2,5.3*23
$GNGSA,A,3,65,67,75,81,87,88,,,,,,,5.7,2.2,5.3*2E
$QZGSA,A,3,,,,,,,,,,,,,5.7,2.2,5.3*2A
$IMGSA,A,3,,,,,,,,,,,,,5.7,2.2,5.3*25
$PGLOR,1,FIX,1.0,1.0*20
$GPRMC,071110.00,A,2912.406238,N,11932.057877,E,000.3,,231016,,,A*73
$PGLOR,SPL,20161023151109.3,POS,20161023071110.000,29.206771,119.534298,12,12,0,66,5,1.100000*60
$GPGGA,071111.00,2912.406259,N,11932.057939,E,1,13,1.2,59.3,M,6.5,M,,*6B
$PGLOR,6,STA,071111.00,-0.005,0.000,-352,1,12,1,P,F,L,0,C,3,S,0002,2,3,R,33F4,TPEF,22,59712,LC,,*5B
$PGLOR,1,UNC,071111.00,0.028,12.0,5.1,0.29,180.00,10.1,6.4,5.6*24
$PGLOR,2,SAT,3,1,G13,027,1F,R24,025,1F,G15,038,1F,G05,016,1F,G20,039,1F,R17,035,1F*33
$PGLOR,2,SAT,3,2,G29,029,1F,R02,032,33,G02,020,1B,R01,013,3F,R23,019,10,R11,015,30*4D
$PGLOR,2,SAT,3,3,G21,014,33,R10,010,30,R03,024,33*69
$PGLOR,2,SIO,TxERR,0,RxERR,0,TxCNT,520,RxCNT,3388,MLFRMPKT,0,DTMS,988,DTIN,52,59,DTOUT,820,944,HATMD,16*14
$PGLOR,2,SIO,TxERR,0,RxERR,0,TxCNT,520,RxCNT,3388,MLFRMPKT,0,DTMS,988,DTIN,52,59,DTOUT,820,944,HATMD,16*14
$PGLOR,3,PWR,mA,27.0,RFTm,1003,OscTm,1000,MeasTm,1000,UTC,071111.00*36
$GPGSV,3,1,11,13,82,037,27,15,61,241,38,05,48,043,21,20,45,313,39*78
$GPGSV,3,2,11,29,42,267,29,02,41,132,21,30,17,055,08,21,15,317,15*72
$GPGSV,3,3,11,24,10,183,12,06,05,134,,18,02,279,*45
$GLGSV,3,1,10,88,63,216,27,81,42,317,36,66,42,298,35,65,39,020,19*6C
$GLGSV,3,2,10,87,21,173,19,75,19,091,15,74,09,042,10,67,05,258,24*62
$GLGSV,3,3,10,76,07,146,,72,04,054,*61
$QZGSV,1,1,01,01,69,057,*58
$GPGSA,A,3,02,05,13,15,20,21,29,,,,,,5.2,2.1,4.8*31
$GNGSA,A,3,02,05,13,15,20,21,29,,,,,,5.2,2.1,4.8*2F
$GNGSA,A,3,65,67,75,81,87,88,,,,,,,5.2,2.1,4.8*22
$QZGSA,A,3,,,,,,,,,,,,,5.2,2.1,4.8*26
$IMGSA,A,3,,,,,,,,,,,,,5.2,2.1,4.8*29
$PGLOR,1,FIX,1.0,1.0*20
$GPRMC,071111.00,A,2912.406259,N,11932.057939,E,000.3,,231016,,,A*7E
$PGLOR,SPL,20161023151110.3,POS,20161023071111.000,29.206771,119.534299,12,12,0,66,5,1.100000*68
$GPGGA,071112.00,2912.406292,N,11932.057978,E,1,14,1.2,59.3,M,6.5,M,,*6D
$PGLOR,6,STA,071112.00,-0.005,0.000,-349,1,12,1,P,F,L,0,C,2,S,0002,2,3,R,33F4,TPEF,22,60712,LC,,*59
$PGLOR,1,UNC,071112.00,0.028,12.0,5.1,0.28,180.00,10.0,6.6,8.2*2C
$PGLOR,2,SAT,3,1,G13,027,1F,R24,026,1F,G15,038,1F,G05,016,1F,G20,038,1F,R17,035,1F*31
$PGLOR,2,SAT,3,2,R02,032,33,G29,030,1F,G02,020,1B,R01,015,3F,R11,015,30,G30,015,10*58
$PGLOR,2,SAT,3,3,G21,014,3B,R03,024,33,G06,017,10*0F
$PGLOR,2,SIO,TxERR,0,RxERR,0,TxCNT,507,RxCNT,3286,MLFRMPKT,0,DTMS,1016,DTIN,24,47,DTOUT,868,951,HATMD,32*21
$PGLOR,2,SIO,TxERR,0,RxERR,0,TxCNT,507,RxCNT,3286,MLFRMPKT,0,DTMS,1016,DTIN,24,47,DTOUT,868,951,HATMD,32*21
$PGLOR,3,PWR,mA,26.9,RFTm,997,OscTm,1000,MeasTm,1000,UTC,071112.00*08
$PGLOR,2,PFM,HAL,P,0,0,100,0,RF,F,41,1.7,3,RTC,,P,STO,P,LTO,P,SW,P,,,OSC,PPF*30
$GPGSV,3,1,11,13,82,037,27,15,61,241,38,05,48,043,20,20,45,313,39*79
$GPGSV,3,2,11,29,42,267,30,02,41,132,21,30,17,055,15,21,15,317,15*76
$GPGSV,3,3,11,24,10,183,10,06,05,134,17,18,02,279,*41
$GLGSV,3,1,10,88,63,216,27,81,42,317,36,66,42,298,34,65,39,020,19*6D
$GLGSV,3,2,10,87,21,173,17,75,19,091,15,74,09,042,09,67,05,258,24*64
$GLGSV,3,3,10,76,07,146,,72,04,054,*61
$QZGSV,1,1,01,01,69,057,*58
$GPGSA,A,3,02,05,06,13,15,20,21,29,30,,,,5.2,2.1,4.8*34
$GNGSA,A,3,02,05,06,13,15,20,21,29,30,,,,5.2,2.1,4.8*2A
$GNGSA,A,3,65,67,75,81,88,,,,,,,,5.2,2.1,4.8*2D
$QZGSA,A,3,,,,,,,,,,,,,5.2,2.1,4.8*26
$IMGSA,A,3,,,,,,,,,,,,,5.2,2.1,4.8*29
$PGLOR,1,FIX,1.0,1.0*20
$GPRMC,071112.00,A,2912.406292,N,11932.057978,E,000.1,,231016,,,A*7D
$PGLOR,SPL,20161023151111.4,POS,20161023071112.000,29.206772,119.534300,12,12,0,66,5,1.100000*6F
$GPGGA,071113.00,2912.406340,N,11932.058069,E,1,12,1.2,59.3,M,6.5,M,,*62
$PGLOR,6,STA,071113.00,-0.005,0.000,-349,1,12,1,P,F,L,0,C,2,S,0002,2,3,R,33F4,TPEF,22,61712,LC,,*59
$PGLOR,1,UNC,071113.00,0.028,12.0,5.2,0.31,180.00,10.0,6.7,10.1*1D
$PGLOR,2,SAT,3,1,G13,026,1F,R24,026,1F,G15,037,1F,G05,018,1F,G20,037,1F,R17,035,1F*3E
$PGLOR,2,SAT,3,2,R02,033,33,G29,029,1F,G02,017,1B,R01,014,3F,R23,008,10,R11,015,30*4F
$PGLOR,2,SAT,3,3,G21,014,3B,R12,008,30,R03,024,33*13
$PGLOR,2,SIO,TxERR,0,RxERR,0,TxCNT,524,RxCNT,3352,MLFRMPKT,0,DTMS,996,DTIN,44,60,DTOUT,643,941,HATMD,28*16
$PGLOR,2,SIO,TxERR,0,RxERR,0,TxCNT,524,RxCNT,3352,MLFRMPKT,0,DTMS,996,DTIN,44,60,DTOUT,643,941,HATMD,28*16
$PGLOR,3,PWR,mA,27.0,RFTm,1002,OscTm,1000,MeasTm,1000,UTC,071113.00*35
$GPGSV,4,1,13,13,82,037,27,15,61,241,38,05,48,043,20,20,45,313,38*7D
$GPGSV,4,2,13,29,42,267,30,02,41,132,21,30,17,055,14,21,15,317,15*72
$GPGSV,4,3,13,06,05,134,15,42,49,143,,50,46,136,,24,10,183,*7E
$GPGSV,4,4,13,18,02,279,*4C
$GLGSV,3,1,10,88,63,216,27,81,42,317,36,66,42,298,34,65,39,020,18*6C
$GLGSV,3,2,10,87,21,173,15,75,19,091,15,74,09,042,,76,07,146,08*6F
$GLGSV,3,3,10,67,05,258,24,72,04,054,*69
$QZGSV,1,1,01,01,69,057,*58
$GPGSA,A,3,02,05,13,15,20,21,29,,,,,,5.2,2.1,4.8*31
$GNGSA,A,3,02,05,13,15,20,21,29,,,,,,5.2,2.1,4.8*2F
$GNGSA,A,3,65,67,75,81,88,,,,,,,,5.2,2.1,4.8*2D
$QZGSA,A,3,,,,,,,,,,,,,5.2,2.1,4.8*26
$IMGSA,A,3,,,,,,,,,,,,,5.2,2.1,4.8*29
$PGLOR,1,FIX,1.0,1.0*20
$GPRMC,071113.00,A,2912.406340,N,11932.058069,E,000.1,,231016,,,A*74
$PGLOR,SPL,20161023151112.3,POS,20161023071113.000,29.206772,119.534301,12,12,0,66,5,1.100000*6B
$GPGGA,071114.00,2912.406400,N,11932.058174,E,1,13,1.6,59.3,M,6.5,M,,*6E
$PGLOR,6,STA,071114.00,-0.005,0.000,-349,1,16,1,P,F,L,0,C,2,S,0002,2,3,R,33F4,TPEF,22,62712,LC,,*59
$PGLOR,1,UNC,071114.00,0.027,16.0,5.2,0.31,180.00,13.2,9.0,11.4*1C
$PGLOR,2,SAT,3,1,G13,026,1F,R24,025,1F,G15,037,1F,G05,018,1F,G20,038,1F,R17,035,1F*32
$PGLOR,2,SAT,3,2,R02,032,33,G29,029,1F,G02,016,1F,R01,013,3F,R11,015,3F,G21,015,3F*55
$PGLOR,2,SAT,3,3,R03,023,33*7E
$PGLOR,2,SIO,TxERR,0,RxERR,0,TxCNT,507,RxCNT,3350,MLFRMPKT,0,DTMS,1006,DTIN,43,62,DTOUT,631,938,HATMD,34*27
$PGLOR,2,SIO,TxERR,0,RxERR,0,TxCNT,507,RxCNT,3350,MLFRMPKT,0,DTMS,1006,DTIN,43,62,DTOUT,631,938,HATMD,34*27
$PGLOR,3,PWR,mA,26.9,RFTm,1000,OscTm,1000,MeasTm,1000,UTC,071114.00*38
$GPGSV,4,1,13,13,82,037,26,15,61,241,38,05,48,043,20,20,45,313,38*7C
$GPGSV,4,2,13,29,42,267,29,02,41,132,20,30,17,055,11,21,15,317,15*7E
$GPGSV,4,3,13,06,05,134,12,42,49,143,,50,46,136,,24,10,183,*79
$GPGSV,4,4,13,18,02,279,*4C
$GLGSV,3,1,10,88,63,216,27,81,42,317,36,66,42,298,34,65,39,020,18*6C
$GLGSV,3,2,10,87,21,173,14,75,19,091,15,76,07,146,08,67,05,258,24*6F
$GLGSV,3,3,10,74,09,042,,72,04,054,*68
$QZGSV,1,1,01,01,69,057,*58
$GPGSA,A,3,02,05,13,15,18,20,21,29,,,,,1.9,1.0,1.6*3E
$GNGSA,A,3,02,05,13,15,18,20,21,29,,,,,1.9,1.0,1.6*20
$GNGSA,A,3,65,67,75,81,88,,,,,,,,1.9,1.0,1.6*2B
$QZGSA,A,3,,,,,,,,,,,,,1.9,1.0,1.6*20
$IMGSA,A,3,,,,,,,,,,,,,1.9,1.0,1.6*2F
$PGLOR,1,FIX,1.0,1.0*20
$GPRMC,071114.00,A,2912.406400,N,11932.058174,E,000.3,,231016,,,A*7F
$PGLOR,SPL,20161023151113.4,POS,20161023071114.000,29.206773,119.534303,16,16,0,66,5,1.100000*69
$GPGGA,071115.00,2912.406467,N,11932.058219,E,1,13,0.8,59.3,M,6.5,M,,*69
$PGLOR,6,STA,071115.00,-0.005,0.000,-349,1,8,1,P,F,L,0,C,2,S,0002,2,3,R,33F4,TPEF,22,63712,LC,,*66
$PGLOR,1,UNC,071115.00,0.026,8.0,5.2,0.31,180.00,6.6,4.5,12.5*19
$PGLOR,2,SAT,3,1,G13,026,1F,R24,025,1F,G15,037,1F,G05,018,1F,G20,038,1F,R17,035,1F*32
$PGLOR,2,SAT,3,2,R02,032,33,G29,029,1F,G02,012,1F,R01,013,3B,R23,011,10,R11,016,3F*31
$PGLOR,2,SAT,3,3,G21,015,3B,R10,013,30,R03,023,33,G06,013,10*43
$PGLOR,2,SIO,TxERR,0,RxERR,0,TxCNT,530,RxCNT,3369,MLFRMPKT,0,DTMS,999,DTIN,46,63,DTOUT,823,937,HATMD,33*16
$PGLOR,2,SIO,TxERR,0,RxERR,0,TxCNT,530,RxCNT,3369,MLFRMPKT,0,DTMS,999,DTIN,46,63,DTOUT,823,937,HATMD,33*16
$PGLOR,3,PWR,mA,26.9,RFTm,1001,OscTm,1000,MeasTm,1000,UTC,071115.00*38
$GPGSV,4,1,13,13,82,037,26,15,61,241,38,05,48,043,20,20,46,313,38*7F
$GPGSV,4,2,13,29,42,267,29,02,41,132,19,21,15,317,15,06,05,134,13*76
$GPGSV,4,3,13,30,17,055,08,42,49,143,,50,46,136,,24,10,183,*72
$GPGSV,4,4,13,18,02,279,*4C
$GLGSV,3,1,10,88,63,216,26,81,42,317,36,66,42,298,34,65,39,020,17*62
$GLGSV,3,2,10,87,21,173,13,75,19,091,16,74,09,042,13,67,05,258,24*68
$GLGSV,3,3,10,76,07,146,,72,04,054,*61
$QZGSV,1,1,01,01,69,057,*58
$GPGSA,A,3,05,06,13,15,20,21,29,,,,,,2.4,1.2,2.1*3B
$GNGSA,A,3,05,06,13,15,20,21,29,,,,,,2.4,1.2,2.1*25
$GNGSA,A,3,65,67,74,75,81,88,,,,,,,2.4,1.2,2.1*20
$QZGSA,A,3,,,,,,,,,,,,,2.4,1.2,2.1*28
$IMGSA,A,3,,,,,,,,,,,,,2.4,1.2,2.1*27
$PGLOR,1,FIX,1.0,1.0*20
$GPRMC,071115.00,A,2912.406467,N,11932.058219,E,000.1,,231016,,,A*75
$PGLOR,SPL,20161023151114.4,POS,20161023071115.000,29.206774,119.534304,8,8,0,66,5,1.100000*6F
$GPGGA,071116.00,2912.406533,N,11932.058278,E,1,13,2.4,59.3,M,6.5,M,,*63
$PGLOR,6,STA,071116.00,-0.005,0.000,-349,1,24,1,P,F,L,0,C,2,S,0002,2,3,R,33F4,TPEF,22,64712,LC,,*5C
$PGLOR,1,UNC,071116.00,0.026,24.0,5.5,0.33,180.00,19.7,13.8,13.0*21
$PGLOR,2,SAT,3,1,G13,026,1F,Q01,012,10,R24,026,1F,G15,038,1F,G05,017,1F,G20,038,1F*46
$PGLOR,2,SAT,3,2,G29,025,1F,R17,036,1F,R02,033,33,G02,011,10,R01,013,3F,R23,014,10*4E
$PGLOR,2,SAT,3,3,R11,012,3F,G21,015,3B,R03,024,33*6C
$PGLOR,2,SIO,TxERR,0,RxERR,0,TxCNT,531,RxCNT,3299,MLFRMPKT,0,DTMS,999,DTIN,42,59,DTOUT,849,940,HATMD,32*19
$PGLOR,2,SIO,TxERR,0,RxERR,0,TxCNT,531,RxCNT,3299,MLFRMPKT,0,DTMS,999,DTIN,42,59,DTOUT,849,940,HATMD,32*19
$PGLOR,3,PWR,mA,26.9,RFTm,999,OscTm,1000,MeasTm,1000,UTC,071116.00*02
$GPGSV,4,1,13,13,82,037,26,15,61,241,38,05,48,043,19,20,46,313,38*75
$GPGSV,4,2,13,29,42,267,29,02,41,132,19,21,15,317,15,06,05,134,12*77
$GPGSV,4,3,13,42,49,143,,50,46,136,,30,17,055,,24,10,183,*7A
$GPGSV,4,4,13,18,02,279,*4C
$GLGSV,3,1,10,88,63,216,26,81,42,317,36,66,42,298,34,65,39,020,17*62
$GLGSV,3,2,10,87,21,173,14,75,19,091,16,74,09,042,12,67,05,258,24*6E
$GLGSV,3,3,10,76,07,146,,72,04,054,*61
$QZGSV,1,1,01,01,69,057,12*5B
$GPGSA,A,3,05,13,15,20,21,29,,,,,,,2.4,1.2,2.1*3D
$GNGSA,A,3,05,13,15,20,21,29,,,,,,,2.4,1.2,2.1*23
$GNGSA,A,3,65,67,75,81,87,88,,,,,,,2.4,1.2,2.1*2C
$QZGSA,A,3,01,,,,,,,,,,,,2.4,1.2,2.1*29
$IMGSA,A,3,,,,,,,,,,,,,2.4,1.2,2.1*27
$PGLOR,1,FIX,1.0,1.0*20
$GPRMC,071116.00,A,2912.406533,N,11932.058278,E,000.1,,231016,,,A*71
$PGLOR,SPL,20161023151115.4,POS,20161023071116.000,29.206776,119.534305,24,24,0,66,5,1.100000*6E
$GPGGA,071117.00,2912.406572,N,11932.058332,E,1,13,0.6,59.3,M,6.5,M,,*68
$PGLOR,6,STA,071117.00,-0.005,0.000,-349,1,6,1,P,F,L,0,C,1,S,0002,2,3,R,33F4,TPEF,22,65712,LC,,*6F
$PGLOR,1,UNC,071117.00,0.026,6.0,5.5,0.35,180.00,4.9,3.5,13.1*19
$PGLOR,2,SAT,3,1,G13,026,1F,Q01,013,10,R24,027,1F,G15,039,1F,G05,016,1F,G20,036,1F*48
$PGLOR,2,SAT,3,2,G29,024,1F,R17,033,1F,R02,032,33,G02,020,1F,R01,013,3F,R23,010,10*3B
$PGLOR,2,SAT,3,3,R11,013,3F,G21,014,3B,R03,025,33*6D
$PGLOR,2,SIO,TxERR,0,RxERR,0,TxCNT,497,RxCNT,3441,MLFRMPKT,0,DTMS,1000,DTIN,44,58,DTOUT,776,942,HATMD,32*29
$PGLOR,2,SIO,TxERR,0,RxERR,0,TxCNT,497,RxCNT,3441,MLFRMPKT,0,DTMS,1000,DTIN,44,58,DTOUT,776,942,HATMD,32*29
$PGLOR,3,PWR,mA,26.9,RFTm,1001,OscTm,1000,MeasTm,1000,UTC,071117.00*3A
$GPGSV,4,1,13,13,82,037,26,15,61,241,39,05,48,043,19,20,46,313,38*74
$GPGSV,4,2,13,29,42,267,28,02,41,132,20,21,15,317,15,06,05,134,09*76
$GPGSV,4,3,13,42,49,143,,50,46,136,,30,17,055,,24,10,183,*7A
$GPGSV,4,4,13,18,02,279,*4C
$GLGSV,3,1,10,88,63,216,27,81,42,317,36,66,42,298,34,65,39,020,17*63
$GLGSV,3,2,10,87,21,173,13,75,19,091,15,74,09,042,10,67,05,258,25*69
$GLGSV,3,3,10,76,07,146,,72,04,054,*61
$QZGSV,1,1,01,01,69,057,13*5A
$GPGSA,A,3,02,05,13,15,20,21,29,,,,,,2.4,1.1,2.1*3C
$GNGSA,A,3,02,05,13,15,20,21,29,,,,,,2.4,1.1,2.1*22
$GNGSA,A,3,65,67,75,81,88,,,,,,,,2.4,1.1,2.1*20
$QZGSA,A,3,01,,,,,,,,,,,,2.4,1.1,2.1*2A
$IMGSA,A,3,,,,,,,,,,,,,2.4,1.1,2.1*24
$PGLOR,1,FIX,1.0,1.0*20
$GPRMC,071117.00,A,2912.406572,N,11932.058332,E,000.1,,231016,,,A*7A
$PGLOR,SPL,20161023151116.4,POS,20161023071117.000,29.206776,119.534306,6,6,0,66,5,1.100000*6F
$GPGGA,071118.00,2912.406572,N,11932.058332,E,1,12,0.8,59.3,M,6.5,M,,*68
$PGLOR,6,STA,071118.00,-0.005,0.000,-349,1,8,1,P,F,L,0,C,1,S,0002,2,3,R,33F4,TPEF,22,66712,LC,,*6D
$PGLOR,1,UNC,071118.00,0.026,8.0,5.5,0.26,180.00,6.5,4.6,13.1*10
$PGLOR,2,SAT,3,1,G13,026,1F,R24,027,1F,G15,039,1F,G05,018,1F,G20,035,1F,R17,033,1F*35
$PGLOR,2,SAT,3,2,G29,024,1F,R02,031,33,G02,021,1F,R01,014,3F,R11,011,30,G30,013,10*58
$PGLOR,2,SAT,3,3,G21,014,3B,R03,025,3F,G06,012,10*7E
$PGLOR,2,SIO,TxERR,0,RxERR,0,TxCNT,558,RxCNT,3321,MLFRMPKT,0,DTMS,1000,DTIN,42,59,DTOUT,844,938,HATMD,32*2E
$PGLOR,2,SIO,TxERR,0,RxERR,0,TxCNT,558,RxCNT,3321,MLFRMPKT,0,DTMS,1000,DTIN,42,59,DTOUT,844,938,HATMD,32*2E
$PGLOR,3,PWR,mA,26.9,RFTm,998,OscTm,1000,MeasTm,1000,UTC,071118.00*0D
$GPGSV,4,1,13,13,82,037,26,15,61,241,39,05,48,043,19,20,46,314,38*73
$GPGSV,4,2,13,29,42,267,28,02,41,132,21,30,17,055,13,21,15,317,15*7C
$GPGSV,4,3,13,06,05,134,12,42,49,143,,50,46,136,,24,10,183,*79
$GPGSV,4,4,13,18,02,279,*4C
$GLGSV,3,1,10,88,63,216,27,81,42,317,35,66,42,298,33,65,39,020,16*66
$GLGSV,3,2,10,87,21,173,12,75,19,091,15,67,05,258,25,74,09,042,*69
$GLGSV,3,3,10,76,07,146,,72,04,054,*61
$QZGSV,1,1,01,01,69,057,12*5B
$GPGSA,A,3,02,05,13,15,20,21,29,30,,,,,1.9,1.1,1.5*36
$GNGSA,A,3,02,05,13,15,20,21,29,30,,,,,1.9,1.1,1.5*28
$GNGSA,A,3,65,67,81,88,,,,,,,,,1.9,1.1,1.5*2B
$QZGSA,A,3,,,,,,,,,,,,,1.9,1.1,1.5*22
$IMGSA,A,3,,,,,,,,,,,,,1.9,1.1,1.5*2D
$PGLOR,1,FIX,1.0,1.0*20
$GPRMC,071118.00,A,2912.406572,N,11932.058332,E,000.0,,231016,,,A*74
$PGLOR,SPL,20161023151117.4,POS,20161023071118.000,29.206776,119.534306,8,8,0,66,6,1.100000*62
$PGLOR,SPL,20161023151117.9,STATUS,2*3F
$PGLOR,NET,0.5,,0.5,,20.0,SSD,,A,0*30
$PGLOR,SPL,20161023151117.9,ERR,5*69
$GPGGA,071119.00,2912.406572,N,11932.058332,E,1,12,1.6,59.3,M,6.5,M,,*66
$PGLOR,6,STA,071119.00,-0.005,0.000,-349,1,16,1,P,F,L,0,C,1,S,0002,2,3,R,33F4,TPEF,22,67712,LC,,*52
$PGLOR,1,UNC,071119.00,0.026,16.0,5.6,0.25,180.00,13.1,9.2,13.1*17
$PGLOR,2,SAT,3,1,G13,025,1F,Q01,016,10,R24,028,1F,G15,039,1F,G05,017,1F,G20,035,1F*43
$PGLOR,2,SAT,3,2,G29,025,1F,R17,032,1F,R02,033,33,G02,023,1F,R01,015,3F,R23,008,10*36
$PGLOR,2,SAT,3,3,R11,011,30,G21,014,3F,R03,026,3B*6F
$PGLOR,2,SIO,TxERR,0,RxERR,0,TxCNT,496,RxCNT,3349,MLFRMPKT,0,DTMS,985,DTIN,38,48,DTOUT,854,952,HATMD,17*11
$PGLOR,2,SIO,TxERR,0,RxERR,0,TxCNT,496,RxCNT,3349,MLFRMPKT,0,DTMS,985,DTIN,38,48,DTOUT,854,952,HATMD,17*11
$PGLOR,3,PWR,mA,26.9,RFTm,1002,OscTm,1000,MeasTm,1000,UTC,071119.00*37
$GPGSV,4,1,13,13,82,037,26,15,61,241,39,05,48,043,19,20,46,314,38*73
$GPGSV,4,2,13,29,42,267,28,02,41,132,23,30,17,055,11,21,15,317,15*7C
$GPGSV,4,3,13,06,05,134,11,42,49,143,,50,46,136,,24,10,183,*7A
$GPGSV,4,4,13,18,02,279,*4C
$GLGSV,3,1,10,88,63,216,28,81,42,317,35,66,42,298,33,65,39,020,16*69
$GLGSV,3,2,10,87,21,173,11,75,19,091,15,67,05,258,26,74,09,042,*69
$GLGSV,3,3,10,76,07,146,,72,04,054,*61
$QZGSV,1,1,01,01,69,057,16*5F
$GPGSA,A,3,02,05,13,15,20,21,29,,,,,,2.3,1.1,2.0*3A
$GNGSA,A,3,02,05,13,15,20,21,29,,,,,,2.3,1.1,2.0*24
$GNGSA,A,3,65,67,81,88,,,,,,,,,2.3,1.1,2.0*24
$QZGSA,A,3,01,,,,,,,,,,,,2.3,1.1,2.0*2C
$IMGSA,A,3,,,,,,,,,,,,,2.3,1.1,2.0*22
$PGLOR,1,FIX,1.0,1.0*20
$GPRMC,071119.00,A,2912.406572,N,11932.058332,E,000.0,,231016,,,A*75
$PGLOR,SPL,20161023151118.3,POS,20161023071119.000,29.206776,119.534306,16,16,0,66,6,1.100000*6B
$GPGGA,071120.00,2912.406572,N,11932.058332,E,1,12,1.6,59.3,M,6.5,M,,*6C
$PGLOR,6,STA,071120.00,-0.005,0.000,-350,1,16,1,P,F,L,0,C,1,S,0002,2,5,R,33F4,TPEF,22,68712,LC,,*59
$PGLOR,1,UNC,071120.00,0.026,16.0,5.7,0.30,180.00,11.3,11.3,0.0*13
$PGLOR,2,SAT,3,1,G13,025,1F,R24,027,1F,G15,039,1F,G05,016,1F,G20,035,1F,G29,024,1F*26
$PGLOR,2,SAT,3,2,R17,032,1F,R02,032,33,G02,023,1F,R01,015,3F,R11,014,3F,G21,014,3F*47
$PGLOR,2,SAT,3,3,R03,026,33*7B
$PGLOR,2,SIO,TxERR,0,RxERR,0,TxCNT,507,RxCNT,3355,MLFRMPKT,0,DTMS,1019,DTIN,17,41,DTOUT,547,955,HATMD,36*27
$PGLOR,2,SIO,TxERR,0,RxERR,0,TxCNT,507,RxCNT,3355,MLFRMPKT,0,DTMS,1019,DTIN,17,41,DTOUT,547,955,HATMD,36*27
$PGLOR,3,PWR,mA,26.9,RFTm,999,OscTm,1000,MeasTm,1000,UTC,071120.00*07
$GPGSV,4,1,13,13,82,037,26,15,61,241,39,05,48,043,18,20,46,314,37*7D
$GPGSV,4,2,13,29,42,267,27,02,41,132,23,30,17,055,09,21,15,317,14*7B
$GPGSV,4,3,13,06,05,134,08,42,49,143,,50,46,136,,24,10,183,*72
$GPGSV,4,4,13,18,02,279,*4C
$GLGSV,3,1,10,88,63,216,27,81,42,317,35,66,42,298,33,65,39,020,16*66
$GLGSV,3,2,10,87,21,173,10,75,19,091,15,67,05,259,26,74,09,042,*69
$GLGSV,3,3,10,76,07,146,,72,04,054,*61
$QZGSV,1,1,01,01,69,057,14*5D
$GPGSA,A,3,02,05,13,15,20,21,29,,,,,,1.9,1.0,1.6*37
$GNGSA,A,3,02,05,13,15,20,21,29,,,,,,1.9,1.0,1.6*29
$GNGSA,A,3,65,67,75,81,88,,,,,,,,1.9,1.0,1.6*2B
$QZGSA,A,3,,,,,,,,,,,,,1.9,1.0,1.6*20
$IMGSA,A,3,,,,,,,,,,,,,1.9,1.0,1.6*2F
$PGLOR,1,FIX,1.0,1.0*20
$GPRMC,071120.00,A,2912.406572,N,11932.058332,E,000.0,,231016,,,A*7F
$PGLOR,SPL,20161023151119.4,POS,20161023071120.000,29.206776,119.534306,16,16,0,66,6,1.100000*67
$GPGGA,071121.00,2912.406572,N,11932.058332,E,1,13,0.8,59.3,M,6.5,M,,*63
$PGLOR,6,STA,071121.00,-0.005,0.000,-350,1,8,1,P,F,L,0,C,1,S,0002,2,5,R,33F4,TPEF,22,69712,LC,,*66
$PGLOR,1,UNC,071121.00,0.027,8.0,5.7,0.25,180.00,5.7,5.7,0.0*28
$PGLOR,2,SAT,3,1,G13,025,1F,Q01,016,10,R24,026,1F,G15,038,1F,G05,016,1F,G20,035,1F*4D
$PGLOR,2,SAT,3,2,R17,032,1F,G29,024,1F,R02,031,33,G02,023,1F,R01,015,3F,R23,008,10*35
$PGLOR,2,SAT,3,3,R11,010,30,G21,014,3F,R10,011,30,G06,018,10,R03,026,3B*77
$PGLOR,2,SIO,TxERR,0,RxERR,0,TxCNT,531,RxCNT,3372,MLFRMPKT,0,DTMS,996,DTIN,43,58,DTOUT,845,939,HATMD,32*10
$PGLOR,2,SIO,TxERR,0,RxERR,0,TxCNT,531,RxCNT,3372,MLFRMPKT,0,DTMS,996,DTIN,43,58,DTOUT,845,939,HATMD,32*10
$PGLOR,3,PWR,mA,26.9,RFTm,1001,OscTm,1000,MeasTm,1000,UTC,071121.00*3F
$GPGSV,4,1,13,13,82,037,26,15,61,241,39,05,48,043,18,20,46,314,37*7D
$GPGSV,4,2,13,29,42,267,27,02,41,132,23,21,15,317,14,06,05,134,18*7B
$GPGSV,4,3,13,42,49,143,,50,46,136,,30,17,055,,24,10,183,*7A
$GPGSV,4,4,13,18,02,279,*4C
$GLGSV,3,1,10,88,63,216,27,81,42,317,34,66,42,298,33,65,39,020,16*67
$GLGSV,3,2,10,87,21,173,10,75,19,091,14,74,09,042,11,67,05,259,26*68
$GLGSV,3,3,10,76,07,146,,72,04,054,*61
$QZGSV,1,1,01,01,69,057,16*5F
$GPGSA,A,3,02,05,06,13,15,20,21,29,,,,,2.3,1.1,2.0*3C
$GNGSA,A,3,02,05,06,13,15,20,21,29,,,,,2.3,1.1,2.0*22
$GNGSA,A,3,65,67,81,88,,,,,,,,,2.3,1.1,2.0*24
$QZGSA,A,3,01,,,,,,,,,,,,2.3,1.1,2.0*2C
$IMGSA,A,3,,,,,,,,,,,,,2.3,1.1,2.0*22
$PGLOR,1,FIX,1.0,1.0*20
$GPRMC,071121.00,A,2912.406572,N,11932.058332,E,000.0,,231016,,,A*7E
$PGLOR,SPL,20161023151120.4,POS,20161023071121.000,29.206776,119.534306,8,8,0,66,6,1.100000*6C
$GPGGA,071122.00,2912.406572,N,11932.058332,E,1,11,1.6,59.3,M,6.5,M,,*6D
$PGLOR,6,STA,071122.00,-0.005,0.000,-350,1,16,1,P,F,L,0,C,1,S,0002,2,5,R,33F4,TPEF,22,70712,LC,,*52
$PGLOR,1,UNC,071122.00,0.027,16.0,5.8,0.38,180.00,11.3,11.3,0.0*17
$PGLOR,2,SAT,3,1,G13,025,1F,R24,026,1F,G15,038,1F,G05,014,1F,G20,035,1F,G29,024,1F*24
$PGLOR,2,SAT,3,2,R02,031,33,R17,032,1F,G02,024,1F,R01,016,3F,G21,013,3F,R10,009,30*3C
$PGLOR,2,SAT,3,3,R03,026,33*7B
$PGLOR,2,SIO,TxERR,0,RxERR,0,TxCNT,505,RxCNT,3301,MLFRMPKT,0,DTMS,997,DTIN,116,123,DTOUT,774,875,HATMD,29*10
$PGLOR,2,SIO,TxERR,0,RxERR,0,TxCNT,505,RxCNT,3301,MLFRMPKT,0,DTMS,997,DTIN,116,123,DTOUT,774,875,HATMD,29*10
$PGLOR,3,PWR,mA,26.9,RFTm,998,OscTm,1000,MeasTm,1000,UTC,071122.00*04
$GPGSV,4,1,13,13,82,036,26,15,61,241,39,05,48,043,18,20,46,314,37*7C
$GPGSV,4,2,13,29,42,267,27,02,41,132,24,21,15,317,14,06,05,134,17*73
$GPGSV,4,3,13,42,49,143,,50,46,136,,30,16,055,,24,10,183,*7B
$GPGSV,4,4,13,18,02,279,*4C
$GLGSV,3,1,10,88,63,216,27,66,42,298,33,81,42,317,34,65,39,020,16*67
$GLGSV,3,2,10,87,21,173,09,75,19,091,13,74,09,042,11,67,05,259,26*67
$GLGSV,3,3,10,76,07,146,,72,04,054,*61
$QZGSV,1,1,01,01,69,057,15*5C
$GPGSA,A,3,02,05,13,15,20,21,29,,,,,,2.3,1.1,2.0*3A
$GNGSA,A,3,02,05,13,15,20,21,29,,,,,,2.3,1.1,2.0*24
$GNGSA,A,3,65,67,81,88,,,,,,,,,2.3,1.1,2.0*24
$QZGSA,A,3,,,,,,,,,,,,,2.3,1.1,2.0*2D
$IMGSA,A,3,,,,,,,,,,,,,2.3,1.1,2.0*22
$PGLOR,1,FIX,1.0,1.0*20
$GPRMC,071122.00,A,2912.406572,N,11932.058332,E,000.0,,231016,,,A*7D
$PGLOR,SPL,20161023151121.3,POS,20161023071122.000,29.206776,119.534306,16,16,0,66,6,1.100000*69
$GPGGA,071123.00,2912.406572,N,11932.058332,E,1,11,1.6,59.3,M,6.5,M,,*6C
$PGLOR,6,STA,071123.00,-0.005,0.000,-350,1,16,1,P,F,L,0,C,1,S,0002,2,5,R,33F4,TPEF,22,71712,LC,,*52
$PGLOR,1,UNC,071123.00,0.027,16.0,5.9,0.22,180.00,11.3,11.3,0.0*1C
$PGLOR,2,SAT,3,1,G13,025,1F,R24,026,1F,G15,038,1F,G05,013,1F,G20,036,1F,G29,024,1F*20
$PGLOR,2,SAT,3,2,R02,031,33,R17,032,1F,G02,024,1F,R01,016,3F,R11,010,30,G30,008,10*4B
$PGLOR,2,SAT,3,3,G21,013,3F,R03,026,3F*21
$PGLOR,2,SIO,TxERR,0,RxERR,0,TxCNT,499,RxCNT,3399,MLFRMPKT,0,DTMS,1004,DTIN,32,48,DTOUT,509,953,HATMD,33*2A
$PGLOR,2,SIO,TxERR,0,RxERR,0,TxCNT,499,RxCNT,3399,MLFRMPKT,0,DTMS,1004,DTIN,32,48,DTOUT,509,953,HATMD,33*2A
$PGLOR,3,PWR,mA,26.9,RFTm,1002,OscTm,1000,MeasTm,1000,UTC,071123.00*3E
$GPGSV,4,1,13,13,82,036,26,15,61,241,39,05,48,043,17,20,46,314,37*73
$GPGSV,4,2,13,29,42,267,26,02,41,132,24,30,16,055,08,21,15,317,14*7D
$GPGSV,4,3,13,06,05,134,13,42,49,143,,50,46,136,,24,10,183,*78
$GPGSV,4,4,13,18,02,279,*4C
$GLGSV,3,1,10,88,63,216,27,66,42,298,33,81,42,317,34,65,39,020,16*67
$GLGSV,3,2,10,75,19,091,12,74,09,042,10,67,05,259,26,87,21,173,*6E
$GLGSV,3,3,10,76,07,146,,72,04,054,*61
$QZGSV,1,1,01,01,69,057,12*5B
$GPGSA,A,3,02,05,13,15,20,21,29,,,,,,1.7,1.0,1.4*3B
$GNGSA,A,3,02,05,13,15,20,21,29,,,,,,1.7,1.0,1.4*25
$GNGSA,A,3,65,67,81,88,,,,,,,,,1.7,1.0,1.4*25
$QZGSA,A,3,,,,,,,,,,,,,1.7,1.0,1.4*2C
$IMGSA,A,3,,,,,,,,,,,,,1.7,1.0,1.4*23
$PGLOR,1,FIX,1.0,1.0*20
$GPRMC,071123.00,A,2912.406572,N,11932.058332,E,000.0,,231016,,,A*7C
$PGLOR,SPL,20161023151122.4,POS,20161023071123.000,29.206776,119.534306,16,16,0,66,6,1.100000*6C
$GPGGA,071124.00,2912.406572,N,11932.058332,E,1,13,1.6,59.3,M,6.5,M,,*69
$PGLOR,6,STA,071124.00,-0.005,0.000,-350,1,16,1,P,F,L,0,C,1,S,0002,2,5,R,33F4,TPEF,22,72712,LC,,*56
$PGLOR,1,UNC,071124.00,0.027,16.0,6.0,0.22,180.00,11.3,11.3,0.0*11
$PGLOR,2,SAT,3,1,G13,025,1F,R24,025,1F,G15,038,1F,G05,013,1F,G20,036,1F,R17,033,1F*3D
$PGLOR,2,SAT,3,2,G29,024,1F,R02,031,33,G02,024,1F,R01,017,3F,R23,014,10,R11,010,30*4F
$PGLOR,2,SAT,3,3,G30,014,10,G21,012,3F,R03,027,3B*79
$PGLOR,2,SIO,TxERR,0,RxERR,0,TxCNT,543,RxCNT,3317,MLFRMPKT,0,DTMS,995,DTIN,45,58,DTOUT,822,941,HATMD,28*16
$PGLOR,2,SIO,TxERR,0,RxERR,0,TxCNT,543,RxCNT,3317,MLFRMPKT,0,DTMS,995,DTIN,45,58,DTOUT,822,941,HATMD,28*16
$PGLOR,3,PWR,mA,26.9,RFTm,999,OscTm,1000,MeasTm,1000,UTC,071124.00*03
$GPGSV,4,1,13,13,82,036,26,15,61,241,39,05,48,043,17,20,46,314,37*73
$GPGSV,4,2,13,29,42,267,26,02,41,132,24,30,16,055,14,21,15,317,14*70
$GPGSV,4,3,13,06,05,134,09,42,49,143,,50,46,136,,24,10,183,*73
$GPGSV,4,4,13,18,02,279,*4C
$GLGSV,3,1,10,88,63,216,27,81,42,317,34,66,42,298,32,65,39,020,17*67
$GLGSV,3,2,10,87,21,173,14,75,19,091,12,74,09,042,08,67,05,259,27*63
$GLGSV,3,3,10,76,07,146,,72,04,054,*61
$QZGSV,1,1,01,01,69,057,08*50
$GPGSA,A,3,02,05,13,15,20,21,29,30,,,,,2.3,1.1,2.0*39
$GNGSA,A,3,02,05,13,15,20,21,29,30,,,,,2.3,1.1,2.0*27
$GNGSA,A,3,65,67,81,87,88,,,,,,,,2.3,1.1,2.0*2B
$QZGSA,A,3,,,,,,,,,,,,,2.3,1.1,2.0*2D
$IMGSA,A,3,,,,,,,,,,,,,2.3,1.1,2.0*22
$PGLOR,1,FIX,1.0,1.0*20
$GPRMC,071124.00,A,2912.406572,N,11932.058332,E,000.0,,231016,,,A*7B
$PGLOR,SPL,20161023151123.3,POS,20161023071124.000,29.206776,119.534306,16,16,0,66,6,1.100000*6D
